[
{"url":"http://ade1.speedtest.telstra.net:8080/speedtest/upload.php","lat":"-34.9290","lon":"138.6010","distance":0,"name":"Adelaide","country":"Australia","cc":"AU","sponsor":"Telstra","id":"12495","preferred":0,"isp_id":"39","https_functional":1,"host":"ade1.speedtest.telstra.net:8080"},
{"url":"http://colocity.speedtest.gslnetworks.com:8080/speedtest/upload.php","lat":"-34.9290","lon":"138.6010","distance":0,"name":"Adelaide","country":"Australia","cc":"AU","sponsor":"GSL Networks","id":"48362","preferred":0,"isp_id":"274339","https_functional":1,"host":"colocity.speedtest.gslnetworks.com.prod.hosts.ooklaserver.net:8080"},
{"url":"http://sa-prka-st1.speedtest.aarnet.net.au:8080/speedtest/upload.php","lat":"-34.9290","lon":"138.6010","distance":0,"name":"Adelaide","country":"Australia","cc":"AU","sponsor":"AARNet","id":"62436","preferred":0,"isp_id":"10195","https_functional":1,"host":"sa-prka-st1.speedtest.aarnet.net.au:8080"},
{"url":"http://speedtest-adelaide.optusnet.com.au:8080/speedtest/upload.php","lat":"-34.9290","lon":"138.6010","distance":0,"name":"Adelaide","country":"Australia","cc":"AU","sponsor":"Optus","id":"30936","preferred":0,"isp_id":"71769","https_functional":1,"host":"speedtest-adelaide.optusnet.com.au:8080"},
{"url":"http://speedtest-blacktown.optusnet.com.au:8080/speedtest/upload.php","lat":"-33.7447","lon":"150.8842","distance":0,"name":"Blacktown","country":"Australia","cc":"AU","sponsor":"Optus","id":"8777","preferred":0,"isp_id":"71769","https_functional":1,"host":"speedtest-blacktown.optusnet.com.au:8080"},
{"url":"http://b2.speedtest.gslnetworks.com:8080/speedtest/upload.php","lat":"-27.4728","lon":"153.0278","distance":0,"name":"Brisbane","country":"Australia","cc":"AU","sponsor":"GSL Networks","id":"48346","preferred":0,"isp_id":"274339","https_functional":1,"host":"b2.speedtest.gslnetworks.com.prod.hosts.ooklaserver.net:8080"},
{"url":"http://brindb2speed1.wireline.com.au:8080/speedtest/upload.php","lat":"-27.4728","lon":"153.0278","distance":0,"name":"Brisbane","country":"Australia","cc":"AU","sponsor":"Wireline Group","id":"16514","preferred":0,"isp_id":"99929","https_functional":1,"host":"brindb2speed1.wireline.com.au.prod.hosts.ooklaserver.net:8080"},
{"url":"http://brs1.speedtest.telstra.net:8080/speedtest/upload.php","lat":"-27.4728","lon":"153.0278","distance":0,"name":"Brisbane","country":"Australia","cc":"AU","sponsor":"Telstra","id":"12493","preferred":0,"isp_id":"39","https_functional":1,"host":"brs1.speedtest.telstra.net:8080"},
{"url":"http://ookla.b2.neptune.net.au:8080/speedtest/upload.php","lat":"-27.4728","lon":"153.0278","distance":0,"name":"Brisbane","country":"Australia","cc":"AU","sponsor":"Neptune Internet","id":"70823","preferred":0,"isp_id":"299995","https_functional":1,"host":"ookla.b2.neptune.net.au.prod.hosts.ooklaserver.net:8080"},
{"url":"http://qld-gdpt-st1.speedtest.aarnet.net.au:8080/speedtest/upload.php","lat":"-27.4728","lon":"153.0278","distance":0,"name":"Brisbane","country":"Australia","cc":"AU","sponsor":"AARNet","id":"6119","preferred":0,"isp_id":"10195","https_functional":1,"host":"qld-gdpt-st1.speedtest.aarnet.net.au:8080"},
{"url":"http://qld.speedtest.exetel.com.au:8080/speedtest/upload.php","lat":"-27.4698","lon":"153.0251","distance":0,"name":"Brisbane","country":"Australia","cc":"AU","sponsor":"Exetel","id":"13276","preferred":0,"isp_id":"908","https_functional":1,"host":"qld.speedtest.exetel.com.au.prod.hosts.ooklaserver.net:8080"},
{"url":"http://qld.speedtest.leaptel.com.au:8080/speedtest/upload.php","lat":"-27.4728","lon":"153.0278","distance":0,"name":"Brisbane","country":"Australia","cc":"AU","sponsor":"Leaptel","id":"32880","preferred":0,"isp_id":"152580","https_functional":1,"host":"qld.speedtest.leaptel.com.au.prod.hosts.ooklaserver.net:8080"},
{"url":"http://spd01-bne.au.superloop.com:8080/speedtest/upload.php","lat":"-27.4728","lon":"153.0278","distance":0,"name":"Brisbane","country":"Australia","cc":"AU","sponsor":"Superloop Australia Pty Ltd","id":"54994","preferred":0,"isp_id":"150616","https_functional":1,"host":"spd01-bne.au.superloop.com.prod.hosts.ooklaserver.net:8080"},
{"url":"http://speed-br2.gigacomm.net.au:8080/speedtest/upload.php","lat":"-27.4728","lon":"153.0278","distance":0,"name":"Brisbane","country":"Australia","cc":"AU","sponsor":"GigaComm Pty Ltd","id":"70701","preferred":0,"isp_id":"192184","https_functional":1,"host":"speed-br2.gigacomm.net.au.prod.hosts.ooklaserver.net:8080"},
{"url":"http://speed.bne.aussiebroadband.com.au:8080/speedtest/upload.php","lat":"-27.4698","lon":"153.0251","distance":0,"name":"Brisbane","country":"Australia","cc":"AU","sponsor":"Aussie Broadband","id":"15134","preferred":0,"isp_id":"7219","https_functional":1,"host":"speed.bne.aussiebroadband.com.au.prod.hosts.ooklaserver.net:8080"},
{"url":"http://speedtest-bne-dn1.empower.net.au:8080/speedtest/upload.php","lat":"-27.4728","lon":"153.0278","distance":0,"name":"Brisbane","country":"Australia","cc":"AU","sponsor":"blueAPACHE","id":"39589","preferred":0,"isp_id":"90205","https_functional":1,"host":"speedtest-bne-dn1.empower.net.au.prod.hosts.ooklaserver.net:8080"},
{"url":"http://speedtest-bne.vocus.net:8080/speedtest/upload.php","lat":"-27.4728","lon":"153.0278","distance":0,"name":"Brisbane","country":"Australia","cc":"AU","sponsor":"Vocus Communications","id":"18248","preferred":0,"isp_id":"27711","https_functional":1,"host":"speedtest-bne.vocus.net.prod.hosts.ooklaserver.net:8080"},
{"url":"http://speedtest-brisbane.macquarietelecom.com:8080/speedtest/upload.php","lat":"-27.4728","lon":"153.0278","distance":0,"name":"Brisbane","country":"Australia","cc":"AU","sponsor":"Macquarie Telecom","id":"45056","preferred":0,"isp_id":"292368","https_functional":1,"host":"speedtest-brisbane.macquarietelecom.com.prod.hosts.ooklaserver.net:8080"},
{"url":"http://speedtest-brisbane.optusnet.com.au:8080/speedtest/upload.php","lat":"-27.4728","lon":"153.0278","distance":0,"name":"Brisbane","country":"Australia","cc":"AU","sponsor":"Optus","id":"1594","preferred":0,"isp_id":"71769","https_functional":1,"host":"speedtest-brisbane.optusnet.com.au:8080"},
{"url":"http://speedtest.b2.mhn.cloud:8080/speedtest/upload.php","lat":"-27.4728","lon":"153.0278","distance":0,"name":"Brisbane","country":"Australia","cc":"AU","sponsor":"Hosted Network","id":"60952","preferred":0,"isp_id":"94872","https_functional":1,"host":"speedtest.b2.mhn.cloud.prod.hosts.ooklaserver.net:8080"},
{"url":"http://speedtest.bri01.launtel.net.au:8080/speedtest/upload.php","lat":"-27.4728","lon":"153.0278","distance":0,"name":"Brisbane","country":"Australia","cc":"AU","sponsor":"Launtel","id":"64079","preferred":0,"isp_id":"137873","https_functional":1,"host":"speedtest.bri01.launtel.net.au.prod.hosts.ooklaserver.net:8080"},
{"url":"http://speedtest.capti.com.au:8080/speedtest/upload.php","lat":"-27.4698","lon":"153.0251","distance":0,"name":"Brisbane","country":"Australia","cc":"AU","sponsor":"Capti","id":"46575","preferred":0,"isp_id":"224931","https_functional":1,"host":"speedtest.capti.com.au.prod.hosts.ooklaserver.net:8080"},
{"url":"http://speedtest.qld.edgeix.net.au:8080/speedtest/upload.php","lat":"-27.4728","lon":"153.0278","distance":0,"name":"Brisbane","country":"Australia","cc":"AU","sponsor":"EdgeIX","id":"60977","preferred":0,"isp_id":"275202","https_functional":1,"host":"speedtest.qld.edgeix.net.au.prod.hosts.ooklaserver.net:8080"},
{"url":"http://speedtest01.bne1.spintel.net.au:8080/speedtest/upload.php","lat":"-27.4705","lon":"153.0260","distance":0,"name":"Brisbane","country":"Australia","cc":"AU","sponsor":"Spintel","id":"72855","preferred":0,"isp_id":"71839","https_functional":1,"host":"speedtest01.bne1.spintel.net.au.prod.hosts.ooklaserver.net:8080"},
{"url":"http://speedtest1.gigafy.com.au:8080/speedtest/upload.php","lat":"-27.4728","lon":"153.0278","distance":0,"name":"Brisbane","country":"Australia","cc":"AU","sponsor":"Gigafy","id":"35757","preferred":0,"isp_id":"171701","host":"speedtest1.gigafy.com.au:8080"},
{"url":"http://act-dksn-st1.speedtest.aarnet.net.au:8080/speedtest/upload.php","lat":"-35.3075","lon":"149.1244","distance":0,"name":"Canberra","country":"Australia","cc":"AU","sponsor":"AARNet","id":"52906","preferred":0,"isp_id":"10195","https_functional":1,"host":"act-dksn-st1.speedtest.aarnet.net.au:8080"},
{"url":"http://cbr1.speedtest.telstra.net:8080/speedtest/upload.php","lat":"-35.2809","lon":"149.1300","distance":0,"name":"Canberra","country":"Australia","cc":"AU","sponsor":"Telstra","id":"18711","preferred":0,"isp_id":"39","https_functional":1,"host":"cbr1.speedtest.telstra.net:8080"},
{"url":"http://speedtest-cbr.cdn.on.net:8080/speedtest/upload.php","lat":"-35.3075","lon":"149.1244","distance":0,"name":"Canberra","country":"Australia","cc":"AU","sponsor":"Internode","id":"2166","preferred":0,"isp_id":"32","https_functional":1,"host":"speedtest-cbr.cdn.on.net.prod.hosts.ooklaserver.net:8080"},
{"url":"http://cha1.speedtest.telstra.net:8080/speedtest/upload.php","lat":"-33.8008","lon":"151.1796","distance":0,"name":"Chatswood","country":"Australia","cc":"AU","sponsor":"Telstra","id":"18713","preferred":0,"isp_id":"39","https_functional":1,"host":"cha1.speedtest.telstra.net:8080"},
{"url":"http://drw1.speedtest.telstra.net:8080/speedtest/upload.php","lat":"-12.4634","lon":"130.8456","distance":0,"name":"Darwin","country":"Australia","cc":"AU","sponsor":"Telstra","id":"22036","preferred":0,"isp_id":"39","https_functional":1,"host":"drw1.speedtest.telstra.net:8080"},
{"url":"http://nt-drwn-st1.speedtest.aarnet.net.au:8080/speedtest/upload.php","lat":"-12.4500","lon":"130.8333","distance":0,"name":"Darwin","country":"Australia","cc":"AU","sponsor":"AARNet","id":"6757","preferred":0,"isp_id":"10195","https_functional":1,"host":"nt-drwn-st1.speedtest.aarnet.net.au:8080"},
{"url":"http://speedtest-darwin.optusnet.com.au:8080/speedtest/upload.php","lat":"-12.4500","lon":"130.8333","distance":0,"name":"Darwin","country":"Australia","cc":"AU","sponsor":"Optus","id":"10438","preferred":0,"isp_id":"71769","https_functional":1,"host":"speedtest-darwin.optusnet.com.au:8080"},
{"url":"https://speedtest-eastburwood.optusnet.com.au:8080/speedtest/upload.php","lat":"-37.8136","lon":"144.9631","distance":0,"name":"East Burwood","country":"Australia","cc":"AU","sponsor":"Optus","id":"9108","preferred":0,"isp_id":"71769","https_functional":1,"host":"speedtest-eastburwood.optusnet.com.au:8080"},
{"url":"http://speedtest.thryve.com.au:8080/speedtest/upload.php","lat":"-33.7960","lon":"151.2770","distance":0,"name":"Fairlight","country":"Australia","cc":"AU","sponsor":"Thryve Group - Thryve Broadband","id":"37994","preferred":0,"isp_id":"201122","https_functional":1,"host":"speedtest.thryve.com.au.prod.hosts.ooklaserver.net:8080"},
{"url":"http://speedtest.yless4u.com.au:8080/speedtest/upload.php","lat":"-35.3290","lon":"149.1740","distance":0,"name":"Fyshwick","country":"Australia","cc":"AU","sponsor":"YLess4U","id":"37133","preferred":0,"isp_id":"79311","https_functional":1,"host":"speedtest.yless4u.com.au.prod.hosts.ooklaserver.net:8080"},
{"url":"https://speedtest-geelong.optusnet.com.au:8080/speedtest/upload.php","lat":"-38.1499","lon":"144.3617","distance":0,"name":"Geelong","country":"Australia","cc":"AU","sponsor":"Optus","id":"10612","preferred":0,"isp_id":"71769","https_functional":1,"host":"speedtest-geelong.optusnet.com.au:8080"},
{"url":"http://ool1.speedtest.telstra.net:8080/speedtest/upload.php","lat":"-28.0160","lon":"153.0167","distance":0,"name":"Gold Coast","country":"Australia","cc":"AU","sponsor":"Telstra","id":"16329","preferred":0,"isp_id":"39","https_functional":1,"host":"ool1.speedtest.telstra.net:8080"},
{"url":"http://speedtest-goldcoast.optusnet.com.au:8080/speedtest/upload.php","lat":"-28.0160","lon":"153.0167","distance":0,"name":"Gold Coast","country":"Australia","cc":"AU","sponsor":"Optus","id":"10441","preferred":0,"isp_id":"71769","https_functional":1,"host":"speedtest-goldcoast.optusnet.com.au:8080"},
{"url":"http://hob1.speedtest.telstra.net:8080/speedtest/upload.php","lat":"-42.8821","lon":"147.3272","distance":0,"name":"Hobart","country":"Australia","cc":"AU","sponsor":"Telstra","id":"18712","preferred":0,"isp_id":"39","https_functional":1,"host":"hob1.speedtest.telstra.net:8080"},
{"url":"http://speedtest-hob.launtel.net.au:8080/speedtest/upload.php","lat":"-42.8806","lon":"147.3250","distance":0,"name":"Hobart","country":"Australia","cc":"AU","sponsor":"Launtel","id":"48679","preferred":0,"isp_id":"137873","https_functional":1,"host":"speedtest-hob.launtel.net.au.prod.hosts.ooklaserver.net:8080"},
{"url":"http://speedtest-hobart.optusnet.com.au:8080/speedtest/upload.php","lat":"-42.8806","lon":"147.3250","distance":0,"name":"Hobart","country":"Australia","cc":"AU","sponsor":"Optus","id":"8976","preferred":0,"isp_id":"71769","https_functional":1,"host":"speedtest-hobart.optusnet.com.au:8080"},
{"url":"http://tas-dwpk-st1.speedtest.aarnet.net.au:8080/speedtest/upload.php","lat":"-42.8806","lon":"147.3250","distance":0,"name":"Hobart","country":"Australia","cc":"AU","sponsor":"AARNet","id":"6369","preferred":0,"isp_id":"10195","https_functional":1,"host":"tas-dwpk-st1.speedtest.aarnet.net.au:8080"},
{"url":"http://speedtest.micron21.com:8080/speedtest/upload.php","lat":"-37.8020","lon":"145.3160","distance":0,"name":"Kilsyth","country":"Australia","cc":"AU","sponsor":"Micron21 Datacentre Pty Ltd","id":"25708","preferred":0,"isp_id":"274791","https_functional":1,"host":"speedtest.micron21.com.prod.hosts.ooklaserver.net:8080"},
{"url":"http://knx.speedtest.optitel.com.au:8080/speedtest/upload.php","lat":"-15.7783","lon":"128.7439","distance":0,"name":"Kununurra","country":"Australia","cc":"AU","sponsor":"OptiTel","id":"48114","preferred":0,"isp_id":"204344","https_functional":1,"host":"knx.speedtest.optitel.com.au.prod.hosts.ooklaserver.net:8080"},
{"url":"http://speedtest-lton.launtel.net.au:8080/speedtest/upload.php","lat":"-41.4391","lon":"147.1358","distance":0,"name":"Launceston","country":"Australia","cc":"AU","sponsor":"Launtel","id":"48503","preferred":0,"isp_id":"137873","https_functional":1,"host":"speedtest-lton.launtel.net.au.prod.hosts.ooklaserver.net:8080"},
{"url":"https://speedtest-limestonecoast.optusnet.com.au:8080/speedtest/upload.php","lat":"-37.8284","lon":"140.7804","distance":0,"name":"Limestone Coast","country":"Australia","cc":"AU","sponsor":"Optus","id":"10439","preferred":0,"isp_id":"71769","https_functional":1,"host":"speedtest-limestonecoast.optusnet.com.au:8080"},
{"url":"http://me1.speedtest.gslnetworks.com.au:8080/speedtest/upload.php","lat":"-37.8136","lon":"144.9631","distance":0,"name":"Melbourne","country":"Australia","cc":"AU","sponsor":"GSL Networks","id":"46114","preferred":0,"isp_id":"274339","https_functional":1,"host":"me1.speedtest.gslnetworks.com.au.prod.hosts.ooklaserver.net:8080"},
{"url":"http://mel1.speedtest.telstra.net:8080/speedtest/upload.php","lat":"-37.8136","lon":"144.9631","distance":0,"name":"Melbourne","country":"Australia","cc":"AU","sponsor":"Telstra","id":"12491","preferred":0,"isp_id":"39","https_functional":1,"host":"mel1.speedtest.telstra.net:8080"},
{"url":"http://melndm1speed1.wireline.com.au:8080/speedtest/upload.php","lat":"-37.8136","lon":"144.9631","distance":0,"name":"Melbourne","country":"Australia","cc":"AU","sponsor":"Wireline Group","id":"29826","preferred":0,"isp_id":"99929","https_functional":1,"host":"melndm1speed1.wireline.com.au.prod.hosts.ooklaserver.net:8080"},
{"url":"http://ookla.me1.neptune.net.au:8080/speedtest/upload.php","lat":"-37.8136","lon":"144.9631","distance":0,"name":"Melbourne","country":"Australia","cc":"AU","sponsor":"Neptune Internet","id":"68925","preferred":0,"isp_id":"299995","https_functional":1,"host":"ookla.me1.neptune.net.au.prod.hosts.ooklaserver.net:8080"},
{"url":"http://spd01-mel.au.superloop.com:8080/speedtest/upload.php","lat":"-37.8136","lon":"144.9631","distance":0,"name":"Melbourne","country":"Australia","cc":"AU","sponsor":"Superloop Australia Pty Ltd","id":"55297","preferred":0,"isp_id":"150616","https_functional":1,"host":"spd01-mel.au.superloop.com.prod.hosts.ooklaserver.net:8080"},
{"url":"http://speed-mel.gigacomm.net.au:8080/speedtest/upload.php","lat":"-37.8136","lon":"144.9631","distance":0,"name":"Melbourne","country":"Australia","cc":"AU","sponsor":"GigaComm Pty Ltd","id":"36100","preferred":0,"isp_id":"192184","https_functional":1,"host":"speed-mel.gigacomm.net.au.prod.hosts.ooklaserver.net:8080"},
{"url":"http://speed.mel.aussiebroadband.com.au:8080/speedtest/upload.php","lat":"-37.8136","lon":"144.9631","distance":0,"name":"Melbourne","country":"Australia","cc":"AU","sponsor":"Aussie Broadband","id":"14670","preferred":0,"isp_id":"7219","https_functional":1,"host":"speed.mel.aussiebroadband.com.au.prod.hosts.ooklaserver.net:8080"},
{"url":"http://speedtest-aus.chainlinkhosting.com:8080/speedtest/upload.php","lat":"-37.8136","lon":"144.9631","distance":0,"name":"Melbourne","country":"Australia","cc":"AU","sponsor":"ChainLinkHosting | ChainLinkNetworks","id":"65167","preferred":0,"isp_id":"174612","https_functional":1,"host":"speedtest-aus.chainlinkhosting.com.prod.hosts.ooklaserver.net:8080"},
{"url":"http://speedtest-mel-dn1.empower.net.au:8080/speedtest/upload.php","lat":"-37.8136","lon":"144.9631","distance":0,"name":"Melbourne","country":"Australia","cc":"AU","sponsor":"blueAPACHE","id":"39561","preferred":0,"isp_id":"90205","https_functional":1,"host":"speedtest-mel-dn1.empower.net.au.prod.hosts.ooklaserver.net:8080"},
{"url":"http://speedtest-mel.vic.au.hostuniversal.com.au:8080/speedtest/upload.php","lat":"-37.8136","lon":"144.9631","distance":0,"name":"Melbourne","country":"Australia","cc":"AU","sponsor":"Host Universal","id":"69525","preferred":0,"isp_id":"136098","https_functional":1,"host":"speedtest-mel.vic.au.hostuniversal.com.au.prod.hosts.ooklaserver.net:8080"},
{"url":"http://speedtest-mel.vocus.net:8080/speedtest/upload.php","lat":"-37.8136","lon":"144.9631","distance":0,"name":"Melbourne","country":"Australia","cc":"AU","sponsor":"Vocus Communications","id":"16207","preferred":0,"isp_id":"27711","https_functional":1,"host":"speedtest-mel.vocus.net.prod.hosts.ooklaserver.net:8080"},
{"url":"http://speedtest-melbourne.macquarietelecom.com:8080/speedtest/upload.php","lat":"-37.8136","lon":"144.9631","distance":0,"name":"Melbourne","country":"Australia","cc":"AU","sponsor":"Macquarie Telecom","id":"45057","preferred":0,"isp_id":"292368","https_functional":1,"host":"speedtest-melbourne.macquarietelecom.com.prod.hosts.ooklaserver.net:8080"},
{"url":"http://speedtest-melbourne.optusnet.com.au:8080/speedtest/upload.php","lat":"-37.8136","lon":"144.9631","distance":0,"name":"Melbourne","country":"Australia","cc":"AU","sponsor":"Optus","id":"30932","preferred":0,"isp_id":"71769","https_functional":1,"host":"speedtest-melbourne.optusnet.com.au:8080"},
{"url":"http://speedtest.mel.mhn.cloud:8080/speedtest/upload.php","lat":"-37.8136","lon":"144.9631","distance":0,"name":"Melbourne","country":"Australia","cc":"AU","sponsor":"Hosted Network","id":"60949","preferred":0,"isp_id":"94872","https_functional":1,"host":"speedtest.mel.mhn.cloud.prod.hosts.ooklaserver.net:8080"},
{"url":"http://speedtest.mel01.launtel.net.au:8080/speedtest/upload.php","lat":"-37.8136","lon":"144.9631","distance":0,"name":"Melbourne","country":"Australia","cc":"AU","sponsor":"Launtel","id":"61764","preferred":0,"isp_id":"137873","https_functional":1,"host":"speedtest.mel01.launtel.net.au.prod.hosts.ooklaserver.net:8080"},
{"url":"http://speedtest.net360.cloud:8080/speedtest/upload.php","lat":"-37.8136","lon":"144.9631","distance":0,"name":"Melbourne","country":"Australia","cc":"AU","sponsor":"NET360","id":"55588","preferred":0,"isp_id":"123385","https_functional":1,"host":"speedtest.net360.cloud.prod.hosts.ooklaserver.net:8080"},
{"url":"http://speedtest01.mel1.spintel.net.au:8080/speedtest/upload.php","lat":"-37.8136","lon":"144.9631","distance":0,"name":"Melbourne","country":"Australia","cc":"AU","sponsor":"Spintel","id":"72276","preferred":0,"isp_id":"71839","https_functional":1,"host":"speedtest01.mel1.spintel.net.au.prod.hosts.ooklaserver.net:8080"},
{"url":"http://speedtest2.comvergence.com.au:8080/speedtest/upload.php","lat":"-37.8136","lon":"144.9631","distance":0,"name":"Melbourne","country":"Australia","cc":"AU","sponsor":"Comvergence","id":"37688","preferred":0,"isp_id":"30067","https_functional":1,"host":"speedtest2.comvergence.com.au.prod.hosts.ooklaserver.net:8080"},
{"url":"http://vic-pmla-st1.speedtest.aarnet.net.au:8080/speedtest/upload.php","lat":"-37.8136","lon":"144.9631","distance":0,"name":"Melbourne","country":"Australia","cc":"AU","sponsor":"AARNet","id":"60412","preferred":0,"isp_id":"10195","https_functional":1,"host":"vic-pmla-st1.speedtest.aarnet.net.au:8080"},
{"url":"http://vic.speedtest.exetel.com.au:8080/speedtest/upload.php","lat":"-37.8136","lon":"144.9631","distance":0,"name":"Melbourne","country":"Australia","cc":"AU","sponsor":"Exetel","id":"13275","preferred":0,"isp_id":"908","https_functional":1,"host":"vic.speedtest.exetel.com.au.prod.hosts.ooklaserver.net:8080"},
{"url":"http://vic.speedtest.leaptel.com.au:8080/speedtest/upload.php","lat":"-37.8136","lon":"144.9631","distance":0,"name":"Melbourne","country":"Australia","cc":"AU","sponsor":"Leaptel","id":"25134","preferred":0,"isp_id":"170214","https_functional":1,"host":"vic.speedtest.leaptel.com.au.prod.hosts.ooklaserver.net:8080"},
{"url":"http://speedtest-moorooka.optusnet.com.au:8080/speedtest/upload.php","lat":"-27.5350","lon":"153.0260","distance":0,"name":"Moorooka","country":"Australia","cc":"AU","sponsor":"Optus","id":"31137","preferred":0,"isp_id":"71769","https_functional":1,"host":"speedtest-moorooka.optusnet.com.au:8080"},
{"url":"http://speedtest-newcastle.optusnet.com.au:8080/speedtest/upload.php","lat":"-32.9283","lon":"151.7817","distance":0,"name":"Newcastle","country":"Australia","cc":"AU","sponsor":"Optus","id":"10440","preferred":0,"isp_id":"71769","https_functional":1,"host":"speedtest-newcastle.optusnet.com.au:8080"},
{"url":"http://mcy1.speedtest.telstra.net:8080/speedtest/upload.php","lat":"-25.8833","lon":"152.5500","distance":0,"name":"Sunshine Coast","country":"Australia","cc":"AU","sponsor":"Telstra","id":"17702","preferred":0,"isp_id":"39","https_functional":1,"host":"mcy1.speedtest.telstra.net:8080"},
{"url":"http://au.st.spacecore.pro:8080/speedtest/upload.php","lat":"-33.8600","lon":"151.2111","distance":0,"name":"Sydney","country":"Australia","cc":"AU","sponsor":"SpaceCore.pro | Premium VPS Hosting","id":"69765","preferred":0,"isp_id":"200476","https_functional":1,"host":"au.st.spacecore.pro.prod.hosts.ooklaserver.net:8080"},
{"url":"http://aus-nperf.verizon.net:8080/speedtest/upload.php","lat":"-33.8600","lon":"151.2111","distance":0,"name":"Sydney","country":"Australia","cc":"AU","sponsor":"Verizon","id":"50441","preferred":0,"isp_id":"8041","https_functional":1,"host":"aus-nperf.verizon.net.prod.hosts.ooklaserver.net:8080"},
{"url":"http://nsw-brwy-st1.speedtest.aarnet.net.au:8080/speedtest/upload.php","lat":"-33.8600","lon":"151.2111","distance":0,"name":"Sydney","country":"Australia","cc":"AU","sponsor":"AARNet","id":"6355","preferred":0,"isp_id":"10195","https_functional":1,"host":"nsw-brwy-st1.speedtest.aarnet.net.au:8080"},
{"url":"http://nsw.speedtest.exetel.com.au:8080/speedtest/upload.php","lat":"-33.8600","lon":"151.2111","distance":0,"name":"Sydney","country":"Australia","cc":"AU","sponsor":"Exetel","id":"13279","preferred":0,"isp_id":"908","https_functional":1,"host":"nsw.speedtest.exetel.com.au.prod.hosts.ooklaserver.net:8080"},
{"url":"http://nsw.speedtest.leaptel.com.au:8080/speedtest/upload.php","lat":"-33.8600","lon":"151.2111","distance":0,"name":"Sydney","country":"Australia","cc":"AU","sponsor":"Leaptel","id":"34967","preferred":0,"isp_id":"170214","https_functional":1,"host":"nsw.speedtest.leaptel.com.au.prod.hosts.ooklaserver.net:8080"},
{"url":"http://ookla.sy1.neptune.net.au:8080/speedtest/upload.php","lat":"-33.8600","lon":"151.2111","distance":0,"name":"Sydney","country":"Australia","cc":"AU","sponsor":"Neptune Internet","id":"68924","preferred":0,"isp_id":"299995","https_functional":1,"host":"ookla.sy1.neptune.net.au.prod.hosts.ooklaserver.net:8080"},
{"url":"http://pauseq4vost1.datamossa.cloud:8080/speedtest/upload.php","lat":"-33.8600","lon":"151.2111","distance":0,"name":"Sydney","country":"Australia","cc":"AU","sponsor":"DataMossa","id":"27582","preferred":0,"isp_id":"322196","https_functional":1,"host":"pauseq4vost1.datamossa.cloud.prod.hosts.ooklaserver.net:8080"},
{"url":"http://spd03-syd.au.superloop.com:8080/speedtest/upload.php","lat":"-33.8600","lon":"151.2111","distance":0,"name":"Sydney","country":"Australia","cc":"AU","sponsor":"Superloop Australia Pty Ltd","id":"65184","preferred":0,"isp_id":"150616","https_functional":1,"host":"spd03-syd.au.superloop.com.prod.hosts.ooklaserver.net:8080"},
{"url":"http://speed-syd.gigacomm.net.au:8080/speedtest/upload.php","lat":"-33.8600","lon":"151.2111","distance":0,"name":"Sydney","country":"Australia","cc":"AU","sponsor":"GigaComm Pty Ltd","id":"36157","preferred":0,"isp_id":"192184","https_functional":1,"host":"speed-syd.gigacomm.net.au.prod.hosts.ooklaserver.net:8080"},
{"url":"http://speed.syd.aussiebroadband.com.au:8080/speedtest/upload.php","lat":"-33.8688","lon":"151.2093","distance":0,"name":"Sydney","country":"Australia","cc":"AU","sponsor":"Aussie Broadband","id":"15132","preferred":0,"isp_id":"7219","https_functional":1,"host":"speed.syd.aussiebroadband.com.au.prod.hosts.ooklaserver.net:8080"},
{"url":"http://speed4.snap.net.nz:8080/speedtest/upload.php","lat":"-33.8600","lon":"151.2111","distance":0,"name":"Sydney","country":"Australia","cc":"AU","sponsor":"2degrees","id":"18392","preferred":0,"isp_id":"114594","https_functional":1,"host":"speed4.snap.net.nz.prod.hosts.ooklaserver.net:8080"},
{"url":"http://speedtest-syd-dn1.empower.net.au:8080/speedtest/upload.php","lat":"-33.8600","lon":"151.2111","distance":0,"name":"Sydney","country":"Australia","cc":"AU","sponsor":"blueAPACHE","id":"39585","preferred":0,"isp_id":"90205","https_functional":1,"host":"speedtest-syd-dn1.empower.net.au.prod.hosts.ooklaserver.net:8080"},
{"url":"http://speedtest-syd.nsw.au.hostuniversal.com.au:8080/speedtest/upload.php","lat":"-33.8600","lon":"151.2111","distance":0,"name":"Sydney","country":"Australia","cc":"AU","sponsor":"Host Universal","id":"68241","preferred":0,"isp_id":"136098","https_functional":1,"host":"speedtest-syd.nsw.au.hostuniversal.com.au.prod.hosts.ooklaserver.net:8080"},
{"url":"http://speedtest-syd.thecore.net.au:8080/speedtest/upload.php","lat":"-33.8600","lon":"151.2111","distance":0,"name":"Sydney","country":"Australia","cc":"AU","sponsor":"Real World","id":"63404","preferred":0,"isp_id":"73511","https_functional":1,"host":"speedtest-syd.thecore.net.au.prod.hosts.ooklaserver.net:8080"},
{"url":"http://speedtest-syd.vocus.net:8080/speedtest/upload.php","lat":"-33.8600","lon":"151.2111","distance":0,"name":"Sydney","country":"Australia","cc":"AU","sponsor":"Vocus Communications","id":"17618","preferred":0,"isp_id":"27711","https_functional":1,"host":"speedtest-syd.vocus.net.prod.hosts.ooklaserver.net:8080"},
{"url":"http://speedtest-syd0.encoo.com.au:8080/speedtest/upload.php","lat":"-33.8600","lon":"151.2111","distance":0,"name":"Sydney","country":"Australia","cc":"AU","sponsor":"Encoo","id":"54213","preferred":0,"isp_id":"112532","https_functional":1,"host":"speedtest-syd0.encoo.com.au.prod.hosts.ooklaserver.net:8080"},
{"url":"http://speedtest-sydney.macquarietelecom.com:8080/speedtest/upload.php","lat":"-33.8600","lon":"151.2111","distance":0,"name":"Sydney","country":"Australia","cc":"AU","sponsor":"Macquarie Telecom","id":"45033","preferred":0,"isp_id":"292368","https_functional":1,"host":"speedtest-sydney.macquarietelecom.com.prod.hosts.ooklaserver.net:8080"},
{"url":"http://speedtest-sydney.optusnet.com.au:8080/speedtest/upload.php","lat":"-33.8600","lon":"151.2111","distance":0,"name":"Sydney","country":"Australia","cc":"AU","sponsor":"Optus","id":"1267","preferred":0,"isp_id":"71769","https_functional":1,"host":"speedtest-sydney.optusnet.com.au:8080"},
{"url":"http://speedtest.mirror.digitalpacific.com.au:8080/speedtest/upload.php","lat":"-33.8600","lon":"151.2111","distance":0,"name":"Sydney","country":"Australia","cc":"AU","sponsor":"Digital Pacific","id":"5744","preferred":0,"isp_id":"275078","https_functional":1,"host":"speedtest.mirror.digitalpacific.com.au.prod.hosts.ooklaserver.net:8080"},
{"url":"http://speedtest.mirror.serversaustralia.com.au:8080/speedtest/upload.php","lat":"-33.8600","lon":"151.2111","distance":0,"name":"Sydney","country":"Australia","cc":"AU","sponsor":"Servers Australia","id":"39108","preferred":0,"isp_id":"45372","https_functional":1,"host":"speedtest.mirror.serversaustralia.com.au.prod.hosts.ooklaserver.net:8080"},
{"url":"http://speedtest.syd.hawknetlabs.au:8080/speedtest/upload.php","lat":"-33.8600","lon":"151.2111","distance":0,"name":"Sydney","country":"Australia","cc":"AU","sponsor":"HawkNet Labs","id":"71971","preferred":0,"isp_id":"303303","host":"speedtest.syd.hawknetlabs.au:8080"},
{"url":"http://speedtest.syd.mhn.cloud:8080/speedtest/upload.php","lat":"-33.8600","lon":"151.2111","distance":0,"name":"Sydney","country":"Australia","cc":"AU","sponsor":"Hosted Network","id":"44473","preferred":0,"isp_id":"94872","https_functional":1,"host":"speedtest.syd.mhn.cloud.prod.hosts.ooklaserver.net:8080"},
{"url":"http://speedtest.syd01.launtel.net.au:8080/speedtest/upload.php","lat":"-33.8600","lon":"151.2111","distance":0,"name":"Sydney","country":"Australia","cc":"AU","sponsor":"Launtel","id":"61743","preferred":0,"isp_id":"137873","https_functional":1,"host":"speedtest.syd01.launtel.net.au.prod.hosts.ooklaserver.net:8080"},
{"url":"http://speedtest01.syd1.spintel.net.au:8080/speedtest/upload.php","lat":"-33.8600","lon":"151.2111","distance":0,"name":"Sydney","country":"Australia","cc":"AU","sponsor":"Spintel","id":"58437","preferred":0,"isp_id":"71839","https_functional":1,"host":"speedtest01.syd1.spintel.net.au.prod.hosts.ooklaserver.net:8080"},
{"url":"http://sy5.test.gslnetworks.com.au:8080/speedtest/upload.php","lat":"-33.8600","lon":"151.2111","distance":0,"name":"Sydney","country":"Australia","cc":"AU","sponsor":"GSL Networks","id":"44735","preferred":0,"isp_id":"274339","https_functional":1,"host":"sy5.test.gslnetworks.com.au.prod.hosts.ooklaserver.net:8080"},
{"url":"http://syd.speedtest.contabo.net:8080/speedtest/upload.php","lat":"-33.8600","lon":"151.2111","distance":0,"name":"Sydney","country":"Australia","cc":"AU","sponsor":"Contabo","id":"54360","preferred":0,"isp_id":"247516","host":"syd.speedtest.contabo.net:8080"},
{"url":"http://syd1.speedtest.telstra.net:8080/speedtest/upload.php","lat":"-33.8600","lon":"151.2111","distance":0,"name":"Sydney","country":"Australia","cc":"AU","sponsor":"Telstra","id":"12492","preferred":0,"isp_id":"39","https_functional":1,"host":"syd1.speedtest.telstra.net:8080"},
{"url":"http://sydgs2speed4.wireline.com.au:8080/speedtest/upload.php","lat":"-33.8600","lon":"151.2111","distance":0,"name":"Sydney","country":"Australia","cc":"AU","sponsor":"Wireline Group","id":"54817","preferred":0,"isp_id":"99929","https_functional":1,"host":"sydgs2speed4.wireline.com.au.prod.hosts.ooklaserver.net:8080"},
{"url":"http://sydspeedtest.rackdog.com:8080/speedtest/upload.php","lat":"-33.8600","lon":"151.2111","distance":0,"name":"Sydney","country":"Australia","cc":"AU","sponsor":"Rackdog","id":"46372","preferred":0,"isp_id":"275281","https_functional":1,"host":"sydspeedtest.rackdog.com.prod.hosts.ooklaserver.net:8080"},
{"url":"http://speedtest-townsville.optusnet.com.au:8080/speedtest/upload.php","lat":"-19.2590","lon":"146.8169","distance":0,"name":"Townsville","country":"Australia","cc":"AU","sponsor":"Optus","id":"10442","preferred":0,"isp_id":"71769","https_functional":1,"host":"speedtest-townsville.optusnet.com.au:8080"},
{"url":"http://win1.speedtest.telstra.net:8080/speedtest/upload.php","lat":"-37.8540","lon":"144.9880","distance":0,"name":"Windsor","country":"Australia","cc":"AU","sponsor":"Telstra","id":"18714","preferred":0,"isp_id":"39","https_functional":1,"host":"win1.speedtest.telstra.net:8080"},
{"url":"http://speedtest.power-speed.at:8080/speedtest/upload.php","lat":"47.9181","lon":"13.7994","distance":0,"name":"Gmunden","country":"Austria","cc":"AT","sponsor":"Energie AG Oberoesterreich","id":"5476","preferred":0,"isp_id":"177429","https_functional":1,"host":"speedtest.power-speed.at.prod.hosts.ooklaserver.net:8080"},
{"url":"http://speedtest.goingnet.at:8080/speedtest/upload.php","lat":"47.5150","lon":"12.3279","distance":0,"name":"Going am Wilden Kaiser","country":"Austria","cc":"AT","sponsor":"Goingnet GmbH","id":"41545","preferred":0,"isp_id":"242909","https_functional":1,"host":"speedtest.goingnet.at.prod.hosts.ooklaserver.net:8080"},
{"url":"http://speed.g.ml-net.at:8080/speedtest/upload.php","lat":"47.0703","lon":"15.4389","distance":0,"name":"Graz","country":"Austria","cc":"AT","sponsor":"Indeno GmbH - Cloud Solutions","id":"35566","preferred":0,"isp_id":"195567","https_functional":1,"host":"speed.g.ml-net.at.prod.hosts.ooklaserver.net:8080"},
{"url":"http://speedtest.citycom-austria.com:8080/speedtest/upload.php","lat":"47.0703","lon":"15.4389","distance":0,"name":"Graz","country":"Austria","cc":"AT","sponsor":"Citycom Telekommunikation GmbH","id":"3645","preferred":0,"isp_id":"58719","https_functional":1,"host":"speedtest.citycom-austria.com:8080"},
{"url":"http://speedtest.citynet.at:8080/speedtest/upload.php","lat":"47.2833","lon":"11.5000","distance":0,"name":"Hall In Tirol","country":"Austria","cc":"AT","sponsor":"HALLAG Kommunal GmbH - citynet.at","id":"29944","preferred":0,"isp_id":"188308","https_functional":1,"host":"speedtest.citynet.at:8080"},
{"url":"http://speedtest02.ikbnet.at:8080/speedtest/upload.php","lat":"47.2667","lon":"11.3833","distance":0,"name":"Innsbruck","country":"Austria","cc":"AT","sponsor":"Innsbrucker Kommunalbetriebe AG","id":"63259","preferred":0,"isp_id":"2120","https_functional":1,"host":"speedtest02.ikbnet.at.prod.hosts.ooklaserver.net:8080"},
{"url":"http://speed04.ama-networx.net:8080/speedtest/upload.php","lat":"46.6257","lon":"14.3137","distance":0,"name":"Klagenfurt","country":"Austria","cc":"AT","sponsor":"AMA netwoRX GmbH","id":"72709","preferred":0,"isp_id":"154865","https_functional":1,"host":"speed04.ama-networx.net:8080"},
{"url":"http://speedtest.kufnet.at:8080/speedtest/upload.php","lat":"47.5833","lon":"12.1667","distance":0,"name":"Kufstein","country":"Austria","cc":"AT","sponsor":"KufNet","id":"5662","preferred":0,"isp_id":"4715","https_functional":1,"host":"speedtest.kufnet.at.prod.hosts.ooklaserver.net:8080"},
{"url":"http://speedtest.tirolnet.com:8080/speedtest/upload.php","lat":"47.1406","lon":"10.5656","distance":0,"name":"Landeck","country":"Austria","cc":"AT","sponsor":"tirolnet gmbh","id":"59234","preferred":0,"isp_id":"266796","https_functional":1,"host":"speedtest.tirolnet.com.prod.hosts.ooklaserver.net:8080"},
{"url":"http://speedcheck.liwest.at:8080/speedtest/upload.php","lat":"48.3031","lon":"14.2906","distance":0,"name":"Linz","country":"Austria","cc":"AT","sponsor":"LIWEST Kabelmedien GmbH","id":"818","preferred":0,"isp_id":"1977","https_functional":1,"host":"speedcheck.liwest.at.prod.hosts.ooklaserver.net:8080"},
{"url":"http://speedtest-naw.pr-link.at:8080/speedtest/upload.php","lat":"47.9453","lon":"13.2247","distance":0,"name":"Neumarkt Am Wallersee","country":"Austria","cc":"AT","sponsor":"PR-Link - Peter Rauter GmbH","id":"54973","preferred":0,"isp_id":"20267","https_functional":1,"host":"speedtest-naw.pr-link.at.prod.hosts.ooklaserver.net:8080"},
{"url":"http://speedtest2.infotech-services.at:8080/speedtest/upload.php","lat":"48.2100","lon":"13.4894","distance":0,"name":"Ried","country":"Austria","cc":"AT","sponsor":"Infotech EDV-Systeme GmbH","id":"53627","preferred":0,"isp_id":"8507","https_functional":1,"host":"speedtest2.infotech-services.at.prod.hosts.ooklaserver.net:8080"},
{"url":"http://speedtest.sinovatec.com:8080/speedtest/upload.php","lat":"48.2704","lon":"14.5283","distance":0,"name":"Ried in der Riedmark","country":"Austria","cc":"AT","sponsor":"SinovaTec - Internet&More","id":"61126","preferred":0,"isp_id":"267444","https_functional":1,"host":"speedtest.sinovatec.com.prod.hosts.ooklaserver.net:8080"},
{"url":"http://speed.cablelink.at:8080/speedtest/upload.php","lat":"47.8000","lon":"13.0333","distance":0,"name":"Salzburg","country":"Austria","cc":"AT","sponsor":"Salzburg AG","id":"11532","preferred":0,"isp_id":"80","https_functional":1,"host":"speed.cablelink.at:8080"},
{"url":"http://speedtest-sbg.pr-link.at:8080/speedtest/upload.php","lat":"47.8000","lon":"13.0333","distance":0,"name":"Salzburg","country":"Austria","cc":"AT","sponsor":"PR-Link - Peter Rauter GmbH","id":"55259","preferred":0,"isp_id":"20267","https_functional":1,"host":"speedtest-sbg.pr-link.at.prod.hosts.ooklaserver.net:8080"},
{"url":"http://speedtest-satt.pr-link.at:8080/speedtest/upload.php","lat":"48.0738","lon":"14.0557","distance":0,"name":"Sattledt","country":"Austria","cc":"AT","sponsor":"PR-Link - Peter Rauter GmbH","id":"55754","preferred":0,"isp_id":"20267","https_functional":1,"host":"speedtest-satt.pr-link.at.prod.hosts.ooklaserver.net:8080"},
{"url":"http://speedtest-sdt.cosys.cc:8080/speedtest/upload.php","lat":"48.0738","lon":"14.0557","distance":0,"name":"Sattledt","country":"Austria","cc":"AT","sponsor":"COSYS DATA GmbH","id":"44437","preferred":0,"isp_id":"162617","https_functional":1,"host":"speedtest-sdt.cosys.cc.prod.hosts.ooklaserver.net:8080"},
{"url":"http://speedtest.lucas.company:8080/speedtest/upload.php","lat":"48.4605","lon":"13.4327","distance":0,"name":"Schärding","country":"Austria","cc":"AT","sponsor":"Lucas Development","id":"14296","preferred":0,"isp_id":"53972","https_functional":1,"host":"speedtest.lucas.company.prod.hosts.ooklaserver.net:8080"},
{"url":"http://speedtest.cablevision.at:8080/speedtest/upload.php","lat":"47.9472","lon":"13.6006","distance":0,"name":"Schorfling am Attersee","country":"Austria","cc":"AT","sponsor":"Expert Nöhmer","id":"3926","preferred":0,"isp_id":"99479","https_functional":1,"host":"speedtest.cablevision.at.prod.hosts.ooklaserver.net:8080"},
{"url":"http://speedtest.inn-energie.at:8080/speedtest/upload.php","lat":"48.2557","lon":"13.0443","distance":0,"name":"Simbach am Inn","country":"Austria","cc":"AT","sponsor":"In(n) Energie GmbH","id":"35528","preferred":0,"isp_id":"98920","https_functional":1,"host":"speedtest.inn-energie.at.prod.hosts.ooklaserver.net:8080"},
{"url":"http://speedtest.telfs.com:8080/speedtest/upload.php","lat":"47.2833","lon":"11.0667","distance":0,"name":"Telfs","country":"Austria","cc":"AT","sponsor":"Gemeindewerke Telfs G.m.b.H.","id":"6317","preferred":0,"isp_id":"201577","https_functional":1,"host":"speedtest.telfs.com.prod.hosts.ooklaserver.net:8080"},
{"url":"http://at.blackhost.network:8080/speedtest/upload.php","lat":"48.2088","lon":"16.3726","distance":0,"name":"Vienna","country":"Austria","cc":"AT","sponsor":"BlackHOST Ltd.","id":"46058","preferred":0,"isp_id":"478","https_functional":1,"host":"at.blackhost.network.prod.hosts.ooklaserver.net:8080"},
{"url":"https://lg-vie.fdcservers.net:8080/speedtest/upload.php","lat":"48.2088","lon":"16.3726","distance":0,"name":"Vienna","country":"Austria","cc":"AT","sponsor":"fdcservers.net","id":"6070","preferred":0,"isp_id":"213986","host":"lg-vie.fdcservers.net:8080"},
{"url":"http://ookla.evolushost.com:8080/speedtest/upload.php","lat":"48.2088","lon":"16.3726","distance":0,"name":"Vienna","country":"Austria","cc":"AT","sponsor":"Evolushost","id":"70748","preferred":0,"isp_id":"295287","https_functional":1,"host":"ookla.evolushost.com.prod.hosts.ooklaserver.net:8080"},
{"url":"http://speedtest-sa.magenta.at:8080/speedtest/upload.php","lat":"48.2088","lon":"16.3726","distance":0,"name":"Vienna","country":"Austria","cc":"AT","sponsor":"Magenta Telekom","id":"69855","preferred":0,"isp_id":"195567","https_functional":1,"host":"speedtest-sa.magenta.at.prod.hosts.ooklaserver.net:8080"},
{"url":"http://speedtest-vix.cosys.cc:8080/speedtest/upload.php","lat":"48.2088","lon":"16.3726","distance":0,"name":"Vienna","country":"Austria","cc":"AT","sponsor":"COSYS DATA GmbH","id":"16161","preferred":0,"isp_id":"162617","https_functional":1,"host":"speedtest-vix.cosys.cc.prod.hosts.ooklaserver.net:8080"},
{"url":"http://speedtest.alwyzon.net:8080/speedtest/upload.php","lat":"48.2082","lon":"16.3738","distance":0,"name":"Vienna","country":"Austria","cc":"AT","sponsor":"Alwyzon","id":"51547","preferred":0,"isp_id":"213979","https_functional":1,"host":"speedtest.alwyzon.net.prod.hosts.ooklaserver.net:8080"},
{"url":"http://speedtest.ama-networx.net:8080/speedtest/upload.php","lat":"48.2088","lon":"16.3726","distance":0,"name":"Vienna","country":"Austria","cc":"AT","sponsor":"AMA netwoRX GmbH","id":"16472","preferred":0,"isp_id":"154865","https_functional":1,"host":"speedtest.ama-networx.net:8080"},
{"url":"http://speedtest.blizznet.at:8080/speedtest/upload.php","lat":"48.2088","lon":"16.3726","distance":0,"name":"Vienna","country":"Austria","cc":"AT","sponsor":"Wien Energie Business","id":"62623","preferred":0,"isp_id":"64803","host":"speedtest.blizznet.at:8080"},
{"url":"http://speedtest.drei.at:8080/speedtest/upload.php","lat":"48.2088","lon":"16.3726","distance":0,"name":"Vienna","country":"Austria","cc":"AT","sponsor":"Hutchison Drei Austria GmbH","id":"1738","preferred":0,"isp_id":"17566","https_functional":1,"host":"speedtest.drei.at.prod.hosts.ooklaserver.net:8080"},
{"url":"http://speedtest.fonira.at:8080/speedtest/upload.php","lat":"48.2082","lon":"16.3738","distance":0,"name":"Vienna","country":"Austria","cc":"AT","sponsor":"fonira Telekom GmbH","id":"15152","preferred":0,"isp_id":"167019","https_functional":1,"host":"speedtest.fonira.at.prod.hosts.ooklaserver.net:8080"},
{"url":"http://speedtest.ftth.wien:8080/speedtest/upload.php","lat":"48.2088","lon":"16.3726","distance":0,"name":"Vienna","country":"Austria","cc":"AT","sponsor":"Wien Energie Superschnell","id":"63719","preferred":0,"isp_id":"64803","host":"speedtest.ftth.wien:8080"},
{"url":"http://speedtest.kapper.net:8080/speedtest/upload.php","lat":"48.2088","lon":"16.3726","distance":0,"name":"Vienna","country":"Austria","cc":"AT","sponsor":"kapper.net","id":"7412","preferred":0,"isp_id":"30793","https_functional":1,"host":"speedtest.kapper.net.prod.hosts.ooklaserver.net:8080"},
{"url":"http://speedtest.kraftcom.at:8080/speedtest/upload.php","lat":"48.2088","lon":"16.3726","distance":0,"name":"Vienna","country":"Austria","cc":"AT","sponsor":"KraftCom Service GmbH","id":"15904","preferred":0,"isp_id":"84371","https_functional":1,"host":"speedtest.kraftcom.at.prod.hosts.ooklaserver.net:8080"},
{"url":"http://speedtest.nessus.at:8080/speedtest/upload.php","lat":"48.2088","lon":"16.3726","distance":0,"name":"Vienna","country":"Austria","cc":"AT","sponsor":"Nessus GmbH (10G Uplink)","id":"3744","preferred":0,"isp_id":"87949","https_functional":1,"host":"speedtest.nessus.at.prod.hosts.ooklaserver.net:8080"},
{"url":"http://speedtest.netcup.at:8080/speedtest/upload.php","lat":"48.2088","lon":"16.3726","distance":0,"name":"Vienna","country":"Austria","cc":"AT","sponsor":"netcup GmbH","id":"60470","preferred":0,"isp_id":"267444","https_functional":1,"host":"speedtest.netcup.at:8080"},
{"url":"http://speedtest.nextlayer.at:8080/speedtest/upload.php","lat":"48.2088","lon":"16.3726","distance":0,"name":"Vienna","country":"Austria","cc":"AT","sponsor":"NEXT LAYER GmbH","id":"3199","preferred":0,"isp_id":"17566","https_functional":1,"host":"speedtest.nextlayer.at:8080"},
{"url":"http://speedtest.telematica.at:8080/speedtest/upload.php","lat":"48.2088","lon":"16.3726","distance":0,"name":"Vienna","country":"Austria","cc":"AT","sponsor":"Telematica","id":"53528","preferred":0,"isp_id":"320882","https_functional":1,"host":"speedtest.telematica.at:8080"},
{"url":"http://speedtest.vienna.nodescrape.net:8080/speedtest/upload.php","lat":"48.2088","lon":"16.3726","distance":0,"name":"Vienna","country":"Austria","cc":"AT","sponsor":"Nodescrape","id":"71096","preferred":0,"isp_id":"315851","https_functional":1,"host":"speedtest.vienna.nodescrape.net.prod.hosts.ooklaserver.net:8080"},
{"url":"http://speedtest03.timewarp.at:8080/speedtest/upload.php","lat":"48.2081","lon":"16.3713","distance":0,"name":"Vienna","country":"Austria","cc":"AT","sponsor":"Timewarp IT Consulting GmbH","id":"45732","preferred":0,"isp_id":"96205","https_functional":1,"host":"speedtest03.timewarp.at.prod.hosts.ooklaserver.net:8080"},
{"url":"http://speedtest0401.anexia-it.com:8080/speedtest/upload.php","lat":"48.2088","lon":"16.3726","distance":0,"name":"Vienna","country":"Austria","cc":"AT","sponsor":"Anexia","id":"12777","preferred":0,"isp_id":"320882","https_functional":1,"host":"speedtest0401.anexia-it.com:8080"},
{"url":"http://speedtest.itandtel.at:8080/speedtest/upload.php","lat":"48.1500","lon":"14.0167","distance":0,"name":"Wels","country":"Austria","cc":"AT","sponsor":"ITandTEL","id":"3840","preferred":0,"isp_id":"268001","https_functional":1,"host":"speedtest.itandtel.at.prod.hosts.ooklaserver.net:8080"},
{"url":"http://speedtest.link.bm:8080/speedtest/upload.php","lat":"32.3134","lon":"-64.7311","distance":0,"name":"Smith's Parish","country":"Bermuda","cc":"BM","sponsor":"LinkBermuda Ltd.","id":"9337","preferred":0,"isp_id":"94761","https_functional":1,"host":"speedtest.link.bm.prod.hosts.ooklaserver.net:8080"},
{"url":"http://aragonnetspeedtest.com.br:8080/speedtest/upload.php","lat":"-1.9466","lon":"-54.7388","distance":0,"name":"Alenquer","country":"Brazil","cc":"BR","sponsor":"ARAGON-NET PROVEDOR DE INTERNET","id":"30342","preferred":0,"isp_id":"198975","https_functional":1,"host":"aragonnetspeedtest.com.br.prod.hosts.ooklaserver.net:8080"},
{"url":"http://teste.routinger.com.br:8080/speedtest/upload.php","lat":"-3.5789","lon":"-59.1345","distance":0,"name":"Autazes","country":"Brazil","cc":"BR","sponsor":"Routinger","id":"64181","preferred":0,"isp_id":"228442","https_functional":1,"host":"teste.routinger.com.br:8080"},
{"url":"http://spd76.claro.com.br:8080/speedtest/upload.php","lat":"2.8235","lon":"-60.6759","distance":0,"name":"Boa Vista","country":"Brazil","cc":"BR","sponsor":"Claro Móvel - BVA1","id":"70589","preferred":0,"isp_id":"14791","https_functional":1,"host":"spd76.claro.com.br:8080"},
{"url":"http://speedtest.inforr.com.br:8080/speedtest/upload.php","lat":"2.8235","lon":"-60.6759","distance":0,"name":"Boa Vista","country":"Brazil","cc":"BR","sponsor":"INFORR TELECOM","id":"10931","preferred":0,"isp_id":"233646","https_functional":1,"host":"speedtest.inforr.com.br:8080"},
{"url":"http://speedtest.linknetbv.com:8080/speedtest/upload.php","lat":"2.8235","lon":"-60.6759","distance":0,"name":"Boa Vista","country":"Brazil","cc":"BR","sponsor":"LINK-NETBV","id":"49031","preferred":0,"isp_id":"285918","https_functional":1,"host":"speedtest.linknetbv.com:8080"},
{"url":"http://speedtest.roraimanet.com.br:8080/speedtest/upload.php","lat":"2.8206","lon":"-60.6738","distance":0,"name":"Boa Vista","country":"Brazil","cc":"BR","sponsor":"RoraimaNET Telecomunicações","id":"25279","preferred":0,"isp_id":"149462","https_functional":1,"host":"speedtest.roraimanet.com.br.prod.hosts.ooklaserver.net:8080"},
{"url":"http://speedtest.saidnettelecom.com.br:8080/speedtest/upload.php","lat":"2.8236","lon":"-60.6745","distance":0,"name":"Boa Vista","country":"Brazil","cc":"BR","sponsor":"SAIDNET TELECOM","id":"69557","preferred":0,"isp_id":"14791","https_functional":1,"host":"speedtest.saidnettelecom.com.br.prod.hosts.ooklaserver.net:8080"},
{"url":"http://speedtest.uplinkrr.com.br:8080/speedtest/upload.php","lat":"2.8235","lon":"-60.6759","distance":0,"name":"Boa Vista","country":"Brazil","cc":"BR","sponsor":"UpLink","id":"50249","preferred":0,"isp_id":"0","host":"speedtest.uplinkrr.com.br:8080"},
{"url":"http://speedtest.webfibertelecom.com.br:8080/speedtest/upload.php","lat":"2.8235","lon":"-60.6758","distance":0,"name":"Boa Vista","country":"Brazil","cc":"BR","sponsor":"Webfiber Telecom","id":"21777","preferred":0,"isp_id":"178316","https_functional":1,"host":"speedtest.webfibertelecom.com.br.prod.hosts.ooklaserver.net:8080"},
{"url":"http://speedteste.netfast.com.br:8080/speedtest/upload.php","lat":"2.8235","lon":"-60.6759","distance":0,"name":"Boa Vista","country":"Brazil","cc":"BR","sponsor":"NETFAST RR","id":"73307","preferred":0,"isp_id":"192340","https_functional":1,"host":"speedteste.netfast.com.br:8080"},
{"url":"http://speedtestrr.vtal.net.br:8080/speedtest/upload.php","lat":"2.8235","lon":"-60.6759","distance":0,"name":"Boa Vista","country":"Brazil","cc":"BR","sponsor":"Vtal","id":"40396","preferred":0,"isp_id":"243067","https_functional":1,"host":"speedtestrr.vtal.net.br.prod.hosts.ooklaserver.net:8080"},
{"url":"http://teste.suprainternet.com.br:8080/speedtest/upload.php","lat":"2.7885","lon":"-60.7259","distance":0,"name":"Boa Vista","country":"Brazil","cc":"BR","sponsor":"Supra internet","id":"46999","preferred":0,"isp_id":"318468","host":"teste.suprainternet.com.br:8080"},
{"url":"http://velocidade.4wnet.com.br:8080/speedtest/upload.php","lat":"2.8235","lon":"-60.6759","distance":0,"name":"Boa Vista","country":"Brazil","cc":"BR","sponsor":"4WNET TELECOMUNICAÇÕES","id":"25749","preferred":0,"isp_id":"192914","https_functional":1,"host":"velocidade.4wnet.com.br:8080"},
{"url":"http://velocidade.amazoniatelecom.com.br:8080/speedtest/upload.php","lat":"2.8235","lon":"-60.6759","distance":0,"name":"Boa Vista","country":"Brazil","cc":"BR","sponsor":"Amazônia Telecom","id":"22091","preferred":0,"isp_id":"164194","https_functional":1,"host":"velocidade.amazoniatelecom.com.br:8080"},
{"url":"http://speedtest-cam1.cyberlink.net.br:8080/speedtest/upload.php","lat":"-12.7002","lon":"-38.3253","distance":0,"name":"Camaçari","country":"Brazil","cc":"BR","sponsor":"Cyberlink","id":"71810","preferred":0,"isp_id":"185806","https_functional":1,"host":"speedtest-cam1.cyberlink.net.br:8080"},
{"url":"http://speedtest.routinger.com.br:8080/speedtest/upload.php","lat":"-3.8194","lon":"-60.3612","distance":0,"name":"Careiro","country":"Brazil","cc":"BR","sponsor":"Routinger","id":"45199","preferred":0,"isp_id":"228442","https_functional":1,"host":"speedtest.routinger.com.br:8080"},
{"url":"http://speedtest.cyberline.com.br:8080/speedtest/upload.php","lat":"-16.6667","lon":"-49.2667","distance":0,"name":"Goiânia","country":"Brazil","cc":"BR","sponsor":"CYBERLINE FIBRA","id":"27442","preferred":0,"isp_id":"201855","https_functional":1,"host":"speedtest.cyberline.com.br:8080"},
{"url":"http://7facile.brsserver.com.br:8080/speedtest/upload.php","lat":"-3.1350","lon":"-58.4385","distance":0,"name":"Itacoatiara","country":"Brazil","cc":"BR","sponsor":"7FACILE","id":"72528","preferred":0,"isp_id":"239444","https_functional":1,"host":"7facile.brsserver.com.br:8080"},
{"url":"http://speedtest.mixam.com.br:8080/speedtest/upload.php","lat":"-3.1350","lon":"-58.4385","distance":0,"name":"Itacoatiara","country":"Brazil","cc":"BR","sponsor":"Mix Internet","id":"65492","preferred":0,"isp_id":"129144","https_functional":1,"host":"speedtest.mixam.com.br.prod.hosts.ooklaserver.net:8080"},
{"url":"http://asanet.brsserver.com.br:8080/speedtest/upload.php","lat":"-2.7466","lon":"-58.0279","distance":0,"name":"Itapiranga","country":"Brazil","cc":"BR","sponsor":"Asanet","id":"69252","preferred":0,"isp_id":"212264","https_functional":1,"host":"asanet.brsserver.com.br:8080"},
{"url":"http://speedtest.japanettelecom.com.br:8080/speedtest/upload.php","lat":"-23.4849","lon":"-46.3495","distance":0,"name":"Itaquaquecetuba","country":"Brazil","cc":"BR","sponsor":"JAPANET TELECOM","id":"56562","preferred":0,"isp_id":"223300","https_functional":1,"host":"speedtest.japanettelecom.com.br:8080"},
{"url":"http://speedtest.conectaamazonia.com.br:8080/speedtest/upload.php","lat":"-2.5131","lon":"-56.1749","distance":0,"name":"Juruti","country":"Brazil","cc":"BR","sponsor":"CONECTA TELECOM","id":"57324","preferred":0,"isp_id":"128233","https_functional":1,"host":"speedtest.conectaamazonia.com.br:8080"},
{"url":"http://btestmcp.vocetelecom.vc:8080/speedtest/upload.php","lat":"0.0339","lon":"-51.3500","distance":0,"name":"Macapá","country":"Brazil","cc":"BR","sponsor":"Você Telecom","id":"55562","preferred":0,"isp_id":"105810","https_functional":1,"host":"btestmcp.vocetelecom.vc.prod.hosts.ooklaserver.net:8080"},
{"url":"http://spd79.claro.com.br:8080/speedtest/upload.php","lat":"0.0339","lon":"-51.3500","distance":0,"name":"Macapá","country":"Brazil","cc":"BR","sponsor":"Claro Móvel - MPA1","id":"70704","preferred":0,"isp_id":"14791","https_functional":1,"host":"spd79.claro.com.br:8080"},
{"url":"http://speedtest.americatelecom.net.br:8080/speedtest/upload.php","lat":"0.0339","lon":"-51.3500","distance":0,"name":"Macapá","country":"Brazil","cc":"BR","sponsor":"AMÉRICA TELECOM","id":"59625","preferred":0,"isp_id":"105531","https_functional":1,"host":"speedtest.americatelecom.net.br:8080"},
{"url":"http://speedtest.macapatelecom.net.br:8080/speedtest/upload.php","lat":"0.0339","lon":"-51.3500","distance":0,"name":"Macapá","country":"Brazil","cc":"BR","sponsor":"Macapá Telecom Ltda","id":"67763","preferred":0,"isp_id":"310984","host":"speedtest.macapatelecom.net.br:8080"},
{"url":"http://speedtest.pinguimtelecom.net.br:8080/speedtest/upload.php","lat":"0.0405","lon":"-51.0561","distance":0,"name":"Macapá","country":"Brazil","cc":"BR","sponsor":"PINGUIM TELECOM","id":"54670","preferred":0,"isp_id":"227551","https_functional":1,"host":"speedtest.pinguimtelecom.net.br:8080"},
{"url":"http://speedtest.webturbo.net.br:8080/speedtest/upload.php","lat":"0.0339","lon":"-51.3500","distance":0,"name":"Macapá","country":"Brazil","cc":"BR","sponsor":"Web Turbo","id":"24443","preferred":0,"isp_id":"196480","host":"speedtest.webturbo.net.br:8080"},
{"url":"http://speedtestap.vtal.net.br:8080/speedtest/upload.php","lat":"0.0405","lon":"-51.0561","distance":0,"name":"Macapá","country":"Brazil","cc":"BR","sponsor":"Vtal","id":"40399","preferred":0,"isp_id":"243067","https_functional":1,"host":"speedtestap.vtal.net.br.prod.hosts.ooklaserver.net:8080"},
{"url":"http://speedtestmacapa.webflash.net.br:8080/speedtest/upload.php","lat":"0.0405","lon":"-51.0561","distance":0,"name":"Macapá","country":"Brazil","cc":"BR","sponsor":"WebFlash","id":"55293","preferred":0,"isp_id":"77081","host":"speedtestmacapa.webflash.net.br:8080"},
{"url":"http://finitytelecom.brsserver.com.br:8080/speedtest/upload.php","lat":"-3.1000","lon":"-60.0167","distance":0,"name":"Manaus","country":"Brazil","cc":"BR","sponsor":"REDE FINITY TELECOM","id":"69961","preferred":0,"isp_id":"295105","https_functional":1,"host":"finitytelecom.brsserver.com.br:8080"},
{"url":"http://fwnetwork.brsserver.com.br:8080/speedtest/upload.php","lat":"-3.1000","lon":"-60.0167","distance":0,"name":"Manaus","country":"Brazil","cc":"BR","sponsor":"Fw Network","id":"70801","preferred":0,"isp_id":"315096","https_functional":1,"host":"fwnetwork.brsserver.com.br:8080"},
{"url":"http://glconnect.brsserver.com.br:8080/speedtest/upload.php","lat":"-3.1000","lon":"-60.0167","distance":0,"name":"Manaus","country":"Brazil","cc":"BR","sponsor":"GLCONNECT","id":"69773","preferred":0,"isp_id":"311783","https_functional":1,"host":"glconnect.brsserver.com.br:8080"},
{"url":"http://lifitelecom.brsserver.com.br:8080/speedtest/upload.php","lat":"-3.1000","lon":"-60.0167","distance":0,"name":"Manaus","country":"Brazil","cc":"BR","sponsor":"LIFI TELECOM","id":"67434","preferred":0,"isp_id":"304105","https_functional":1,"host":"lifitelecom.brsserver.com.br:8080"},
{"url":"http://mns.i-systems.com:8080/speedtest/upload.php","lat":"-3.1000","lon":"-60.0167","distance":0,"name":"Manaus","country":"Brazil","cc":"BR","sponsor":"I-Systems","id":"64565","preferred":0,"isp_id":"299307","https_functional":1,"host":"mns.i-systems.com:8080"},
{"url":"https://ok.conectmastelecom.com.br:8080/speedtest/upload.php","lat":"-3.1000","lon":"-60.0167","distance":0,"name":"Manaus","country":"Brazil","cc":"BR","sponsor":"CONECTMAS Telecom","id":"37188","preferred":0,"isp_id":"219759","https_functional":1,"host":"ok.conectmastelecom.com.br:8080"},
{"url":"http://ookla.amazoniasat-isp.com.br:8080/speedtest/upload.php","lat":"-3.1000","lon":"-60.0167","distance":0,"name":"Manaus","country":"Brazil","cc":"BR","sponsor":"Amazônia Sat","id":"47135","preferred":0,"isp_id":"151261","https_functional":1,"host":"ookla.amazoniasat-isp.com.br.prod.hosts.ooklaserver.net:8080"},
{"url":"http://ookla.araujotelecom.com.br:8080/speedtest/upload.php","lat":"-3.1000","lon":"-60.0167","distance":0,"name":"Manaus","country":"Brazil","cc":"BR","sponsor":"Araujo Telecom","id":"57219","preferred":0,"isp_id":"219759","https_functional":1,"host":"ookla.araujotelecom.com.br.prod.hosts.ooklaserver.net:8080"},
{"url":"http://ookla.fullisp.com.br:8080/speedtest/upload.php","lat":"-3.1000","lon":"-60.0167","distance":0,"name":"Manaus","country":"Brazil","cc":"BR","sponsor":"Full Telecom","id":"62310","preferred":0,"isp_id":"19182","https_functional":1,"host":"ookla.fullisp.com.br.prod.hosts.ooklaserver.net:8080"},
{"url":"http://ookla.jgainterlinktelecom.com.br:8080/speedtest/upload.php","lat":"-3.1000","lon":"-60.0167","distance":0,"name":"Manaus","country":"Brazil","cc":"BR","sponsor":"JGA INTER LINK TELECOM LTDA","id":"64271","preferred":0,"isp_id":"206074","https_functional":1,"host":"ookla.jgainterlinktelecom.com.br.prod.hosts.ooklaserver.net:8080"},
{"url":"http://ookla.playmaisreverso.net.br:8080/speedtest/upload.php","lat":"-3.1000","lon":"-60.0167","distance":0,"name":"Manaus","country":"Brazil","cc":"BR","sponsor":"PlayMais Fibra","id":"63156","preferred":0,"isp_id":"284546","https_functional":1,"host":"ookla.playmaisreverso.net.br.prod.hosts.ooklaserver.net:8080"},
{"url":"http://ookla.siditelecom-isp.com.br:8080/speedtest/upload.php","lat":"-3.1000","lon":"-60.0167","distance":0,"name":"Manaus","country":"Brazil","cc":"BR","sponsor":"Sidi Telecom","id":"47570","preferred":0,"isp_id":"193476","https_functional":1,"host":"ookla.siditelecom-isp.com.br.prod.hosts.ooklaserver.net:8080"},
{"url":"http://spd33.claro.com.br:8080/speedtest/upload.php","lat":"-3.1000","lon":"-60.0167","distance":0,"name":"Manaus","country":"Brazil","cc":"BR","sponsor":"Claro Móvel - MNS1","id":"37453","preferred":0,"isp_id":"14791","https_functional":1,"host":"spd33.claro.com.br:8080"},
{"url":"http://spdt.voenetworks.com:8080/speedtest/upload.php","lat":"-3.1190","lon":"-60.0217","distance":0,"name":"Manaus","country":"Brazil","cc":"BR","sponsor":"VOE NETWORKS","id":"72704","preferred":0,"isp_id":"313477","https_functional":1,"host":"spdt.voenetworks.com:8080"},
{"url":"http://speed.amazonett.com.br:8080/speedtest/upload.php","lat":"-3.1000","lon":"-60.0167","distance":0,"name":"Manaus","country":"Brazil","cc":"BR","sponsor":"Amazonet Telecom Ltda","id":"26522","preferred":0,"isp_id":"128217","https_functional":1,"host":"speed.amazonett.com.br:8080"},
{"url":"http://speedam.wsp.net.br:8080/speedtest/upload.php","lat":"-3.1000","lon":"-60.0167","distance":0,"name":"Manaus","country":"Brazil","cc":"BR","sponsor":"WSP FIBRA","id":"59830","preferred":0,"isp_id":"89080","https_functional":1,"host":"speedam.wsp.net.br:8080"},
{"url":"http://speedtest.3dnet.net.br:8080/speedtest/upload.php","lat":"-3.1000","lon":"-60.0167","distance":0,"name":"Manaus","country":"Brazil","cc":"BR","sponsor":"3DNET","id":"72985","preferred":0,"isp_id":"283369","https_functional":1,"host":"speedtest.3dnet.net.br.prod.hosts.ooklaserver.net:8080"},
{"url":"http://speedtest.albatroznetwork.com.br:8080/speedtest/upload.php","lat":"-3.1190","lon":"-60.0217","distance":0,"name":"Manaus","country":"Brazil","cc":"BR","sponsor":"Albatroz Network","id":"56117","preferred":0,"isp_id":"259266","https_functional":1,"host":"speedtest.albatroznetwork.com.br:8080"},
{"url":"http://speedtest.amnet.net.br:8080/speedtest/upload.php","lat":"-3.1000","lon":"-60.0167","distance":0,"name":"Manaus","country":"Brazil","cc":"BR","sponsor":"AMNET TELECOM","id":"24681","preferred":0,"isp_id":"163305","https_functional":1,"host":"speedtest.amnet.net.br.prod.hosts.ooklaserver.net:8080"},
{"url":"http://speedtest.gabysantos.com.br:8080/speedtest/upload.php","lat":"-3.1000","lon":"-60.0167","distance":0,"name":"Manaus","country":"Brazil","cc":"BR","sponsor":"GABY-SANTOS TELECOM","id":"71337","preferred":0,"isp_id":"219759","https_functional":1,"host":"speedtest.gabysantos.com.br.prod.hosts.ooklaserver.net:8080"},
{"url":"http://speedtest.jetspeed.com.br:8080/speedtest/upload.php","lat":"-3.1000","lon":"-60.0167","distance":0,"name":"Manaus","country":"Brazil","cc":"BR","sponsor":"JETSPEED FIBRA","id":"62857","preferred":0,"isp_id":"305349","https_functional":1,"host":"speedtest.jetspeed.com.br.prod.hosts.ooklaserver.net:8080"},
{"url":"http://speedtest.jvswifi.com.br:8080/speedtest/upload.php","lat":"-3.1000","lon":"-60.0167","distance":0,"name":"Manaus","country":"Brazil","cc":"BR","sponsor":"JVS WIFI","id":"53474","preferred":0,"isp_id":"224189","host":"speedtest.jvswifi.com.br:8080"},
{"url":"http://speedtest.linkamos.com.br:8080/speedtest/upload.php","lat":"-3.1000","lon":"-60.0167","distance":0,"name":"Manaus","country":"Brazil","cc":"BR","sponsor":"LINKAMOS PROVEDOR DE INTERNET","id":"57675","preferred":0,"isp_id":"219759","https_functional":1,"host":"speedtest.linkamos.com.br:8080"},
{"url":"http://speedtest.syscom.manaus.br:8080/speedtest/upload.php","lat":"-3.1000","lon":"-60.0167","distance":0,"name":"Manaus","country":"Brazil","cc":"BR","sponsor":"Syscom Telecom","id":"35189","preferred":0,"isp_id":"228359","https_functional":1,"host":"speedtest.syscom.manaus.br:8080"},
{"url":"http://speedtest.unitelecom.net.br:8080/speedtest/upload.php","lat":"-3.1000","lon":"-60.0167","distance":0,"name":"Manaus","country":"Brazil","cc":"BR","sponsor":"UNITELECOM","id":"43704","preferred":0,"isp_id":"232469","https_functional":1,"host":"speedtest.unitelecom.net.br.prod.hosts.ooklaserver.net:8080"},
{"url":"http://speedtest.visiontelecom.com.br:8080/speedtest/upload.php","lat":"-3.1000","lon":"-60.0167","distance":0,"name":"Manaus","country":"Brazil","cc":"BR","sponsor":"Vision Telecom","id":"32848","preferred":0,"isp_id":"193419","https_functional":1,"host":"speedtest.visiontelecom.com.br:8080"},
{"url":"http://speedtest1.axes.com.br:8080/speedtest/upload.php","lat":"-3.1000","lon":"-60.0167","distance":0,"name":"Manaus","country":"Brazil","cc":"BR","sponsor":"AXES","id":"10934","preferred":0,"isp_id":"139827","https_functional":1,"host":"speedtest1.axes.com.br.prod.hosts.ooklaserver.net:8080"},
{"url":"http://speedtestam.vtal.net.br:8080/speedtest/upload.php","lat":"-3.1000","lon":"-60.0167","distance":0,"name":"Manaus","country":"Brazil","cc":"BR","sponsor":"Vtal","id":"41076","preferred":0,"isp_id":"243067","https_functional":1,"host":"speedtestam.vtal.net.br.prod.hosts.ooklaserver.net:8080"},
{"url":"http://spetstmns01.timbrasil.com.br:8080/speedtest/upload.php","lat":"-3.1000","lon":"-60.0167","distance":0,"name":"Manaus","country":"Brazil","cc":"BR","sponsor":"TIM Brasil","id":"12562","preferred":0,"isp_id":"105781","https_functional":1,"host":"spetstmns01.timbrasil.com.br:8080"},
{"url":"http://stest.ultraconnect.com.br:8080/speedtest/upload.php","lat":"-3.1000","lon":"-60.0167","distance":0,"name":"Manaus","country":"Brazil","cc":"BR","sponsor":"ULTRACONNECT","id":"62816","preferred":0,"isp_id":"189997","https_functional":1,"host":"stest.ultraconnect.com.br:8080"},
{"url":"http://teste.diotelecom.com.br:8080/speedtest/upload.php","lat":"-3.1000","lon":"-60.0167","distance":0,"name":"Manaus","country":"Brazil","cc":"BR","sponsor":"Dio Telecom","id":"18981","preferred":0,"isp_id":"193507","https_functional":1,"host":"teste.diotelecom.com.br:8080"},
{"url":"http://teste.jsnet.manaus.br:8080/speedtest/upload.php","lat":"-3.1000","lon":"-60.0167","distance":0,"name":"Manaus","country":"Brazil","cc":"BR","sponsor":"JSNET","id":"55160","preferred":0,"isp_id":"203607","https_functional":1,"host":"teste.jsnet.manaus.br:8080"},
{"url":"http://teste.linkonfibra.com.br:8080/speedtest/upload.php","lat":"-3.1000","lon":"-60.0167","distance":0,"name":"Manaus","country":"Brazil","cc":"BR","sponsor":"Link ON FIBRA","id":"63090","preferred":0,"isp_id":"0","https_functional":1,"host":"teste.linkonfibra.com.br:8080"},
{"url":"http://teste.msfibraam.com.br:8080/speedtest/upload.php","lat":"-3.1000","lon":"-60.0167","distance":0,"name":"Manaus","country":"Brazil","cc":"BR","sponsor":"MSFIBRA","id":"71211","preferred":0,"isp_id":"235626","https_functional":1,"host":"teste.msfibraam.com.br:8080"},
{"url":"http://teste.mwhtelecom.com.br:8080/speedtest/upload.php","lat":"-3.1000","lon":"-60.0167","distance":0,"name":"Manaus","country":"Brazil","cc":"BR","sponsor":"MWH FIBRA","id":"62420","preferred":0,"isp_id":"311387","https_functional":1,"host":"teste.mwhtelecom.com.br:8080"},
{"url":"http://speedteste.newsolutionnet.com.br:8080/speedtest/upload.php","lat":"-3.1000","lon":"-60.0167","distance":0,"name":"Manaus","country":"Brazil","cc":"BR","sponsor":"New Solution Net","id":"32474","preferred":0,"isp_id":"201614","host":"teste.newsolutionnet.com.br:8080"},
{"url":"http://teste.reatelecom.com.br:8080/speedtest/upload.php","lat":"-3.1000","lon":"-60.0167","distance":0,"name":"Manaus","country":"Brazil","cc":"BR","sponsor":"R&A Telecom","id":"28117","preferred":0,"isp_id":"175871","https_functional":1,"host":"teste.reatelecom.com.br:8080"},
{"url":"http://teste.redefinitytelecom.com.br:8080/speedtest/upload.php","lat":"-3.1190","lon":"-60.0217","distance":0,"name":"Manaus","country":"Brazil","cc":"BR","sponsor":"FINITY TELECOM","id":"72716","preferred":0,"isp_id":"295105","https_functional":1,"host":"teste.redefinitytelecom.com.br:8080"},
{"url":"http://teste.wsfibra.com.br:8080/speedtest/upload.php","lat":"-3.1000","lon":"-60.0167","distance":0,"name":"Manaus","country":"Brazil","cc":"BR","sponsor":"WS-NET TELECOM","id":"36277","preferred":0,"isp_id":"128196","host":"teste.wsfibra.com.br:8080"},
{"url":"http://teste.xtremenet.com.br:8080/speedtest/upload.php","lat":"-3.1000","lon":"-60.0167","distance":0,"name":"Manaus","country":"Brazil","cc":"BR","sponsor":"Xtreme Soluções","id":"53923","preferred":0,"isp_id":"233364","https_functional":1,"host":"teste.xtremenet.com.br:8080"},
{"url":"http://velocidade.csrnetwork.com.br:8080/speedtest/upload.php","lat":"-3.1000","lon":"-60.0167","distance":0,"name":"Manaus","country":"Brazil","cc":"BR","sponsor":"CSRNETWORK","id":"71581","preferred":0,"isp_id":"130142","https_functional":1,"host":"velocidade.csrnetwork.com.br:8080"},
{"url":"http://velocidade.exytelecom.com.br:8080/speedtest/upload.php","lat":"-3.1000","lon":"-60.0167","distance":0,"name":"Manaus","country":"Brazil","cc":"BR","sponsor":"EXY TELECOM","id":"37986","preferred":0,"isp_id":"215942","host":"velocidade.exytelecom.com.br:8080"},
{"url":"http://velocidade.idnetttelecom.com.br:8080/speedtest/upload.php","lat":"-3.1000","lon":"-60.0167","distance":0,"name":"Manaus","country":"Brazil","cc":"BR","sponsor":"IDNETT TELECOM","id":"28448","preferred":0,"isp_id":"201171","https_functional":1,"host":"velocidade.idnetttelecom.com.br:8080"},
{"url":"https://velocidade.impertechtelecom.com.br:8080/speedtest/upload.php","lat":"-3.1000","lon":"-60.0167","distance":0,"name":"Manaus","country":"Brazil","cc":"BR","sponsor":"Impertech Telecom","id":"28429","preferred":0,"isp_id":"201877","https_functional":1,"host":"velocidade.impertechtelecom.com.br:8080"},
{"url":"http://velocidade.phinfortelecom.com.br:8080/speedtest/upload.php","lat":"-3.1000","lon":"-60.0167","distance":0,"name":"Manaus","country":"Brazil","cc":"BR","sponsor":"PH Telecom","id":"12169","preferred":0,"isp_id":"162548","https_functional":1,"host":"velocidade.phinfortelecom.com.br:8080"},
{"url":"http://velocimetro-mns.virtua.com.br:8080/speedtest/upload.php","lat":"-3.1000","lon":"-60.0167","distance":0,"name":"Manaus","country":"Brazil","cc":"BR","sponsor":"Claro Net Vírtua - MNS","id":"22139","preferred":0,"isp_id":"87729","https_functional":1,"host":"velocimetro-mns.virtua.com.br.prod.hosts.ooklaserver.net:8080"},
{"url":"http://velocimetro-spt.akto.com.br:8080/speedtest/upload.php","lat":"-3.1000","lon":"-60.0167","distance":0,"name":"Manaus","country":"Brazil","cc":"BR","sponsor":"Akto Tecnologia","id":"63417","preferred":0,"isp_id":"131677","https_functional":1,"host":"velocimetro-spt.akto.com.br:8080"},
{"url":"http://velocimetro.proveinter.com.br:8080/speedtest/upload.php","lat":"-3.1000","lon":"-60.0167","distance":0,"name":"Manaus","country":"Brazil","cc":"BR","sponsor":"Proveinter","id":"33584","preferred":0,"isp_id":"113681","https_functional":1,"host":"velocimetro.proveinter.com.br:8080"},
{"url":"http://velocimetro.speednetworks.com.br:8080/speedtest/upload.php","lat":"-3.1000","lon":"-60.0167","distance":0,"name":"Manaus","country":"Brazil","cc":"BR","sponsor":"SpeedNetworks","id":"43375","preferred":0,"isp_id":"128488","https_functional":1,"host":"velocimetro.speednetworks.com.br:8080"},
{"url":"http://redeultramf.net.br:8080/speedtest/upload.php","lat":"-2.0014","lon":"-54.0741","distance":0,"name":"Monte Alegre","country":"Brazil","cc":"BR","sponsor":"REDE ULTRA MF","id":"72175","preferred":0,"isp_id":"133533","https_functional":1,"host":"redeultramf.net.br:8080"},
{"url":"http://speedtest.redevisualnet.com.br:8080/speedtest/upload.php","lat":"-2.0014","lon":"-54.0741","distance":0,"name":"Monte Alegre","country":"Brazil","cc":"BR","sponsor":"Visual Telecom","id":"40357","preferred":0,"isp_id":"135774","https_functional":1,"host":"speedtest.redevisualnet.com.br.prod.hosts.ooklaserver.net:8080"},
{"url":"http://speedtest.topnettelecomservicos.com.br:8080/speedtest/upload.php","lat":"-2.0014","lon":"-54.0741","distance":0,"name":"Monte Alegre","country":"Brazil","cc":"BR","sponsor":"TOPNET TELECOM","id":"41579","preferred":0,"isp_id":"131723","host":"speedtest.topnettelecomservicos.com.br:8080"},
{"url":"http://test.infoconnecttelecom.com.br:8080/speedtest/upload.php","lat":"-2.1923","lon":"-56.7115","distance":0,"name":"Nhamundá","country":"Brazil","cc":"BR","sponsor":"INFO CONNECT TELECOM LTDA","id":"47393","preferred":0,"isp_id":"193863","host":"test.infoconnecttelecom.com.br:8080"},
{"url":"http://speedtest.defferrari.com.br:8080/speedtest/upload.php","lat":"-29.6833","lon":"-51.1333","distance":0,"name":"Novo Hamburgo","country":"Brazil","cc":"BR","sponsor":"Defferrari Soluções em Internet Ltda","id":"18237","preferred":0,"isp_id":"317910","host":"speedtest.defferrari.com.br:8080"},
{"url":"http://speedtest.gigawebtecnologia.com.br:8080/speedtest/upload.php","lat":"-29.6833","lon":"-51.1333","distance":0,"name":"Novo Hamburgo","country":"Brazil","cc":"BR","sponsor":"Gigaweb Tecnologia","id":"32357","preferred":0,"isp_id":"159099","https_functional":1,"host":"speedtest.gigawebtecnologia.com.br.prod.hosts.ooklaserver.net:8080"},
{"url":"http://speedtest.plusnetworks.com.br:8080/speedtest/upload.php","lat":"-29.6833","lon":"-51.1333","distance":0,"name":"Novo Hamburgo","country":"Brazil","cc":"BR","sponsor":"PLUS NETWORKS","id":"11289","preferred":0,"isp_id":"179614","https_functional":1,"host":"speedtest.plusnetworks.com.br:8080"},
{"url":"http://speedtest.undercorp.com.br:8080/speedtest/upload.php","lat":"-29.6833","lon":"-51.1333","distance":0,"name":"Novo Hamburgo","country":"Brazil","cc":"BR","sponsor":"UNDERCORP","id":"15130","preferred":0,"isp_id":"128609","https_functional":1,"host":"speedtest.undercorp.com.br.prod.hosts.ooklaserver.net:8080"},
{"url":"http://teste.topnetservices.com.br:8080/speedtest/upload.php","lat":"-29.6833","lon":"-51.1333","distance":0,"name":"Novo Hamburgo","country":"Brazil","cc":"BR","sponsor":"TOP NET SERVICES","id":"41389","preferred":0,"isp_id":"242592","https_functional":1,"host":"teste.topnetservices.com.br:8080"},
{"url":"http://velocimetro-nho.virtua.com.br:8080/speedtest/upload.php","lat":"-29.6833","lon":"-51.1333","distance":0,"name":"Novo Hamburgo","country":"Brazil","cc":"BR","sponsor":"Claro Net Vírtua - NHO","id":"54267","preferred":0,"isp_id":"87729","https_functional":1,"host":"velocimetro-nho.virtua.com.br.prod.hosts.ooklaserver.net:8080"},
{"url":"http://speedtest.orixinet.com.br:8080/speedtest/upload.php","lat":"-1.7607","lon":"-55.8629","distance":0,"name":"Oriximiná","country":"Brazil","cc":"BR","sponsor":"Orixinet Telecom Ltda - Epp","id":"44831","preferred":0,"isp_id":"114608","https_functional":1,"host":"speedtest.orixinet.com.br:8080"},
{"url":"http://velocity.softtelecom.net.br:8080/speedtest/upload.php","lat":"-1.7607","lon":"-55.8629","distance":0,"name":"Oriximiná","country":"Brazil","cc":"BR","sponsor":"Soft Telecom","id":"54909","preferred":0,"isp_id":"235618","host":"velocity.softtelecom.net.br:8080"},
{"url":"http://speedtest.connectbv8.com.br:8080/speedtest/upload.php","lat":"4.4784","lon":"-61.1483","distance":0,"name":"Pacaraima","country":"Brazil","cc":"BR","sponsor":"Connect","id":"50736","preferred":0,"isp_id":"232840","host":"speedtest.connectbv8.com.br:8080"},
{"url":"http://speedtest.pronetsuaconexao.com:8080/speedtest/upload.php","lat":"4.4784","lon":"-61.1483","distance":0,"name":"Pacaraima","country":"Brazil","cc":"BR","sponsor":"PRONET SUA CONEXAO","id":"72867","preferred":0,"isp_id":"290528","https_functional":1,"host":"speedtest.pronetsuaconexao.com:8080"},
{"url":"http://ooklatins.redeconexaonet.com:8080/speedtest/upload.php","lat":"-2.6320","lon":"-56.7331","distance":0,"name":"Parintins","country":"Brazil","cc":"BR","sponsor":"Rede ConexãoNet","id":"52848","preferred":0,"isp_id":"163306","https_functional":1,"host":"ooklatins.redeconexaonet.com:8080"},
{"url":"http://veloteste.mrjomar.com.br:8080/speedtest/upload.php","lat":"-2.6320","lon":"-56.7331","distance":0,"name":"Parintins","country":"Brazil","cc":"BR","sponsor":"MR Jomar","id":"58669","preferred":0,"isp_id":"128078","https_functional":1,"host":"veloteste.mrjomar.com.br:8080"},
{"url":"http://velocidade.milaninnet.com.br:8080/speedtest/upload.php","lat":"-21.4197","lon":"-50.0775","distance":0,"name":"Penápolis","country":"Brazil","cc":"BR","sponsor":"MILANINNET","id":"49776","preferred":0,"isp_id":"225564","https_functional":1,"host":"velocidade.milaninnet.com.br.prod.hosts.ooklaserver.net:8080"},
{"url":"http://servidor.speedplay.com.br:8080/speedtest/upload.php","lat":"-2.0533","lon":"-60.0236","distance":0,"name":"Presidente Figueiredo","country":"Brazil","cc":"BR","sponsor":"SPEED INTERNET","id":"59870","preferred":0,"isp_id":"243067","https_functional":1,"host":"servidor.speedplay.com.br:8080"},
{"url":"http://inova.net.gegnet.com.br:8080/speedtest/upload.php","lat":"-26.6776","lon":"-53.3190","distance":0,"name":"Romelândia","country":"Brazil","cc":"BR","sponsor":"Clic Internet","id":"51268","preferred":0,"isp_id":"77826","host":"inova.net.gegnet.com.br:8080"},
{"url":"http://speed.fyberlink.com.br:8080/speedtest/upload.php","lat":"-1.2270","lon":"-48.2960","distance":0,"name":"Santa Barbara do Pará","country":"Brazil","cc":"BR","sponsor":"Fyberlink","id":"71241","preferred":0,"isp_id":"290410","https_functional":1,"host":"speed.fyberlink.com.br.prod.hosts.ooklaserver.net:8080"},
{"url":"http://speedtest-stm.redeconecta.com:8080/speedtest/upload.php","lat":"-2.4506","lon":"-54.7009","distance":0,"name":"Santarém","country":"Brazil","cc":"BR","sponsor":"CONECTA AMAZÔNIA TELECOM","id":"26492","preferred":0,"isp_id":"128233","https_functional":1,"host":"speedtest-stm.redeconecta.com:8080"},
{"url":"http://speedtest.isppapagaio.com.br:8080/speedtest/upload.php","lat":"-2.4506","lon":"-54.7009","distance":0,"name":"Santarém","country":"Brazil","cc":"BR","sponsor":"Papagaio","id":"45108","preferred":0,"isp_id":"194184","https_functional":1,"host":"speedtest.isppapagaio.com.br.prod.hosts.ooklaserver.net:8080"},
{"url":"http://speedtest.nexinternett.com.br:8080/speedtest/upload.php","lat":"-2.4506","lon":"-54.7009","distance":0,"name":"Santarém","country":"Brazil","cc":"BR","sponsor":"Nex Internet","id":"64069","preferred":0,"isp_id":"265659","https_functional":1,"host":"speedtest.nexinternett.com.br:8080"},
{"url":"http://speedtest.provedoracesso.net:8080/speedtest/upload.php","lat":"-2.4506","lon":"-54.7009","distance":0,"name":"Santarém","country":"Brazil","cc":"BR","sponsor":"Acessonet","id":"58000","preferred":0,"isp_id":"0","https_functional":1,"host":"speedtest.provedoracesso.net:8080"},
{"url":"http://speedtest.redewsp.com.br:8080/speedtest/upload.php","lat":"-2.4506","lon":"-54.7009","distance":0,"name":"Santarém","country":"Brazil","cc":"BR","sponsor":"WSP FIBRA","id":"35928","preferred":0,"isp_id":"89080","https_functional":1,"host":"speedtest.redewsp.com.br:8080"},
{"url":"http://speedtestsantarem.zumtelecom.com.br:8080/speedtest/upload.php","lat":"-2.4506","lon":"-54.7009","distance":0,"name":"Santarém","country":"Brazil","cc":"BR","sponsor":"ZUM Telecom","id":"53658","preferred":0,"isp_id":"127891","https_functional":1,"host":"speedtestsantarem.zumtelecom.com.br.prod.hosts.ooklaserver.net:8080"},
{"url":"http://speedtestspeednet.com.br:8080/speedtest/upload.php","lat":"-2.4506","lon":"-54.7009","distance":0,"name":"Santarém","country":"Brazil","cc":"BR","sponsor":"SpeedNet_Ultra","id":"36300","preferred":0,"isp_id":"133533","https_functional":1,"host":"speedtestspeednet.com.br.prod.hosts.ooklaserver.net:8080"},
{"url":"https://teste.mov.pro.br:8080/speedtest/upload.php","lat":"-2.4506","lon":"-54.7009","distance":0,"name":"Santarém","country":"Brazil","cc":"BR","sponsor":"MOV Telecom","id":"36647","preferred":0,"isp_id":"192316","https_functional":1,"host":"teste.mov.pro.br:8080"},
{"url":"http://velocidadestm.amazonett.com.br:8080/speedtest/upload.php","lat":"-2.4506","lon":"-54.7009","distance":0,"name":"Santarém","country":"Brazil","cc":"BR","sponsor":"Amazonet Telecom Ltda","id":"38167","preferred":0,"isp_id":"128217","https_functional":1,"host":"velocidadestm.amazonett.com.br:8080"},
{"url":"http://velocimetrostm.interlig.net:8080/speedtest/upload.php","lat":"-2.4506","lon":"-54.7009","distance":0,"name":"Santarém","country":"Brazil","cc":"BR","sponsor":"Interlig","id":"40974","preferred":0,"isp_id":"128642","https_functional":1,"host":"velocimetrostm.interlig.net:8080"},
{"url":"http://sp.provedordantasnet.com.br:8080/speedtest/upload.php","lat":"1.0124","lon":"-60.0376","distance":0,"name":"São Luiz do Anauá","country":"Brazil","cc":"BR","sponsor":"DANTASNET","id":"69980","preferred":0,"isp_id":"314126","https_functional":1,"host":"sp.provedordantasnet.com.br:8080"},
{"url":"http://speedtest-tesa.coelhotecnologia.com.br:8080/speedtest/upload.php","lat":"-2.1046","lon":"-56.4882","distance":0,"name":"Terra Santa","country":"Brazil","cc":"BR","sponsor":"Coelho Fibra","id":"65416","preferred":0,"isp_id":"104069","https_functional":1,"host":"speedtest-tesa.coelhotecnologia.com.br.prod.hosts.ooklaserver.net:8080"},
{"url":"http://asanet1.brsserver.com.br:8080/speedtest/upload.php","lat":"-3.1291","lon":"-58.1537","distance":0,"name":"Urucurituba","country":"Brazil","cc":"BR","sponsor":"Asanet","id":"71817","preferred":0,"isp_id":"212264","host":"asanet1.brsserver.com.br:8080"},
{"url":"http://sof.speedtest.gslnetworks.com:8080/speedtest/upload.php","lat":"42.6951","lon":"23.3250","distance":0,"name":"Sofia","country":"Bulgaria","cc":"BG","sponsor":"GSL Networks","id":"65090","preferred":0,"isp_id":"321731","https_functional":1,"host":"sof.speedtest.gslnetworks.com.prod.hosts.ooklaserver.net:8080"},
{"url":"http://wirelinespeedtestbrampton.srvr.bell.ca:8080/speedtest/upload.php","lat":"43.7315","lon":"-79.7624","distance":0,"name":"Brampton, ON","country":"Canada","cc":"CA","sponsor":"Bell Canada","id":"53395","preferred":0,"isp_id":"0","https_functional":1,"host":"wirelinespeedtestbrampton.srvr.bell.ca.prod.hosts.ooklaserver.net:8080"},
{"url":"http://stbrantford.rogers.com:8080/speedtest/upload.php","lat":"43.1394","lon":"-80.2644","distance":0,"name":"Brantford, ON","country":"Canada","cc":"CA","sponsor":"Rogers","id":"47541","preferred":0,"isp_id":"164","https_functional":1,"host":"stbrantford.rogers.com:8080"},
{"url":"http://stbrantfordwireless.rogers.com:8080/speedtest/upload.php","lat":"43.1394","lon":"-80.2644","distance":0,"name":"Brantford, ON","country":"Canada","cc":"CA","sponsor":"Rogers Wireless","id":"46139","preferred":0,"isp_id":"164","https_functional":1,"host":"stbrantfordwireless.rogers.com:8080"},
{"url":"http://speedtest.cogeco.ca:8080/speedtest/upload.php","lat":"43.3255","lon":"-79.7990","distance":0,"name":"Burlington, ON","country":"Canada","cc":"CA","sponsor":"Cogeco Connexion Inc.","id":"17341","preferred":0,"isp_id":"282","https_functional":1,"host":"speedtest.cogeco.ca:8080"},
{"url":"http://wirelinespeedtestburlington.srvr.bell.ca:8080/speedtest/upload.php","lat":"43.3255","lon":"-79.7990","distance":0,"name":"Burlington, ON","country":"Canada","cc":"CA","sponsor":"Bell Canada","id":"46797","preferred":0,"isp_id":"0","https_functional":1,"host":"wirelinespeedtestburlington.srvr.bell.ca.prod.hosts.ooklaserver.net:8080"},
{"url":"http://speed.mpvnetworks.com:8080/speedtest/upload.php","lat":"42.4048","lon":"-82.1910","distance":0,"name":"Chatham, ON","country":"Canada","cc":"CA","sponsor":"MPVWIFI","id":"47304","preferred":0,"isp_id":"208551","https_functional":1,"host":"speed.mpvnetworks.com.prod.hosts.ooklaserver.net:8080"},
{"url":"http://speedtest-tek.teksavvy.com:8080/speedtest/upload.php","lat":"42.4048","lon":"-82.1910","distance":0,"name":"Chatham, ON","country":"Canada","cc":"CA","sponsor":"Teksavvy Solutions Inc.","id":"47750","preferred":0,"isp_id":"2324","https_functional":1,"host":"speedtest-tek.teksavvy.com.prod.hosts.ooklaserver.net:8080"},
{"url":"http://stchathamwireless.rogers.com:8080/speedtest/upload.php","lat":"42.4048","lon":"-82.1910","distance":0,"name":"Chatham, ON","country":"Canada","cc":"CA","sponsor":"Rogers Wireless","id":"47344","preferred":0,"isp_id":"164","https_functional":1,"host":"stchathamwireless.rogers.com:8080"},
{"url":"http://speedtest.gosfieldtel.ca:8080/speedtest/upload.php","lat":"42.1330","lon":"-82.7500","distance":0,"name":"Cottam, ON","country":"Canada","cc":"CA","sponsor":"Gosfield North Communications","id":"11505","preferred":0,"isp_id":"62744","https_functional":1,"host":"speedtest.gosfieldtel.ca.prod.hosts.ooklaserver.net:8080"},
{"url":"http://stetobicoke.netcrawler.ca:8080/speedtest/upload.php","lat":"43.6205","lon":"-79.5132","distance":0,"name":"Etobicoke, ON","country":"Canada","cc":"CA","sponsor":"Netcrawler.ca Internet","id":"51046","preferred":0,"isp_id":"226932","https_functional":1,"host":"stetobicoke.netcrawler.ca.prod.hosts.ooklaserver.net:8080"},
{"url":"http://stetobicoke.rogers.com:8080/speedtest/upload.php","lat":"43.6205","lon":"-79.5132","distance":0,"name":"Etobicoke, ON","country":"Canada","cc":"CA","sponsor":"Rogers","id":"46144","preferred":0,"isp_id":"164","https_functional":1,"host":"stetobicoke.rogers.com:8080"},
{"url":"http://stgeorgetownwireless.rogers.com:8080/speedtest/upload.php","lat":"43.6502","lon":"-79.9036","distance":0,"name":"Georgetown, ON","country":"Canada","cc":"CA","sponsor":"Rogers Wireless","id":"47345","preferred":0,"isp_id":"164","https_functional":1,"host":"stgeorgetownwireless.rogers.com:8080"},
{"url":"http://stguelph.netcrawler.ca:8080/speedtest/upload.php","lat":"43.5448","lon":"-80.2482","distance":0,"name":"Guelph, ON","country":"Canada","cc":"CA","sponsor":"Netcrawler.ca Internet","id":"54122","preferred":0,"isp_id":"226932","https_functional":1,"host":"stguelph.netcrawler.ca.prod.hosts.ooklaserver.net:8080"},
{"url":"http://stguelph.rogers.com:8080/speedtest/upload.php","lat":"43.5448","lon":"-80.2482","distance":0,"name":"Guelph, ON","country":"Canada","cc":"CA","sponsor":"Rogers","id":"46435","preferred":0,"isp_id":"164","https_functional":1,"host":"stguelph.rogers.com:8080"},
{"url":"http://stguelphwireless.rogers.com:8080/speedtest/upload.php","lat":"43.5448","lon":"-80.2482","distance":0,"name":"Guelph, ON","country":"Canada","cc":"CA","sponsor":"Rogers Wireless","id":"47328","preferred":0,"isp_id":"164","https_functional":1,"host":"stguelphwireless.rogers.com:8080"},
{"url":"http://wirelinespeedtestcambridge.srvr.bell.ca:8080/speedtest/upload.php","lat":"43.5448","lon":"-80.2482","distance":0,"name":"Guelph, ON","country":"Canada","cc":"CA","sponsor":"Bell Canada","id":"46805","preferred":0,"isp_id":"0","https_functional":1,"host":"wirelinespeedtestcambridge.srvr.bell.ca.prod.hosts.ooklaserver.net:8080"},
{"url":"http://mobilityooklahamilton.srvr.bell.ca:8080/speedtest/upload.php","lat":"43.2565","lon":"-79.8675","distance":0,"name":"Hamilton, ON","country":"Canada","cc":"CA","sponsor":"Bell Mobility","id":"52347","preferred":0,"isp_id":"0","https_functional":1,"host":"mobilityooklahamilton.srvr.bell.ca.prod.hosts.ooklaserver.net:8080"},
{"url":"http://sp1.hcetelecom.com:8080/speedtest/upload.php","lat":"43.2565","lon":"-79.8675","distance":0,"name":"Hamilton, ON","country":"Canada","cc":"CA","sponsor":"Hamilton Community Enterprises","id":"21275","preferred":0,"isp_id":"245329","host":"sp1.hcetelecom.com:8080"},
{"url":"http://sthamilton.netcrawler.ca:8080/speedtest/upload.php","lat":"43.2565","lon":"-79.8675","distance":0,"name":"Hamilton, ON","country":"Canada","cc":"CA","sponsor":"Netcrawler.ca Internet","id":"54123","preferred":0,"isp_id":"226932","https_functional":1,"host":"sthamilton.netcrawler.ca.prod.hosts.ooklaserver.net:8080"},
{"url":"http://sthamilton.rogers.com:8080/speedtest/upload.php","lat":"43.2565","lon":"-79.8675","distance":0,"name":"Hamilton, ON","country":"Canada","cc":"CA","sponsor":"Rogers","id":"46432","preferred":0,"isp_id":"164","https_functional":1,"host":"sthamilton.rogers.com:8080"},
{"url":"http://sthamiltonwireless.rogers.com:8080/speedtest/upload.php","lat":"43.2565","lon":"-79.8675","distance":0,"name":"Hamilton, ON","country":"Canada","cc":"CA","sponsor":"Rogers Wireless","id":"47326","preferred":0,"isp_id":"164","https_functional":1,"host":"sthamiltonwireless.rogers.com:8080"},
{"url":"http://wirelinespeedtesthamilton.srvr.bell.ca:8080/speedtest/upload.php","lat":"43.2565","lon":"-79.8675","distance":0,"name":"Hamilton, ON","country":"Canada","cc":"CA","sponsor":"Bell Canada","id":"46796","preferred":0,"isp_id":"0","https_functional":1,"host":"wirelinespeedtesthamilton.srvr.bell.ca.prod.hosts.ooklaserver.net:8080"},
{"url":"http://speedtest.brooketel.coop:8080/speedtest/upload.php","lat":"42.8180","lon":"-81.9825","distance":0,"name":"Inwood, ON","country":"Canada","cc":"CA","sponsor":"Brooke Telecom Co-Operative Inc.","id":"55213","preferred":0,"isp_id":"228980","https_functional":1,"host":"speedtest.brooketel.coop.prod.hosts.ooklaserver.net:8080"},
{"url":"http://speedtest.cloudwifi.ca:8080/speedtest/upload.php","lat":"43.4500","lon":"-80.4833","distance":0,"name":"Kitchener, ON","country":"Canada","cc":"CA","sponsor":"Cloudwifi","id":"16046","preferred":0,"isp_id":"122678","https_functional":1,"host":"speedtest.cloudwifi.ca.prod.hosts.ooklaserver.net:8080"},
{"url":"http://speedtest.netflash.net:8080/speedtest/upload.php","lat":"43.4500","lon":"-80.4833","distance":0,"name":"Kitchener, ON","country":"Canada","cc":"CA","sponsor":"Netflash Internet","id":"1061","preferred":0,"isp_id":"29017","https_functional":1,"host":"speedtest.netflash.net:8080"},
{"url":"http://stkitchener.rogers.com:8080/speedtest/upload.php","lat":"43.4500","lon":"-80.4833","distance":0,"name":"Kitchener, ON","country":"Canada","cc":"CA","sponsor":"Rogers","id":"46809","preferred":0,"isp_id":"164","https_functional":1,"host":"stkitchener.rogers.com:8080"},
{"url":"http://stkitchenerwireless.rogers.com:8080/speedtest/upload.php","lat":"43.4500","lon":"-80.4833","distance":0,"name":"Kitchener, ON","country":"Canada","cc":"CA","sponsor":"Rogers Wireless","id":"46125","preferred":0,"isp_id":"164","https_functional":1,"host":"stkitchenerwireless.rogers.com:8080"},
{"url":"http://wirelinespeedtestkitchener.srvr.bell.ca:8080/speedtest/upload.php","lat":"43.4500","lon":"-80.4833","distance":0,"name":"Kitchener, ON","country":"Canada","cc":"CA","sponsor":"Bell Canada","id":"46804","preferred":0,"isp_id":"0","https_functional":1,"host":"wirelinespeedtestkitchener.srvr.bell.ca.prod.hosts.ooklaserver.net:8080"},
{"url":"http://stleamingtonwireless.rogers.com:8080/speedtest/upload.php","lat":"42.0532","lon":"-82.5999","distance":0,"name":"Leamington, ON","country":"Canada","cc":"CA","sponsor":"Rogers Wireless","id":"47350","preferred":0,"isp_id":"164","https_functional":1,"host":"stleamingtonwireless.rogers.com:8080"},
{"url":"http://speedtest-london.start.ca:8080/speedtest/upload.php","lat":"42.9837","lon":"-81.2497","distance":0,"name":"London, ON","country":"Canada","cc":"CA","sponsor":"Start.ca","id":"24930","preferred":0,"isp_id":"16391","https_functional":1,"host":"speedtest-london.start.ca.prod.hosts.ooklaserver.net:8080"},
{"url":"http://speedtest.nftctelecom.net:8080/speedtest/upload.php","lat":"42.9849","lon":"-81.2453","distance":0,"name":"London, ON","country":"Canada","cc":"CA","sponsor":"NFTC Telecom","id":"14068","preferred":0,"isp_id":"106124","https_functional":1,"host":"speedtest.nftctelecom.net.prod.hosts.ooklaserver.net:8080"},
{"url":"http://stlondon.netcrawler.ca:8080/speedtest/upload.php","lat":"42.9849","lon":"-81.2453","distance":0,"name":"London, ON","country":"Canada","cc":"CA","sponsor":"Netcrawler.ca Internet","id":"54253","preferred":0,"isp_id":"226932","https_functional":1,"host":"stlondon.netcrawler.ca.prod.hosts.ooklaserver.net:8080"},
{"url":"http://stlondon.rogers.com:8080/speedtest/upload.php","lat":"42.9849","lon":"-81.2453","distance":0,"name":"London, ON","country":"Canada","cc":"CA","sponsor":"Rogers","id":"46149","preferred":0,"isp_id":"164","https_functional":1,"host":"stlondon.rogers.com:8080"},
{"url":"http://stlondonwireless.rogers.com:8080/speedtest/upload.php","lat":"42.9849","lon":"-81.2453","distance":0,"name":"London, ON","country":"Canada","cc":"CA","sponsor":"Rogers Wireless","id":"46137","preferred":0,"isp_id":"164","https_functional":1,"host":"stlondonwireless.rogers.com:8080"},
{"url":"http://wirelinespeedtestlondon.srvr.bell.ca:8080/speedtest/upload.php","lat":"42.9849","lon":"-81.2453","distance":0,"name":"London, ON","country":"Canada","cc":"CA","sponsor":"Bell Canada","id":"57695","preferred":0,"isp_id":"254596","https_functional":1,"host":"wirelinespeedtestlondon.srvr.bell.ca.prod.hosts.ooklaserver.net:8080"},
{"url":"http://clg-105-sptest.ncri.com:8080/speedtest/upload.php","lat":"43.6481","lon":"-79.4042","distance":0,"name":"Markham, ON","country":"Canada","cc":"CA","sponsor":"NCRi","id":"59812","preferred":0,"isp_id":"256720","https_functional":1,"host":"clg-105-sptest.ncri.com.prod.hosts.ooklaserver.net:8080"},
{"url":"http://wirelinespeedtestmarkham.srvr.bell.ca:8080/speedtest/upload.php","lat":"43.6481","lon":"-79.4042","distance":0,"name":"Markham, ON","country":"Canada","cc":"CA","sponsor":"Bell Canada","id":"17394","preferred":0,"isp_id":"0","https_functional":1,"host":"wirelinespeedtestmarkham.srvr.bell.ca.prod.hosts.ooklaserver.net:8080"},
{"url":"http://stmilton.rogers.com:8080/speedtest/upload.php","lat":"43.5183","lon":"-79.8774","distance":0,"name":"Milton, ON","country":"Canada","cc":"CA","sponsor":"Rogers","id":"47540","preferred":0,"isp_id":"164","https_functional":1,"host":"stmilton.rogers.com:8080"},
{"url":"http://stmiltonwireless.rogers.com:8080/speedtest/upload.php","lat":"43.5183","lon":"-79.8774","distance":0,"name":"Milton, ON","country":"Canada","cc":"CA","sponsor":"Rogers Wireless","id":"47330","preferred":0,"isp_id":"164","https_functional":1,"host":"stmiltonwireless.rogers.com:8080"},
{"url":"http://stmississauga.netcrawler.ca:8080/speedtest/upload.php","lat":"43.6000","lon":"-79.6500","distance":0,"name":"Mississauga, ON","country":"Canada","cc":"CA","sponsor":"Netcrawler.ca Internet","id":"48976","preferred":0,"isp_id":"226932","https_functional":1,"host":"stmississauga.netcrawler.ca.prod.hosts.ooklaserver.net:8080"},
{"url":"http://stmississauga.rogers.com:8080/speedtest/upload.php","lat":"43.6000","lon":"-79.6500","distance":0,"name":"Mississauga, ON","country":"Canada","cc":"CA","sponsor":"Rogers","id":"46147","preferred":0,"isp_id":"164","https_functional":1,"host":"stmississauga.rogers.com:8080"},
{"url":"http://stmississaugawireless.rogers.com:8080/speedtest/upload.php","lat":"43.6000","lon":"-79.6500","distance":0,"name":"Mississauga, ON","country":"Canada","cc":"CA","sponsor":"Rogers Wireless","id":"46123","preferred":0,"isp_id":"164","https_functional":1,"host":"stmississaugawireless.rogers.com:8080"},
{"url":"http://wirelinespeedtestmississauga.srvr.bell.ca:8080/speedtest/upload.php","lat":"43.6000","lon":"-79.6500","distance":0,"name":"Mississauga, ON","country":"Canada","cc":"CA","sponsor":"Bell Canada","id":"56780","preferred":0,"isp_id":"254596","https_functional":1,"host":"wirelinespeedtestmississauga.srvr.bell.ca.prod.hosts.ooklaserver.net:8080"},
{"url":"http://speedtest-mtl.beanfield.com:8080/speedtest/upload.php","lat":"45.5017","lon":"-73.5673","distance":0,"name":"Montreal, QC","country":"Canada","cc":"CA","sponsor":"Beanfield","id":"16045","preferred":0,"isp_id":"4966","https_functional":1,"host":"speedtest-mtl.beanfield.com.prod.hosts.ooklaserver.net:8080"},
{"url":"http://speedtest.cdmsfirst.com:8080/speedtest/upload.php","lat":"45.5017","lon":"-73.5673","distance":0,"name":"Montreal, QC","country":"Canada","cc":"CA","sponsor":"CDMS","id":"63155","preferred":0,"isp_id":"159859","host":"speedtest.cdmsfirst.com:8080"},
{"url":"http://speedtest.xcdtelecom.com:8080/speedtest/upload.php","lat":"45.5017","lon":"-73.5673","distance":0,"name":"Montreal, QC","country":"Canada","cc":"CA","sponsor":"XCD Télécom","id":"59219","preferred":0,"isp_id":"204334","https_functional":1,"host":"speedtest.xcdtelecom.com.prod.hosts.ooklaserver.net:8080"},
{"url":"http://stmontreal.netcrawler.ca:8080/speedtest/upload.php","lat":"45.5019","lon":"-73.5674","distance":0,"name":"Montreal, QC","country":"Canada","cc":"CA","sponsor":"Netcrawler.ca Internet","id":"64420","preferred":0,"isp_id":"226932","https_functional":1,"host":"stmontreal.netcrawler.ca.prod.hosts.ooklaserver.net:8080"},
{"url":"http://wirelinespeedtestmontreal.srvr.bell.ca:8080/speedtest/upload.php","lat":"45.5017","lon":"-73.5673","distance":0,"name":"Montreal, QC","country":"Canada","cc":"CA","sponsor":"Bell Canada","id":"58956","preferred":0,"isp_id":"254596","https_functional":1,"host":"wirelinespeedtestmontreal.srvr.bell.ca.prod.hosts.ooklaserver.net:8080"},
{"url":"http://speedtest.nrbn.ca:8080/speedtest/upload.php","lat":"43.0896","lon":"-79.0849","distance":0,"name":"Niagara Falls, ON","country":"Canada","cc":"CA","sponsor":"NRBN","id":"26573","preferred":0,"isp_id":"33020","https_functional":1,"host":"speedtest.nrbn.ca.prod.hosts.ooklaserver.net:8080"},
{"url":"http://stnorthyork.netcrawler.ca:8080/speedtest/upload.php","lat":"43.7615","lon":"-79.4111","distance":0,"name":"North York, ON","country":"Canada","cc":"CA","sponsor":"Netcrawler.ca Internet","id":"54220","preferred":0,"isp_id":"226932","https_functional":1,"host":"stnorthyork.netcrawler.ca.prod.hosts.ooklaserver.net:8080"},
{"url":"http://stnorthyork.rogers.com:8080/speedtest/upload.php","lat":"43.7615","lon":"-79.4111","distance":0,"name":"North York, ON","country":"Canada","cc":"CA","sponsor":"Rogers","id":"46811","preferred":0,"isp_id":"164","https_functional":1,"host":"stnorthyork.rogers.com:8080"},
{"url":"http://stnorthyorkwireless.rogers.com:8080/speedtest/upload.php","lat":"43.7615","lon":"-79.4111","distance":0,"name":"North York, ON","country":"Canada","cc":"CA","sponsor":"Rogers Wireless","id":"46761","preferred":0,"isp_id":"164","https_functional":1,"host":"stnorthyorkwireless.rogers.com:8080"},
{"url":"http://tor21spd01.srvr.bell.ca:8080/speedtest/upload.php","lat":"43.7615","lon":"-79.4111","distance":0,"name":"North York, ON","country":"Canada","cc":"CA","sponsor":"Bell Canada","id":"17568","preferred":0,"isp_id":"0","https_functional":1,"host":"tor21spd01.srvr.bell.ca.prod.hosts.ooklaserver.net:8080"},
{"url":"http://stoakville.rogers.com:8080/speedtest/upload.php","lat":"43.4675","lon":"-79.6877","distance":0,"name":"Oakville, ON","country":"Canada","cc":"CA","sponsor":"Rogers","id":"46763","preferred":0,"isp_id":"164","https_functional":1,"host":"stoakville.rogers.com:8080"},
{"url":"http://stscarborough.netcrawler.ca:8080/speedtest/upload.php","lat":"43.7764","lon":"-79.2318","distance":0,"name":"Scarborough, ON","country":"Canada","cc":"CA","sponsor":"Netcrawler.ca Internet","id":"46837","preferred":0,"isp_id":"226932","https_functional":1,"host":"stscarborough.netcrawler.ca.prod.hosts.ooklaserver.net:8080"},
{"url":"http://stscarborough.rogers.com:8080/speedtest/upload.php","lat":"43.7764","lon":"-79.2318","distance":0,"name":"Scarborough, ON","country":"Canada","cc":"CA","sponsor":"Rogers","id":"46431","preferred":0,"isp_id":"164","https_functional":1,"host":"stscarborough.rogers.com:8080"},
{"url":"http://wirelinespeedtestscarborough.srvr.bell.ca:8080/speedtest/upload.php","lat":"43.7764","lon":"-79.2318","distance":0,"name":"Scarborough, ON","country":"Canada","cc":"CA","sponsor":"Bell Canada","id":"53394","preferred":0,"isp_id":"0","https_functional":1,"host":"wirelinespeedtestscarborough.srvr.bell.ca.prod.hosts.ooklaserver.net:8080"},
{"url":"http://ststcatharineswireless.rogers.com:8080/speedtest/upload.php","lat":"43.1594","lon":"-79.2469","distance":0,"name":"St. Catharines, ON","country":"Canada","cc":"CA","sponsor":"Rogers Wireless","id":"46138","preferred":0,"isp_id":"164","https_functional":1,"host":"ststcatharineswireless.rogers.com:8080"},
{"url":"http://wirelinespeedteststcatharines.srvr.bell.ca:8080/speedtest/upload.php","lat":"43.1594","lon":"-79.2469","distance":0,"name":"St. Catharines, ON","country":"Canada","cc":"CA","sponsor":"Bell Canada","id":"46794","preferred":0,"isp_id":"0","https_functional":1,"host":"wirelinespeedteststcatharines.srvr.bell.ca.prod.hosts.ooklaserver.net:8080"},
{"url":"http://ststthomas.rogers.com:8080/speedtest/upload.php","lat":"42.7777","lon":"-81.1827","distance":0,"name":"St. Thomas, ON","country":"Canada","cc":"CA","sponsor":"Rogers","id":"47542","preferred":0,"isp_id":"164","https_functional":1,"host":"ststthomas.rogers.com:8080"},
{"url":"http://ststthomaswireless.rogers.com:8080/speedtest/upload.php","lat":"42.7777","lon":"-81.1827","distance":0,"name":"St. Thomas, ON","country":"Canada","cc":"CA","sponsor":"Rogers Wireless","id":"47346","preferred":0,"isp_id":"164","https_functional":1,"host":"ststthomaswireless.rogers.com:8080"},
{"url":"http://wirelinespeedteststthomas.srvr.bell.ca:8080/speedtest/upload.php","lat":"42.7777","lon":"-81.1827","distance":0,"name":"St. Thomas, ON","country":"Canada","cc":"CA","sponsor":"Bell Canada","id":"43553","preferred":0,"isp_id":"0","https_functional":1,"host":"wirelinespeedteststthomas.srvr.bell.ca.prod.hosts.ooklaserver.net:8080"},
{"url":"http://ststratford.rogers.com:8080/speedtest/upload.php","lat":"43.3700","lon":"-80.9822","distance":0,"name":"Stratford, ON","country":"Canada","cc":"CA","sponsor":"Rogers","id":"47547","preferred":0,"isp_id":"164","https_functional":1,"host":"ststratford.rogers.com:8080"},