[
{"url":"http://speedtest.japanettelecom.com.br:8080/speedtest/upload.php","lat":"-23.4849","lon":"-46.3495","distance":0,"name":"Itaquaquecetuba","country":"Brazil","cc":"BR","sponsor":"JAPANET TELECOM","id":"56562","preferred":0,"isp_id":"223300","https_functional":1,"host":"speedtest.japanettelecom.com.br:8080"},
{"url":"http://speedtest.defferrari.com.br:8080/speedtest/upload.php","lat":"-29.6833","lon":"-51.1333","distance":0,"name":"Novo Hamburgo","country":"Brazil","cc":"BR","sponsor":"Defferrari Soluções em Internet Ltda","id":"18237","preferred":0,"isp_id":"317910","https_functional":1,"host":"speedtest.defferrari.com.br:8080"},
{"url":"http://speedtest.gigawebtecnologia.com.br:8080/speedtest/upload.php","lat":"-29.6833","lon":"-51.1333","distance":0,"name":"Novo Hamburgo","country":"Brazil","cc":"BR","sponsor":"Gigaweb Tecnologia","id":"32357","preferred":0,"isp_id":"159099","https_functional":1,"host":"speedtest.gigawebtecnologia.com.br.prod.hosts.ooklaserver.net:8080"},
{"url":"http://speedtest.plusnetworks.com.br:8080/speedtest/upload.php","lat":"-29.6833","lon":"-51.1333","distance":0,"name":"Novo Hamburgo","country":"Brazil","cc":"BR","sponsor":"PLUS NETWORKS","id":"11289","preferred":0,"isp_id":"179614","https_functional":1,"host":"speedtest.plusnetworks.com.br:8080"},
{"url":"http://speedtest.undercorp.com.br:8080/speedtest/upload.php","lat":"-29.6833","lon":"-51.1333","distance":0,"name":"Novo Hamburgo","country":"Brazil","cc":"BR","sponsor":"UNDERCORP","id":"15130","preferred":0,"isp_id":"128609","https_functional":1,"host":"speedtest.undercorp.com.br.prod.hosts.ooklaserver.net:8080"},
{"url":"http://teste.topnetservices.com.br:8080/speedtest/upload.php","lat":"-29.6833","lon":"-51.1333","distance":0,"name":"Novo Hamburgo","country":"Brazil","cc":"BR","sponsor":"TOP NET SERVICES","id":"41389","preferred":0,"isp_id":"242592","https_functional":1,"host":"teste.topnetservices.com.br:8080"},
{"url":"http://velocimetro-nho.virtua.com.br:8080/speedtest/upload.php","lat":"-29.6833","lon":"-51.1333","distance":0,"name":"Novo Hamburgo","country":"Brazil","cc":"BR","sponsor":"Claro Net Vírtua - NHO","id":"54267","preferred":0,"isp_id":"87729","https_functional":1,"host":"velocimetro-nho.virtua.com.br.prod.hosts.ooklaserver.net:8080"},
{"url":"http://mobilityooklabarrie.srvr.bell.ca:8080/speedtest/upload.php","lat":"44.3900","lon":"-79.6860","distance":0,"name":"Barrie, ON","country":"Canada","cc":"CA","sponsor":"Bell Mobility","id":"52345","preferred":0,"isp_id":"0","https_functional":1,"host":"mobilityooklabarrie.srvr.bell.ca.prod.hosts.ooklaserver.net:8080"},
{"url":"http://stbarrie.rogers.com:8080/speedtest/upload.php","lat":"44.3900","lon":"-79.6860","distance":0,"name":"Barrie, ON","country":"Canada","cc":"CA","sponsor":"Rogers","id":"46812","preferred":0,"isp_id":"164","https_functional":1,"host":"stbarrie.rogers.com:8080"},
{"url":"http://wirelinespeedtestbarrie.srvr.bell.ca:8080/speedtest/upload.php","lat":"44.3900","lon":"-79.6860","distance":0,"name":"Barrie, ON","country":"Canada","cc":"CA","sponsor":"Bell Canada","id":"57780","preferred":0,"isp_id":"254596","https_functional":1,"host":"wirelinespeedtestbarrie.srvr.bell.ca.prod.hosts.ooklaserver.net:8080"},
{"url":"http://speedtest.systemlifeline.com:8080/speedtest/upload.php","lat":"43.7315","lon":"-79.7624","distance":0,"name":"Brampton, ON","country":"Canada","cc":"CA","sponsor":"System Lifeline Inc.","id":"23625","preferred":0,"isp_id":"212871","https_functional":1,"host":"speedtest.systemlifeline.com.prod.hosts.ooklaserver.net:8080"},
{"url":"http://stbrampton.netcrawler.ca:8080/speedtest/upload.php","lat":"43.7315","lon":"-79.7624","distance":0,"name":"Brampton, ON","country":"Canada","cc":"CA","sponsor":"Netcrawler.ca Internet","id":"51020","preferred":0,"isp_id":"226932","https_functional":1,"host":"stbrampton.netcrawler.ca.prod.hosts.ooklaserver.net:8080"},
{"url":"http://stbrampton.rogers.com:8080/speedtest/upload.php","lat":"43.7315","lon":"-79.7624","distance":0,"name":"Brampton, ON","country":"Canada","cc":"CA","sponsor":"Rogers","id":"46148","preferred":0,"isp_id":"164","https_functional":1,"host":"stbrampton.rogers.com:8080"},
{"url":"http://wirelinespeedtestbrampton.srvr.bell.ca:8080/speedtest/upload.php","lat":"43.7315","lon":"-79.7624","distance":0,"name":"Brampton, ON","country":"Canada","cc":"CA","sponsor":"Bell Canada","id":"53395","preferred":0,"isp_id":"0","https_functional":1,"host":"wirelinespeedtestbrampton.srvr.bell.ca.prod.hosts.ooklaserver.net:8080"},
{"url":"http://speedtest3.westmancom.com:8080/speedtest/upload.php","lat":"49.8333","lon":"-99.9500","distance":0,"name":"Brandon, MB","country":"Canada","cc":"CA","sponsor":"Westman Communications Group","id":"52510","preferred":0,"isp_id":"0","https_functional":1,"host":"speedtest3.westmancom.com.prod.hosts.ooklaserver.net:8080"},
{"url":"http://stbrantford.rogers.com:8080/speedtest/upload.php","lat":"43.1394","lon":"-80.2644","distance":0,"name":"Brantford, ON","country":"Canada","cc":"CA","sponsor":"Rogers","id":"47541","preferred":0,"isp_id":"164","https_functional":1,"host":"stbrantford.rogers.com:8080"},
{"url":"http://stbrantfordwireless.rogers.com:8080/speedtest/upload.php","lat":"43.1394","lon":"-80.2644","distance":0,"name":"Brantford, ON","country":"Canada","cc":"CA","sponsor":"Rogers Wireless","id":"46139","preferred":0,"isp_id":"164","https_functional":1,"host":"stbrantfordwireless.rogers.com:8080"},
{"url":"http://speedtest.cogeco.ca:8080/speedtest/upload.php","lat":"43.3255","lon":"-79.7990","distance":0,"name":"Burlington, ON","country":"Canada","cc":"CA","sponsor":"Cogeco Connexion Inc.","id":"17341","preferred":0,"isp_id":"282","https_functional":1,"host":"speedtest.cogeco.ca:8080"},
{"url":"http://wirelinespeedtestburlington.srvr.bell.ca:8080/speedtest/upload.php","lat":"43.3255","lon":"-79.7990","distance":0,"name":"Burlington, ON","country":"Canada","cc":"CA","sponsor":"Bell Canada","id":"46797","preferred":0,"isp_id":"0","https_functional":1,"host":"wirelinespeedtestburlington.srvr.bell.ca.prod.hosts.ooklaserver.net:8080"},
{"url":"http://speed.mpvnetworks.com:8080/speedtest/upload.php","lat":"42.4048","lon":"-82.1910","distance":0,"name":"Chatham, ON","country":"Canada","cc":"CA","sponsor":"MPVWIFI","id":"47304","preferred":0,"isp_id":"208551","https_functional":1,"host":"speed.mpvnetworks.com.prod.hosts.ooklaserver.net:8080"},
{"url":"http://speedtest-tek.teksavvy.com:8080/speedtest/upload.php","lat":"42.4048","lon":"-82.1910","distance":0,"name":"Chatham, ON","country":"Canada","cc":"CA","sponsor":"Teksavvy Solutions Inc.","id":"47750","preferred":0,"isp_id":"2324","host":"speedtest-tek.teksavvy.com:8080"},
{"url":"http://stchathamwireless.rogers.com:8080/speedtest/upload.php","lat":"42.4048","lon":"-82.1910","distance":0,"name":"Chatham, ON","country":"Canada","cc":"CA","sponsor":"Rogers Wireless","id":"47344","preferred":0,"isp_id":"164","https_functional":1,"host":"stchathamwireless.rogers.com:8080"},
{"url":"http://speedtest.gosfieldtel.ca:8080/speedtest/upload.php","lat":"42.1330","lon":"-82.7500","distance":0,"name":"Cottam, ON","country":"Canada","cc":"CA","sponsor":"Gosfield North Communications","id":"11505","preferred":0,"isp_id":"62744","https_functional":1,"host":"speedtest.gosfieldtel.ca.prod.hosts.ooklaserver.net:8080"},
{"url":"http://383-2speedtest.wightman.ca:8080/speedtest/upload.php","lat":"43.7060","lon":"-80.3778","distance":0,"name":"Fergus, ON","country":"Canada","cc":"CA","sponsor":"Wightman","id":"54168","preferred":0,"isp_id":"7261","https_functional":1,"host":"383-2speedtest.wightman.ca.prod.hosts.ooklaserver.net:8080"},
{"url":"http://wirelinespeedtestwinnipeg01.srvr.bell.ca:8080/speedtest/upload.php","lat":"49.8853","lon":"-97.1291","distance":0,"name":"Fort Rouge, MB","country":"Canada","cc":"CA","sponsor":"Bell MTS","id":"59432","preferred":0,"isp_id":"207577","https_functional":1,"host":"wirelinespeedtestwinnipeg01.srvr.bell.ca.prod.hosts.ooklaserver.net:8080"},
{"url":"http://stgeorgetownwireless.rogers.com:8080/speedtest/upload.php","lat":"43.6502","lon":"-79.9036","distance":0,"name":"Georgetown, ON","country":"Canada","cc":"CA","sponsor":"Rogers Wireless","id":"47345","preferred":0,"isp_id":"164","https_functional":1,"host":"stgeorgetownwireless.rogers.com:8080"},
{"url":"http://stguelph.netcrawler.ca:8080/speedtest/upload.php","lat":"43.5448","lon":"-80.2482","distance":0,"name":"Guelph, ON","country":"Canada","cc":"CA","sponsor":"Netcrawler.ca Internet","id":"54122","preferred":0,"isp_id":"226932","https_functional":1,"host":"stguelph.netcrawler.ca.prod.hosts.ooklaserver.net:8080"},
{"url":"http://stguelph.rogers.com:8080/speedtest/upload.php","lat":"43.5448","lon":"-80.2482","distance":0,"name":"Guelph, ON","country":"Canada","cc":"CA","sponsor":"Rogers","id":"46435","preferred":0,"isp_id":"164","https_functional":1,"host":"stguelph.rogers.com:8080"},
{"url":"http://stguelphwireless.rogers.com:8080/speedtest/upload.php","lat":"43.5448","lon":"-80.2482","distance":0,"name":"Guelph, ON","country":"Canada","cc":"CA","sponsor":"Rogers Wireless","id":"47328","preferred":0,"isp_id":"164","https_functional":1,"host":"stguelphwireless.rogers.com:8080"},
{"url":"http://wirelinespeedtestcambridge.srvr.bell.ca:8080/speedtest/upload.php","lat":"43.5448","lon":"-80.2482","distance":0,"name":"Guelph, ON","country":"Canada","cc":"CA","sponsor":"Bell Canada","id":"46805","preferred":0,"isp_id":"0","https_functional":1,"host":"wirelinespeedtestcambridge.srvr.bell.ca.prod.hosts.ooklaserver.net:8080"},
{"url":"http://mobilityooklahamilton.srvr.bell.ca:8080/speedtest/upload.php","lat":"43.2565","lon":"-79.8675","distance":0,"name":"Hamilton, ON","country":"Canada","cc":"CA","sponsor":"Bell Mobility","id":"52347","preferred":0,"isp_id":"0","https_functional":1,"host":"mobilityooklahamilton.srvr.bell.ca.prod.hosts.ooklaserver.net:8080"},
{"url":"http://sp1.hcetelecom.com:8080/speedtest/upload.php","lat":"43.2565","lon":"-79.8675","distance":0,"name":"Hamilton, ON","country":"Canada","cc":"CA","sponsor":"Hamilton Community Enterprises","id":"21275","preferred":0,"isp_id":"245329","host":"sp1.hcetelecom.com:8080"},
{"url":"http://sthamilton.netcrawler.ca:8080/speedtest/upload.php","lat":"43.2565","lon":"-79.8675","distance":0,"name":"Hamilton, ON","country":"Canada","cc":"CA","sponsor":"Netcrawler.ca Internet","id":"54123","preferred":0,"isp_id":"226932","https_functional":1,"host":"sthamilton.netcrawler.ca.prod.hosts.ooklaserver.net:8080"},
{"url":"http://sthamilton.rogers.com:8080/speedtest/upload.php","lat":"43.2565","lon":"-79.8675","distance":0,"name":"Hamilton, ON","country":"Canada","cc":"CA","sponsor":"Rogers","id":"46432","preferred":0,"isp_id":"164","https_functional":1,"host":"sthamilton.rogers.com:8080"},
{"url":"http://sthamiltonwireless.rogers.com:8080/speedtest/upload.php","lat":"43.2565","lon":"-79.8675","distance":0,"name":"Hamilton, ON","country":"Canada","cc":"CA","sponsor":"Rogers Wireless","id":"47326","preferred":0,"isp_id":"164","https_functional":1,"host":"sthamiltonwireless.rogers.com:8080"},
{"url":"http://wirelinespeedtesthamilton.srvr.bell.ca:8080/speedtest/upload.php","lat":"43.2565","lon":"-79.8675","distance":0,"name":"Hamilton, ON","country":"Canada","cc":"CA","sponsor":"Bell Canada","id":"46796","preferred":0,"isp_id":"0","https_functional":1,"host":"wirelinespeedtesthamilton.srvr.bell.ca.prod.hosts.ooklaserver.net:8080"},
{"url":"http://speedtest.brooketel.coop:8080/speedtest/upload.php","lat":"42.8180","lon":"-81.9825","distance":0,"name":"Inwood, ON","country":"Canada","cc":"CA","sponsor":"Brooke Telecom Co-Operative Inc.","id":"55213","preferred":0,"isp_id":"228980","https_functional":1,"host":"speedtest.brooketel.coop.prod.hosts.ooklaserver.net:8080"},
{"url":"http://speedtest.quadro.net:8080/speedtest/upload.php","lat":"43.3236","lon":"-81.3133","distance":0,"name":"Kirkton, ON","country":"Canada","cc":"CA","sponsor":"Quadro Communications","id":"54243","preferred":0,"isp_id":"66304","https_functional":1,"host":"speedtest.quadro.net:8080"},
{"url":"http://speed-oak.systemlifeline.com:8080/speedtest/upload.php","lat":"43.4675","lon":"-79.6877","distance":0,"name":"Kitchener, ON","country":"Canada","cc":"CA","sponsor":"SimplyNet Canada Inc.","id":"57872","preferred":0,"isp_id":"212871","https_functional":1,"host":"speed-oak.systemlifeline.com.prod.hosts.ooklaserver.net:8080"},
{"url":"http://speedtest.cloudwifi.ca:8080/speedtest/upload.php","lat":"43.4500","lon":"-80.4833","distance":0,"name":"Kitchener, ON","country":"Canada","cc":"CA","sponsor":"Cloudwifi","id":"16046","preferred":0,"isp_id":"122678","https_functional":1,"host":"speedtest.cloudwifi.ca.prod.hosts.ooklaserver.net:8080"},
{"url":"http://speedtest.netflash.net:8080/speedtest/upload.php","lat":"43.4500","lon":"-80.4833","distance":0,"name":"Kitchener, ON","country":"Canada","cc":"CA","sponsor":"Netflash Internet","id":"1061","preferred":0,"isp_id":"29017","https_functional":1,"host":"speedtest.netflash.net:8080"},
{"url":"http://stkitchener.rogers.com:8080/speedtest/upload.php","lat":"43.4500","lon":"-80.4833","distance":0,"name":"Kitchener, ON","country":"Canada","cc":"CA","sponsor":"Rogers","id":"46809","preferred":0,"isp_id":"164","https_functional":1,"host":"stkitchener.rogers.com:8080"},
{"url":"http://stkitchenerwireless.rogers.com:8080/speedtest/upload.php","lat":"43.4500","lon":"-80.4833","distance":0,"name":"Kitchener, ON","country":"Canada","cc":"CA","sponsor":"Rogers Wireless","id":"46125","preferred":0,"isp_id":"164","https_functional":1,"host":"stkitchenerwireless.rogers.com:8080"},
{"url":"http://wirelinespeedtestkitchener.srvr.bell.ca:8080/speedtest/upload.php","lat":"43.4500","lon":"-80.4833","distance":0,"name":"Kitchener, ON","country":"Canada","cc":"CA","sponsor":"Bell Canada","id":"46804","preferred":0,"isp_id":"0","https_functional":1,"host":"wirelinespeedtestkitchener.srvr.bell.ca.prod.hosts.ooklaserver.net:8080"},
{"url":"http://speedtest2.valleyfiber.ca:8080/speedtest/upload.php","lat":"49.5025","lon":"-96.8726","distance":0,"name":"Kleefeld, MB","country":"Canada","cc":"CA","sponsor":"Valley Fiber","id":"53537","preferred":0,"isp_id":"160317","https_functional":1,"host":"speedtest2.valleyfiber.ca.prod.hosts.ooklaserver.net:8080"},
{"url":"http://stleamingtonwireless.rogers.com:8080/speedtest/upload.php","lat":"42.0532","lon":"-82.5999","distance":0,"name":"Leamington, ON","country":"Canada","cc":"CA","sponsor":"Rogers Wireless","id":"47350","preferred":0,"isp_id":"164","https_functional":1,"host":"stleamingtonwireless.rogers.com:8080"},
{"url":"http://speedtest-london.start.ca:8080/speedtest/upload.php","lat":"42.9837","lon":"-81.2497","distance":0,"name":"London, ON","country":"Canada","cc":"CA","sponsor":"Start.ca","id":"24930","preferred":0,"isp_id":"16391","https_functional":1,"host":"speedtest-london.start.ca.prod.hosts.ooklaserver.net:8080"},
{"url":"http://speedtest.nftctelecom.net:8080/speedtest/upload.php","lat":"42.9849","lon":"-81.2453","distance":0,"name":"London, ON","country":"Canada","cc":"CA","sponsor":"NFTC Telecom","id":"14068","preferred":0,"isp_id":"106124","https_functional":1,"host":"speedtest.nftctelecom.net.prod.hosts.ooklaserver.net:8080"},
{"url":"http://stlondon.netcrawler.ca:8080/speedtest/upload.php","lat":"42.9849","lon":"-81.2453","distance":0,"name":"London, ON","country":"Canada","cc":"CA","sponsor":"Netcrawler.ca Internet","id":"54253","preferred":0,"isp_id":"226932","https_functional":1,"host":"stlondon.netcrawler.ca.prod.hosts.ooklaserver.net:8080"},
{"url":"http://stlondon.rogers.com:8080/speedtest/upload.php","lat":"42.9849","lon":"-81.2453","distance":0,"name":"London, ON","country":"Canada","cc":"CA","sponsor":"Rogers","id":"46149","preferred":0,"isp_id":"164","https_functional":1,"host":"stlondon.rogers.com:8080"},
{"url":"http://stlondonwireless.rogers.com:8080/speedtest/upload.php","lat":"42.9849","lon":"-81.2453","distance":0,"name":"London, ON","country":"Canada","cc":"CA","sponsor":"Rogers Wireless","id":"46137","preferred":0,"isp_id":"164","https_functional":1,"host":"stlondonwireless.rogers.com:8080"},
{"url":"http://wirelinespeedtestlondon.srvr.bell.ca:8080/speedtest/upload.php","lat":"42.9849","lon":"-81.2453","distance":0,"name":"London, ON","country":"Canada","cc":"CA","sponsor":"Bell Canada","id":"57695","preferred":0,"isp_id":"254596","https_functional":1,"host":"wirelinespeedtestlondon.srvr.bell.ca.prod.hosts.ooklaserver.net:8080"},
{"url":"http://stmilton.rogers.com:8080/speedtest/upload.php","lat":"43.5183","lon":"-79.8774","distance":0,"name":"Milton, ON","country":"Canada","cc":"CA","sponsor":"Rogers","id":"47540","preferred":0,"isp_id":"164","https_functional":1,"host":"stmilton.rogers.com:8080"},
{"url":"http://stmiltonwireless.rogers.com:8080/speedtest/upload.php","lat":"43.5183","lon":"-79.8774","distance":0,"name":"Milton, ON","country":"Canada","cc":"CA","sponsor":"Rogers Wireless","id":"47330","preferred":0,"isp_id":"164","https_functional":1,"host":"stmiltonwireless.rogers.com:8080"},
{"url":"http://speedtest.mornington.ca:8080/speedtest/upload.php","lat":"43.5658","lon":"-80.9222","distance":0,"name":"Milverton, ON","country":"Canada","cc":"CA","sponsor":"Mornington Communications Ltd","id":"10727","preferred":0,"isp_id":"10270","https_functional":1,"host":"speedtest.mornington.ca.prod.hosts.ooklaserver.net:8080"},
{"url":"http://speed-miss.systemlifeline.com:8080/speedtest/upload.php","lat":"43.6000","lon":"-79.6500","distance":0,"name":"Mississauga, ON","country":"Canada","cc":"CA","sponsor":"System Lifeline Inc.","id":"57871","preferred":0,"isp_id":"212871","https_functional":1,"host":"speed-miss.systemlifeline.com.prod.hosts.ooklaserver.net:8080"},
{"url":"http://stmississauga.netcrawler.ca:8080/speedtest/upload.php","lat":"43.6000","lon":"-79.6500","distance":0,"name":"Mississauga, ON","country":"Canada","cc":"CA","sponsor":"Netcrawler.ca Internet","id":"48976","preferred":0,"isp_id":"226932","https_functional":1,"host":"stmississauga.netcrawler.ca.prod.hosts.ooklaserver.net:8080"},
{"url":"http://stmississauga.rogers.com:8080/speedtest/upload.php","lat":"43.6000","lon":"-79.6500","distance":0,"name":"Mississauga, ON","country":"Canada","cc":"CA","sponsor":"Rogers","id":"46147","preferred":0,"isp_id":"164","https_functional":1,"host":"stmississauga.rogers.com:8080"},
{"url":"http://stmississaugawireless.rogers.com:8080/speedtest/upload.php","lat":"43.6000","lon":"-79.6500","distance":0,"name":"Mississauga, ON","country":"Canada","cc":"CA","sponsor":"Rogers Wireless","id":"46123","preferred":0,"isp_id":"164","https_functional":1,"host":"stmississaugawireless.rogers.com:8080"},
{"url":"http://wirelinespeedtestmississauga.srvr.bell.ca:8080/speedtest/upload.php","lat":"43.6000","lon":"-79.6500","distance":0,"name":"Mississauga, ON","country":"Canada","cc":"CA","sponsor":"Bell Canada","id":"56780","preferred":0,"isp_id":"254596","https_functional":1,"host":"wirelinespeedtestmississauga.srvr.bell.ca.prod.hosts.ooklaserver.net:8080"},
{"url":"http://ookla.mtt.as6453.net:8080/speedtest/upload.php","lat":"45.5019","lon":"-73.5674","distance":0,"name":"Montreal, QC","country":"Canada","cc":"CA","sponsor":"Tata Communications","id":"73620","preferred":0,"isp_id":"310556","https_functional":1,"host":"ookla.mtt.as6453.net.prod.hosts.ooklaserver.net:8080"},
{"url":"http://speedtest-mtl.beanfield.com:8080/speedtest/upload.php","lat":"45.5017","lon":"-73.5673","distance":0,"name":"Montreal, QC","country":"Canada","cc":"CA","sponsor":"Beanfield","id":"16045","preferred":0,"isp_id":"4966","https_functional":1,"host":"speedtest-mtl.beanfield.com.prod.hosts.ooklaserver.net:8080"},
{"url":"http://speedtest.cdmsfirst.com:8080/speedtest/upload.php","lat":"45.5017","lon":"-73.5673","distance":0,"name":"Montreal, QC","country":"Canada","cc":"CA","sponsor":"CDMS","id":"63155","preferred":0,"isp_id":"324987","host":"speedtest.cdmsfirst.com:8080"},
{"url":"http://speedtest.xcdtelecom.com:8080/speedtest/upload.php","lat":"45.5017","lon":"-73.5673","distance":0,"name":"Montreal, QC","country":"Canada","cc":"CA","sponsor":"XCD Télécom","id":"59219","preferred":0,"isp_id":"204334","https_functional":1,"host":"speedtest.xcdtelecom.com.prod.hosts.ooklaserver.net:8080"},
{"url":"http://stmontreal.netcrawler.ca:8080/speedtest/upload.php","lat":"45.5019","lon":"-73.5674","distance":0,"name":"Montreal, QC","country":"Canada","cc":"CA","sponsor":"Netcrawler.ca Internet","id":"64420","preferred":0,"isp_id":"226932","https_functional":1,"host":"stmontreal.netcrawler.ca.prod.hosts.ooklaserver.net:8080"},
{"url":"http://stoakville.rogers.com:8080/speedtest/upload.php","lat":"43.4675","lon":"-79.6877","distance":0,"name":"Oakville, ON","country":"Canada","cc":"CA","sponsor":"Rogers","id":"46763","preferred":0,"isp_id":"164","https_functional":1,"host":"stoakville.rogers.com:8080"},
{"url":"http://storangeville.rogers.com:8080/speedtest/upload.php","lat":"43.9200","lon":"-80.0943","distance":0,"name":"Orangeville, ON","country":"Canada","cc":"CA","sponsor":"Rogers","id":"47548","preferred":0,"isp_id":"164","https_functional":1,"host":"storangeville.rogers.com:8080"},
{"url":"http://storangevillewireless.rogers.com:8080/speedtest/upload.php","lat":"43.9200","lon":"-80.0943","distance":0,"name":"Orangeville, ON","country":"Canada","cc":"CA","sponsor":"Rogers Wireless","id":"47354","preferred":0,"isp_id":"164","https_functional":1,"host":"storangevillewireless.rogers.com:8080"},
{"url":"http://speedtest2.hurontel.on.ca:8080/speedtest/upload.php","lat":"44.0688","lon":"-81.5914","distance":0,"name":"Ripley, ON","country":"Canada","cc":"CA","sponsor":"Huron Telecommuncations Co-operative Ltd","id":"55524","preferred":0,"isp_id":"37709","https_functional":1,"host":"speedtest2.hurontel.on.ca.prod.hosts.ooklaserver.net:8080"},
{"url":"http://speedtest.45networks.ca:8080/speedtest/upload.php","lat":"50.6683","lon":"-100.8109","distance":0,"name":"Rossburn, MB","country":"Canada","cc":"CA","sponsor":"45 Networks Inc.","id":"40940","preferred":0,"isp_id":"282731","https_functional":1,"host":"speedtest.45networks.ca.prod.hosts.ooklaserver.net:8080"},
{"url":"http://stsarniawireless.rogers.com:8080/speedtest/upload.php","lat":"42.9745","lon":"-82.4066","distance":0,"name":"Sarnia, ON","country":"Canada","cc":"CA","sponsor":"Rogers Wireless","id":"46128","preferred":0,"isp_id":"164","https_functional":1,"host":"stsarniawireless.rogers.com:8080"},
{"url":"http://stsaultstemariewireless.rogers.com:8080/speedtest/upload.php","lat":"46.5136","lon":"-84.3358","distance":0,"name":"Sault Ste. Marie, ON","country":"Canada","cc":"CA","sponsor":"Rogers Wireless","id":"47340","preferred":0,"isp_id":"164","https_functional":1,"host":"stsaultstemariewireless.rogers.com:8080"},
{"url":"http://speedtest01.ehtel.ca:8080/speedtest/upload.php","lat":"44.0791","lon":"-80.2012","distance":0,"name":"Shelburne, ON","country":"Canada","cc":"CA","sponsor":"EH!tel Networks","id":"53634","preferred":0,"isp_id":"168980","https_functional":1,"host":"speedtest01.ehtel.ca.prod.hosts.ooklaserver.net:8080"},
{"url":"http://ststthomas.rogers.com:8080/speedtest/upload.php","lat":"42.7777","lon":"-81.1827","distance":0,"name":"St. Thomas, ON","country":"Canada","cc":"CA","sponsor":"Rogers","id":"47542","preferred":0,"isp_id":"164","https_functional":1,"host":"ststthomas.rogers.com:8080"},
{"url":"http://ststthomaswireless.rogers.com:8080/speedtest/upload.php","lat":"42.7777","lon":"-81.1827","distance":0,"name":"St. Thomas, ON","country":"Canada","cc":"CA","sponsor":"Rogers Wireless","id":"47346","preferred":0,"isp_id":"164","https_functional":1,"host":"ststthomaswireless.rogers.com:8080"},
{"url":"http://wirelinespeedteststthomas.srvr.bell.ca:8080/speedtest/upload.php","lat":"42.7777","lon":"-81.1827","distance":0,"name":"St. Thomas, ON","country":"Canada","cc":"CA","sponsor":"Bell Canada","id":"43553","preferred":0,"isp_id":"0","https_functional":1,"host":"wirelinespeedteststthomas.srvr.bell.ca.prod.hosts.ooklaserver.net:8080"},
{"url":"http://speed1.myascend.ca:8080/speedtest/upload.php","lat":"49.5303","lon":"-96.6912","distance":0,"name":"Steinbach, MB","country":"Canada","cc":"CA","sponsor":"Ascend Communications","id":"67432","preferred":0,"isp_id":"17335","https_functional":1,"host":"speed1.myascend.ca.prod.hosts.ooklaserver.net:8080"},
{"url":"http://ststratford.rogers.com:8080/speedtest/upload.php","lat":"43.3700","lon":"-80.9822","distance":0,"name":"Stratford, ON","country":"Canada","cc":"CA","sponsor":"Rogers","id":"47547","preferred":0,"isp_id":"164","https_functional":1,"host":"ststratford.rogers.com:8080"},
{"url":"http://ststratfordwireless.rogers.com:8080/speedtest/upload.php","lat":"43.3700","lon":"-80.9822","distance":0,"name":"Stratford, ON","country":"Canada","cc":"CA","sponsor":"Rogers Wireless","id":"47353","preferred":0,"isp_id":"164","https_functional":1,"host":"ststratfordwireless.rogers.com:8080"},
{"url":"http://st2.speedtest.vianet.ca:8080/speedtest/upload.php","lat":"46.5220","lon":"-80.9530","distance":0,"name":"Sudbury, ON","country":"Canada","cc":"CA","sponsor":"Vianet","id":"64311","preferred":0,"isp_id":"4352","https_functional":1,"host":"st2.speedtest.vianet.ca.prod.hosts.ooklaserver.net:8080"},
{"url":"http://stsudburywireless.rogers.com:8080/speedtest/upload.php","lat":"46.5220","lon":"-80.9530","distance":0,"name":"Sudbury, ON","country":"Canada","cc":"CA","sponsor":"Rogers Wireless","id":"46428","preferred":0,"isp_id":"164","https_functional":1,"host":"stsudburywireless.rogers.com:8080"},
{"url":"http://wirelinespeedtestsudbury.srvr.bell.ca:8080/speedtest/upload.php","lat":"46.5220","lon":"-80.9530","distance":0,"name":"Sudbury, ON","country":"Canada","cc":"CA","sponsor":"Bell Canada","id":"60890","preferred":0,"isp_id":"254596","https_functional":1,"host":"wirelinespeedtestsudbury.srvr.bell.ca.prod.hosts.ooklaserver.net:8080"},
{"url":"http://wirelinespeedtesttecumseh.srvr.bell.ca:8080/speedtest/upload.php","lat":"42.3118","lon":"-82.8858","distance":0,"name":"Tecumseh, ON","country":"Canada","cc":"CA","sponsor":"Bell Canada","id":"46799","preferred":0,"isp_id":"0","https_functional":1,"host":"wirelinespeedtesttecumseh.srvr.bell.ca.prod.hosts.ooklaserver.net:8080"},
{"url":"http://mobilityooklathunderbay.srvr.bell.ca:8080/speedtest/upload.php","lat":"48.3809","lon":"-89.2477","distance":0,"name":"Thunder Bay, ON","country":"Canada","cc":"CA","sponsor":"Bell Mobility","id":"3905","preferred":0,"isp_id":"0","https_functional":1,"host":"mobilityooklathunderbay.srvr.bell.ca.prod.hosts.ooklaserver.net:8080"},
{"url":"http://st1.tbaytel.net:8080/speedtest/upload.php","lat":"48.3809","lon":"-89.2477","distance":0,"name":"Thunder Bay, ON","country":"Canada","cc":"CA","sponsor":"Tbaytel","id":"10300","preferred":0,"isp_id":"24255","https_functional":1,"host":"st1.tbaytel.net.prod.hosts.ooklaserver.net:8080"},
{"url":"http://stthunderbaywireless.rogers.com:8080/speedtest/upload.php","lat":"48.3809","lon":"-89.2477","distance":0,"name":"Thunder Bay, ON","country":"Canada","cc":"CA","sponsor":"Rogers Wireless","id":"47331","preferred":0,"isp_id":"164","https_functional":1,"host":"stthunderbaywireless.rogers.com:8080"},
{"url":"http://east-speedtest.frontiernetworks.ca:8080/speedtest/upload.php","lat":"43.6481","lon":"-79.4042","distance":0,"name":"Toronto, ON","country":"Canada","cc":"CA","sponsor":"Frontier Networks Inc","id":"13238","preferred":0,"isp_id":"47813","https_functional":1,"host":"east-speedtest.frontiernetworks.ca.prod.hosts.ooklaserver.net:8080"},
{"url":"http://falcon.its.utoronto.ca:8080/speedtest/upload.php","lat":"43.6481","lon":"-79.4042","distance":0,"name":"Toronto, ON","country":"Canada","cc":"CA","sponsor":"University of Toronto","id":"22138","preferred":0,"isp_id":"680","https_functional":1,"host":"falcon.its.utoronto.ca:8080"},
{"url":"http://lg-tor.fdcservers.net:8080/speedtest/upload.php","lat":"43.6481","lon":"-79.4042","distance":0,"name":"Toronto, ON","country":"Canada","cc":"CA","sponsor":"fdcservers.net","id":"9911","preferred":0,"isp_id":"27716","https_functional":1,"host":"lg-tor.fdcservers.net:8080"},
{"url":"http://spdtst.xenyth.net:8080/speedtest/upload.php","lat":"43.6481","lon":"-79.4042","distance":0,"name":"Toronto, ON","country":"Canada","cc":"CA","sponsor":"GoCodeIT Inc","id":"38242","preferred":0,"isp_id":"199478","https_functional":1,"host":"spdtst.xenyth.net.prod.hosts.ooklaserver.net:8080"},
{"url":"http://speed.toronto.telmax.ca:8080/speedtest/upload.php","lat":"43.6481","lon":"-79.4042","distance":0,"name":"Toronto, ON","country":"Canada","cc":"CA","sponsor":"telMAX","id":"74035","preferred":0,"isp_id":"174443","https_functional":1,"host":"speed.toronto.telmax.ca.prod.hosts.ooklaserver.net:8080"},
{"url":"http://speedtest-engine.primus.ca/speedtest/upload.php","lat":"43.6487","lon":"-79.3854","distance":0,"name":"Toronto, ON","country":"Canada","cc":"CA","sponsor":"Primus","id":"15038","preferred":0,"isp_id":"861","https_functional":1,"host":"speedtest-engine.primus.ca.prod.hosts.ooklaserver.net:8080"},
{"url":"http://speedtest-tor.beanfield.com:8080/speedtest/upload.php","lat":"43.6481","lon":"-79.4042","distance":0,"name":"Toronto, ON","country":"Canada","cc":"CA","sponsor":"Beanfield","id":"64882","preferred":0,"isp_id":"4966","https_functional":1,"host":"speedtest-tor.beanfield.com.prod.hosts.ooklaserver.net:8080"},
{"url":"http://speedtest.ca-tr.kamatera.com:8080/speedtest/upload.php","lat":"43.6481","lon":"-79.4042","distance":0,"name":"Toronto, ON","country":"Canada","cc":"CA","sponsor":"KamaTera, Inc.","id":"69754","preferred":0,"isp_id":"177546","https_functional":1,"host":"speedtest.ca-tr.kamatera.com.prod.hosts.ooklaserver.net:8080"},
{"url":"http://speedtest.netcrawler.ca:8080/speedtest/upload.php","lat":"43.6481","lon":"-79.4042","distance":0,"name":"Toronto, ON","country":"Canada","cc":"CA","sponsor":"Netcrawler.ca Internet","id":"46580","preferred":0,"isp_id":"226932","https_functional":1,"host":"speedtest.netcrawler.ca.prod.hosts.ooklaserver.net:8080"},
{"url":"http://speedtest.nexicom.net:8080/speedtest/upload.php","lat":"43.6481","lon":"-79.4042","distance":0,"name":"Toronto, ON","country":"Canada","cc":"CA","sponsor":"Nexicom Inc.","id":"826","preferred":0,"isp_id":"768","https_functional":1,"host":"speedtest.nexicom.net.prod.hosts.ooklaserver.net:8080"},
{"url":"http://speedtest1.innsys.ca:8080/speedtest/upload.php","lat":"43.6481","lon":"-79.4042","distance":0,"name":"Toronto, ON","country":"Canada","cc":"CA","sponsor":"InnSys Inc","id":"50317","preferred":0,"isp_id":"65417","https_functional":1,"host":"speedtest1.innsys.ca.prod.hosts.ooklaserver.net:8080"},
{"url":"http://speedtest1.xbase.com:8080/speedtest/upload.php","lat":"43.6481","lon":"-79.4042","distance":0,"name":"Toronto, ON","country":"Canada","cc":"CA","sponsor":"XBASE Technologies","id":"59322","preferred":0,"isp_id":"478","https_functional":1,"host":"speedtest1.xbase.com.prod.hosts.ooklaserver.net:8080"},
{"url":"http://speedtest2-tor.teksavvy.com:8080/speedtest/upload.php","lat":"43.6532","lon":"-79.3832","distance":0,"name":"Toronto, ON","country":"Canada","cc":"CA","sponsor":"Teksavvy Solutions Inc","id":"32632","preferred":0,"isp_id":"2324","https_functional":1,"host":"speedtest2-tor.teksavvy.com.prod.hosts.ooklaserver.net:8080"},
{"url":"http://speedtester.comwave.net:8080/speedtest/upload.php","lat":"43.6481","lon":"-79.4042","distance":0,"name":"Toronto, ON","country":"Canada","cc":"CA","sponsor":"Comwave Networks Inc","id":"31127","preferred":0,"isp_id":"81764","https_functional":1,"host":"speedtester.comwave.net.prod.hosts.ooklaserver.net:8080"},
{"url":"http://sttoronto.rogers.com:8080/speedtest/upload.php","lat":"43.6481","lon":"-79.4042","distance":0,"name":"Toronto, ON","country":"Canada","cc":"CA","sponsor":"Rogers","id":"46143","preferred":0,"isp_id":"164","https_functional":1,"host":"sttoronto.rogers.com:8080"},
{"url":"http://sttorontowireless.rogers.com:8080/speedtest/upload.php","lat":"43.6481","lon":"-79.4042","distance":0,"name":"Toronto, ON","country":"Canada","cc":"CA","sponsor":"Rogers Wireless","id":"46759","preferred":0,"isp_id":"164","https_functional":1,"host":"sttorontowireless.rogers.com:8080"},
{"url":"http:// t4y-toronto-ca-osts1.ser.tek4you.ca:8080/speedtest/upload.php","lat":"43.6481","lon":"-79.4042","distance":0,"name":"Toronto, ON","country":"Canada","cc":"CA","sponsor":"Tek4You Computer Repair & IT Services","id":"54410","preferred":0,"isp_id":"274949","https_functional":1,"host":"t4y-toronto-ca-osts1.ser.tek4you.ca.prod.hosts.ooklaserver.net:8080"},
{"url":"http://tdc01-speedtest.whipcord.com:8080/speedtest/upload.php","lat":"43.6481","lon":"-79.4042","distance":0,"name":"Toronto, ON","country":"Canada","cc":"CA","sponsor":"Whipcord Edge Data Centres","id":"69636","preferred":0,"isp_id":"112588","https_functional":1,"host":"tdc01-speedtest.whipcord.com.prod.hosts.ooklaserver.net:8080"},
{"url":"http://tor-speedtest.net.sangoma.net:8080/speedtest/upload.php","lat":"43.6481","lon":"-79.4042","distance":0,"name":"Toronto, ON","country":"Canada","cc":"CA","sponsor":"Sangoma","id":"63994","preferred":0,"isp_id":"289410","https_functional":1,"host":"tor-speedtest.net.sangoma.net.prod.hosts.ooklaserver.net:8080"},
{"url":"http://tor11speedtest01.srvr.bell.ca:8080/speedtest/upload.php","lat":"43.6481","lon":"-79.4042","distance":0,"name":"Toronto, ON","country":"Canada","cc":"CA","sponsor":"Bell Mobility","id":"16753","preferred":0,"isp_id":"0","https_functional":1,"host":"tor11speedtest01.srvr.bell.ca.prod.hosts.ooklaserver.net:8080"},
{"url":"http://toronto.speedtest.telus.com:8080/speedtest/upload.php","lat":"43.6481","lon":"-79.4042","distance":0,"name":"Toronto, ON","country":"Canada","cc":"CA","sponsor":"TELUS","id":"3575","preferred":0,"isp_id":"256720","https_functional":1,"host":"toronto.speedtest.telus.com.prod.hosts.ooklaserver.net:8080"},
{"url":"http://toronto2.speedtest.telus.com:8080/speedtest/upload.php","lat":"43.6481","lon":"-79.4042","distance":0,"name":"Toronto, ON","country":"Canada","cc":"CA","sponsor":"TELUS Mobility","id":"24698","preferred":0,"isp_id":"256720","https_functional":1,"host":"toronto2.speedtest.telus.com.prod.hosts.ooklaserver.net:8080"},
{"url":"http://trtspeedtest.altimatel.com:8080/speedtest/upload.php","lat":"43.6481","lon":"-79.4042","distance":0,"name":"Toronto, ON","country":"Canada","cc":"CA","sponsor":"Altima Telecom","id":"63649","preferred":0,"isp_id":"72038","https_functional":1,"host":"trtspeedtest.altimatel.com.prod.hosts.ooklaserver.net:8080"},
{"url":"http://tsdvuspeedtest01p.allstream.com:8080/speedtest/upload.php","lat":"43.6481","lon":"-79.4042","distance":0,"name":"Toronto, ON","country":"Canada","cc":"CA","sponsor":"allstream","id":"56781","preferred":0,"isp_id":"18366","https_functional":1,"host":"tsdvuspeedtest01p.allstream.com.prod.hosts.ooklaserver.net:8080"},
{"url":"http://wirelinespeedtesttoronto.srvr.bell.ca:8080/speedtest/upload.php","lat":"43.6481","lon":"-79.4042","distance":0,"name":"Toronto, ON","country":"Canada","cc":"CA","sponsor":"Bell Canada","id":"53393","preferred":0,"isp_id":"0","https_functional":1,"host":"wirelinespeedtesttoronto.srvr.bell.ca.prod.hosts.ooklaserver.net:8080"},
{"url":"http://yyz-speedtest.xplore.ca:8080/speedtest/upload.php","lat":"43.6481","lon":"-79.4042","distance":0,"name":"Toronto, ON","country":"Canada","cc":"CA","sponsor":"Xplore Inc","id":"53159","preferred":0,"isp_id":"70988","https_functional":1,"host":"yyz-speedtest.xplore.ca.prod.hosts.ooklaserver.net:8080"},
{"url":"http://speedtest-6.aebc.com:8080/speedtest/upload.php","lat":"49.2505","lon":"-123.1119","distance":0,"name":"Vancouver, BC","country":"Canada","cc":"CA","sponsor":"AEBC Internet","id":"41509","preferred":0,"isp_id":"21032","https_functional":1,"host":"speedtest-6.aebc.com.prod.hosts.ooklaserver.net:8080"},
{"url":"http://speedtest-van.beanfield.com:8080/speedtest/upload.php","lat":"49.2505","lon":"-123.1119","distance":0,"name":"Vancouver, BC","country":"Canada","cc":"CA","sponsor":"Beanfield","id":"67411","preferred":0,"isp_id":"4966","https_functional":1,"host":"speedtest-van.beanfield.com.prod.hosts.ooklaserver.net:8080"},
{"url":"http://speedtest.skywaywest.net:8080/speedtest/upload.php","lat":"49.2505","lon":"-123.1119","distance":0,"name":"Vancouver, BC","country":"Canada","cc":"CA","sponsor":"Skyway West Business Internet Services","id":"3318","preferred":0,"isp_id":"54607","https_functional":1,"host":"speedtest.skywaywest.net.prod.hosts.ooklaserver.net:8080"},
{"url":"http://speedtest.ubc.ca:8080/speedtest/upload.php","lat":"49.2505","lon":"-123.1119","distance":0,"name":"Vancouver, BC","country":"Canada","cc":"CA","sponsor":"The University of British Columbia","id":"19703","preferred":0,"isp_id":"3334","https_functional":1,"host":"speedtest.ubc.ca.prod.hosts.ooklaserver.net:8080"},
{"url":"http://speedtest.vc.shawcable.net:8080/speedtest/upload.php","lat":"49.2505","lon":"-123.1119","distance":0,"name":"Vancouver, BC","country":"Canada","cc":"CA","sponsor":"Shaw Communications","id":"4243","preferred":0,"isp_id":"164","https_functional":1,"host":"speedtest.vc.shawcable.net:8080"},
{"url":"http://stvancouverwireless.rogers.com:8080/speedtest/upload.php","lat":"49.2505","lon":"-123.1119","distance":0,"name":"Vancouver, BC","country":"Canada","cc":"CA","sponsor":"Rogers Wireless","id":"46406","preferred":0,"isp_id":"164","https_functional":1,"host":"stvancouverwireless.rogers.com:8080"},
{"url":"http://vancnspd01.srvr.bell.ca:8080/speedtest/upload.php","lat":"49.2505","lon":"-123.1119","distance":0,"name":"Vancouver, BC","country":"Canada","cc":"CA","sponsor":"Bell Mobility","id":"17402","preferred":0,"isp_id":"0","https_functional":1,"host":"vancnspd01.srvr.bell.ca.prod.hosts.ooklaserver.net:8080"},
{"url":"http://vancouver.speedtest.telus.com:8080/speedtest/upload.php","lat":"49.2505","lon":"-123.1119","distance":0,"name":"Vancouver, BC","country":"Canada","cc":"CA","sponsor":"TELUS","id":"3049","preferred":0,"isp_id":"256720","https_functional":1,"host":"vancouver.speedtest.telus.com.prod.hosts.ooklaserver.net:8080"},
{"url":"http://vancouver2.speedtest.telus.com:8080/speedtest/upload.php","lat":"49.2505","lon":"-123.1119","distance":0,"name":"Vancouver, BC","country":"Canada","cc":"CA","sponsor":"TELUS Mobility","id":"16781","preferred":0,"isp_id":"256720","https_functional":1,"host":"vancouver2.speedtest.telus.com.prod.hosts.ooklaserver.net:8080"},
{"url":"http://west-speedtest.frontiernetworks.ca:8080/speedtest/upload.php","lat":"49.2505","lon":"-123.1119","distance":0,"name":"Vancouver, BC","country":"Canada","cc":"CA","sponsor":"Frontier Networks Inc","id":"17168","preferred":0,"isp_id":"47813","https_functional":1,"host":"west-speedtest.frontiernetworks.ca:8080"},
{"url":"http://speedtest.rfnow.net:8080/speedtest/upload.php","lat":"49.8572","lon":"-100.9220","distance":0,"name":"Virden, MB","country":"Canada","cc":"CA","sponsor":"RFnow","id":"61714","preferred":0,"isp_id":"36992","https_functional":1,"host":"speedtest.rfnow.net.prod.hosts.ooklaserver.net:8080"},
{"url":"http://speedtest.packetworks.net:8080/speedtest/upload.php","lat":"43.4667","lon":"-80.5167","distance":0,"name":"Waterloo, ON","country":"Canada","cc":"CA","sponsor":"Packetworks","id":"22208","preferred":0,"isp_id":"3694","https_functional":1,"host":"speedtest.packetworks.net:8080"},
{"url":"http://stwaterloo.netcrawler.ca:8080/speedtest/upload.php","lat":"43.4667","lon":"-80.5167","distance":0,"name":"Waterloo, ON","country":"Canada","cc":"CA","sponsor":"Netcrawler.ca Internet","id":"54207","preferred":0,"isp_id":"226932","https_functional":1,"host":"stwaterloo.netcrawler.ca.prod.hosts.ooklaserver.net:8080"},
{"url":"http://stwaterloo.rogers.com:8080/speedtest/upload.php","lat":"43.4667","lon":"-80.5167","distance":0,"name":"Waterloo, ON","country":"Canada","cc":"CA","sponsor":"Rogers","id":"46765","preferred":0,"isp_id":"164","https_functional":1,"host":"stwaterloo.rogers.com:8080"},
{"url":"http://tor63spd02.srvr.bell.ca:8080/speedtest/upload.php","lat":"43.4667","lon":"-80.5167","distance":0,"name":"Waterloo, ON","country":"Canada","cc":"CA","sponsor":"Bell Mobility","id":"46914","preferred":0,"isp_id":"0","https_functional":1,"host":"tor63spd02.srvr.bell.ca.prod.hosts.ooklaserver.net:8080"},
{"url":"http://speedtest.wwfn.ca:8080/speedtest/upload.php","lat":"50.6709","lon":"-100.9026","distance":0,"name":"Waywayseecappo First Nation, MB","country":"Canada","cc":"CA","sponsor":"Anishinaabe Network Solutions","id":"53638","preferred":0,"isp_id":"163636","https_functional":1,"host":"speedtest.wwfn.ca.prod.hosts.ooklaserver.net:8080"},
{"url":"http://speedtest.fibernetics.ca:8080/speedtest/upload.php","lat":"43.4500","lon":"-80.4833","distance":0,"name":"Whitby, ON","country":"Canada","cc":"CA","sponsor":"Fibernetics Corporation","id":"68661","preferred":0,"isp_id":"76203","https_functional":1,"host":"speedtest.fibernetics.ca:8080"},
{"url":"http://40gspeedtest.mnsi.net:8080/speedtest/upload.php","lat":"42.2833","lon":"-83.0000","distance":0,"name":"Windsor, ON","country":"Canada","cc":"CA","sponsor":"MNSi Telecom","id":"55994","preferred":0,"isp_id":"2217","https_functional":1,"host":"40gspeedtest.mnsi.net:8080"},
{"url":"http://mobilityooklawindsor.srvr.bell.ca:8080/speedtest/upload.php","lat":"42.2833","lon":"-83.0000","distance":0,"name":"Windsor, ON","country":"Canada","cc":"CA","sponsor":"Bell Mobility","id":"52350","preferred":0,"isp_id":"0","https_functional":1,"host":"mobilityooklawindsor.srvr.bell.ca.prod.hosts.ooklaserver.net:8080"},
{"url":"http://stwindsorwireless.rogers.com:8080/speedtest/upload.php","lat":"42.2833","lon":"-83.0000","distance":0,"name":"Windsor, ON","country":"Canada","cc":"CA","sponsor":"Rogers Wireless","id":"46126","preferred":0,"isp_id":"164","https_functional":1,"host":"stwindsorwireless.rogers.com:8080"},
{"url":"http://wirelinespeedtestwindsor.srvr.bell.ca:8080/speedtest/upload.php","lat":"42.2833","lon":"-83.0000","distance":0,"name":"Windsor, ON","country":"Canada","cc":"CA","sponsor":"Bell Canada","id":"46798","preferred":0,"isp_id":"0","https_functional":1,"host":"wirelinespeedtestwindsor.srvr.bell.ca.prod.hosts.ooklaserver.net:8080"},
{"url":"http://speedtest1.valleyfiber.ca:8080/speedtest/upload.php","lat":"49.1801","lon":"-97.9389","distance":0,"name":"Winkler, MB","country":"Canada","cc":"CA","sponsor":"Valley Fiber","id":"50325","preferred":0,"isp_id":"160317","https_functional":1,"host":"speedtest1.valleyfiber.ca.prod.hosts.ooklaserver.net:8080"},
{"url":"http://sp1.voyageurinternet.ca:8080/speedtest/upload.php","lat":"49.8833","lon":"-97.1500","distance":0,"name":"Winnipeg, MB","country":"Canada","cc":"CA","sponsor":"Voyageur Internet","id":"1493","preferred":0,"isp_id":"112523","https_functional":1,"host":"sp1.voyageurinternet.ca.prod.hosts.ooklaserver.net:8080"},
{"url":"http://speedtest.merlin.mb.ca:8080/speedtest/upload.php","lat":"49.8833","lon":"-97.1500","distance":0,"name":"Winnipeg, MB","country":"Canada","cc":"CA","sponsor":"MERLIN","id":"31020","preferred":0,"isp_id":"12510","https_functional":1,"host":"speedtest.merlin.mb.ca.prod.hosts.ooklaserver.net:8080"},
{"url":"http://speedtest.pimcommcorp.com:8080/speedtest/upload.php","lat":"49.8833","lon":"-97.1500","distance":0,"name":"Winnipeg, MB","country":"Canada","cc":"CA","sponsor":"PIMCOMM","id":"68368","preferred":0,"isp_id":"324691","https_functional":1,"host":"speedtest.pimcommcorp.com.prod.hosts.ooklaserver.net:8080"},
{"url":"http://speedtest.wp.shawcable.net:8080/speedtest/upload.php","lat":"49.8833","lon":"-97.1500","distance":0,"name":"Winnipeg, MB","country":"Canada","cc":"CA","sponsor":"Shaw Communications","id":"4244","preferred":0,"isp_id":"164","https_functional":1,"host":"speedtest.wp.shawcable.net:8080"},
{"url":"http://st2a.les.net:8080/speedtest/upload.php","lat":"49.8833","lon":"-97.1500","distance":0,"name":"Winnipeg, MB","country":"Canada","cc":"CA","sponsor":"LES.NET","id":"4297","preferred":0,"isp_id":"25924","https_functional":1,"host":"st2a.les.net:8080"},
{"url":"http://stwinnipegwireless.rogers.com:8080/speedtest/upload.php","lat":"49.8833","lon":"-97.1500","distance":0,"name":"Winnipeg, MB","country":"Canada","cc":"CA","sponsor":"Rogers Wireless","id":"46409","preferred":0,"isp_id":"164","https_functional":1,"host":"stwinnipegwireless.rogers.com:8080"},
{"url":"http://vanspeedtest.altimatel.com:8080/speedtest/upload.php","lat":"49.8954","lon":"-97.1385","distance":0,"name":"Winnipeg, MB","country":"Canada","cc":"CA","sponsor":"Altima Telecom","id":"63484","preferred":0,"isp_id":"72038","https_functional":1,"host":"vanspeedtest.altimatel.com.prod.hosts.ooklaserver.net:8080"},
{"url":"http://wirelinespeedtestwinnipeg02.srvr.bell.ca:8080/speedtest/upload.php","lat":"49.8833","lon":"-97.1500","distance":0,"name":"Winnipeg, MB","country":"Canada","cc":"CA","sponsor":"Bell MTS","id":"60418","preferred":0,"isp_id":"207577","https_functional":1,"host":"wirelinespeedtestwinnipeg02.srvr.bell.ca.prod.hosts.ooklaserver.net:8080"},
{"url":"http://wnpcfspd01.srvr.bell.ca:8080/speedtest/upload.php","lat":"49.8833","lon":"-97.1500","distance":0,"name":"Winnipeg, MB","country":"Canada","cc":"CA","sponsor":"Bell Mobility","id":"17395","preferred":0,"isp_id":"0","https_functional":1,"host":"wnpcfspd01.srvr.bell.ca.prod.hosts.ooklaserver.net:8080"},
{"url":"http://wnpcfspd02.srvr.bell.ca:8080/speedtest/upload.php","lat":"49.8833","lon":"-97.1500","distance":0,"name":"Winnipeg, MB","country":"Canada","cc":"CA","sponsor":"Bell Canada","id":"25266","preferred":0,"isp_id":"0","https_functional":1,"host":"wnpcfspd02.srvr.bell.ca.prod.hosts.ooklaserver.net:8080"},
{"url":"http://speedtest.execulink.ca:8080/speedtest/upload.php","lat":"43.1315","lon":"-80.7472","distance":0,"name":"Woodstock, ON","country":"Canada","cc":"CA","sponsor":"Execulink Telecom Inc","id":"16447","preferred":0,"isp_id":"47737","host":"speedtest.execulink.ca:8080"},
{"url":"http://stwoodstock.rogers.com:8080/speedtest/upload.php","lat":"43.1315","lon":"-80.7472","distance":0,"name":"Woodstock, ON","country":"Canada","cc":"CA","sponsor":"Rogers","id":"47543","preferred":0,"isp_id":"164","https_functional":1,"host":"stwoodstock.rogers.com:8080"},
{"url":"http://stwoodstockwireless.rogers.com:8080/speedtest/upload.php","lat":"43.1315","lon":"-80.7472","distance":0,"name":"Woodstock, ON","country":"Canada","cc":"CA","sponsor":"Rogers Wireless","id":"47348","preferred":0,"isp_id":"164","https_functional":1,"host":"stwoodstockwireless.rogers.com:8080"},
{"url":"http://speedtest.hay.net:8080/speedtest/upload.php","lat":"43.4214","lon":"-81.6258","distance":0,"name":"Zurich, ON","country":"Canada","cc":"CA","sponsor":"Hay Communications","id":"5667","preferred":0,"isp_id":"173540","https_functional":1,"host":"speedtest.hay.net:8080"},
{"url":"http://sp1.biocablesur.cl:8080/speedtest/upload.php","lat":"-37.4629","lon":"-72.3612","distance":0,"name":"Los Angeles","country":"Chile","cc":"CL","sponsor":"Bio Cable Sur","id":"35519","preferred":0,"isp_id":"243901","https_functional":1,"host":"sp1.biocablesur.cl.prod.hosts.ooklaserver.net:8080"},
{"url":"http://beijing.unicomtest.com:8080/speedtest/upload.php","lat":"39.9042","lon":"116.4074","distance":0,"name":"Beijing","country":"China","cc":"CN","sponsor":"BJ Unicom","id":"43752","preferred":0,"isp_id":"101940","https_functional":1,"host":"beijing.unicomtest.com:8080"},
{"url":"http://cesu-hz.zjtelecom.com.cn:8080/speedtest/upload.php","lat":"30.2741","lon":"120.1552","distance":0,"name":"HangZhou","country":"China","cc":"CN","sponsor":"浙江电信","id":"59386","preferred":0,"isp_id":"7209","host":"cesu-hz.zjtelecom.com.cn:8080"},
{"url":"http://hk-bgp-speedtest.nearoute.io:8080/speedtest/upload.php","lat":"22.2500","lon":"114.1667","distance":0,"name":"Hong Kong","country":"China","cc":"HK","sponsor":"Nearoute Limited","id":"69574","preferred":0,"isp_id":"241265","https_functional":1,"host":"hk-bgp-speedtest.nearoute.io.prod.hosts.ooklaserver.net:8080"},
{"url":"http://speedtest.dukekunshan.edu.cn:8080/speedtest/upload.php","lat":"31.3856","lon":"120.9807","distance":0,"name":"Kunshan","country":"China","cc":"CN","sponsor":"Duke Kunshan University","id":"30852","preferred":0,"isp_id":"40054","https_functional":1,"host":"speedtest.dukekunshan.edu.cn:8080"},
{"url":"http://cesu-nb.zjtelecom.com.cn:8080/speedtest/upload.php","lat":"29.8683","lon":"121.5440","distance":0,"name":"NingBo","country":"China","cc":"CN","sponsor":"浙江电信","id":"59387","preferred":0,"isp_id":"7209","https_functional":1,"host":"cesu-nb.zjtelecom.com.cn.prod.hosts.ooklaserver.net:8080"},
{"url":"http://4gsuzhou1.speedtest.jsinfo.net:8080/speedtest/upload.php","lat":"31.2990","lon":"120.5853","distance":0,"name":"Suzhou","country":"China","cc":"CN","sponsor":"China Telecom JiangSu 5G","id":"5396","preferred":0,"isp_id":"7209","https_functional":1,"host":"4gsuzhou1.speedtest.jsinfo.net.prod.hosts.ooklaserver.net:8080"},
{"url":"http://speedtest.jsqiuying.com:8080/speedtest/upload.php","lat":"31.2983","lon":"120.5832","distance":0,"name":"Suzhou","country":"China","cc":"CN","sponsor":"JSQY","id":"16204","preferred":0,"isp_id":"88508","https_functional":1,"host":"speedtest.jsqiuying.com:8080"},
{"url":"http://5gzhenjiang.speedtest.jsinfo.net:8080/speedtest/upload.php","lat":"32.2069","lon":"119.4490","distance":0,"name":"Zhenjiang","country":"China","cc":"CN","sponsor":"China Telecom JiangSu 5G","id":"36663","preferred":0,"isp_id":"7209","https_functional":1,"host":"5gzhenjiang.speedtest.jsinfo.net.prod.hosts.ooklaserver.net:8080"},
{"url":"http://st.fratec.net:8080/speedtest/upload.php","lat":"9.9408","lon":"-84.0247","distance":0,"name":"San Jose","country":"Costa Rica","cc":"CR","sponsor":"Sistemas Fratec S.A.","id":"60075","preferred":0,"isp_id":"29035","https_functional":1,"host":"st.fratec.net.prod.hosts.ooklaserver.net:8080"},
{"url":"http://fr-mrs01.speed.misaka.one:8080/speedtest/upload.php","lat":"43.3026","lon":"5.3691","distance":0,"name":"Marseille","country":"France","cc":"FR","sponsor":"Misaka Network, Inc.","id":"73556","preferred":0,"isp_id":"118607","https_functional":1,"host":"fr-mrs01.speed.misaka.one:8080"},
{"url":"http://speedtestnet.relaix.net:8080/speedtest/upload.php","lat":"50.7753","lon":"6.0839","distance":0,"name":"Aachen","country":"Germany","cc":"DE","sponsor":"RelAix Networks GmbH","id":"43512","preferred":0,"isp_id":"37072","https_functional":1,"host":"speedtestnet.relaix.net.prod.hosts.ooklaserver.net:8080"},
{"url":"http://speedtest.vsm.sh:8080/speedtest/upload.php","lat":"53.8076","lon":"10.3823","distance":0,"name":"Bad Oldesloe","country":"Germany","cc":"DE","sponsor":"Vereinigte Stadtwerke Media GmbH","id":"24802","preferred":0,"isp_id":"160646","https_functional":1,"host":"speedtest.vsm.sh.prod.hosts.ooklaserver.net:8080"},
{"url":"http://de-ber02.speed.misaka.one:8080/speedtest/upload.php","lat":"52.5167","lon":"13.3833","distance":0,"name":"Berlin","country":"Germany","cc":"DE","sponsor":"Misaka Network, Inc.","id":"55665","preferred":0,"isp_id":"118607","https_functional":1,"host":"de-ber02.speed.misaka.one:8080"},
{"url":"http://speedtest.bitel.io:8080/speedtest/upload.php","lat":"52.0302","lon":"8.5325","distance":0,"name":"Bielefeld","country":"Germany","cc":"DE","sponsor":"BITel Gesellschaft für Telekommunikation mbH","id":"58137","preferred":0,"isp_id":"112379","https_functional":1,"host":"speedtest.bitel.io:8080"},
{"url":"http://speedtest1.binz-kabel.de:8080/speedtest/upload.php","lat":"54.4000","lon":"13.6000","distance":0,"name":"Binz","country":"Germany","cc":"DE","sponsor":"KABEL-TV-BINZ","id":"3865","preferred":0,"isp_id":"1389","https_functional":1,"host":"speedtest1.binz-kabel.de.prod.hosts.ooklaserver.net:8080"},
{"url":"http://speedtest.stw-bonn.de:8080/speedtest/upload.php","lat":"50.7374","lon":"7.0982","distance":0,"name":"Bonn","country":"Germany","cc":"DE","sponsor":"StudNet Bonn","id":"28602","preferred":0,"isp_id":"97134","https_functional":1,"host":"speedtest.stw-bonn.de.prod.hosts.ooklaserver.net:8080"},
{"url":"http://speedtest.briteline.de:8080/speedtest/upload.php","lat":"53.0833","lon":"8.8000","distance":0,"name":"Bremen","country":"Germany","cc":"DE","sponsor":"Bremen Briteline GmbH","id":"16596","preferred":0,"isp_id":"43864","https_functional":1,"host":"speedtest.briteline.de.prod.hosts.ooklaserver.net:8080"},
{"url":"http://speedtest.lwlcom.net:8080/speedtest/upload.php","lat":"53.0833","lon":"8.8000","distance":0,"name":"Bremen","country":"Germany","cc":"DE","sponsor":"LWLcom GmbH","id":"5733","preferred":0,"isp_id":"57326","https_functional":1,"host":"speedtest.lwlcom.net.prod.hosts.ooklaserver.net:8080"},
{"url":"http://speedtest.plutex.de:8080/speedtest/upload.php","lat":"53.0833","lon":"8.8000","distance":0,"name":"Bremen","country":"Germany","cc":"DE","sponsor":"PLUTEX GmbH","id":"5747","preferred":0,"isp_id":"267872","https_functional":1,"host":"speedtest.plutex.de.prod.hosts.ooklaserver.net:8080"},
{"url":"http://speed02.buchholz-digital.net:8080/speedtest/upload.php","lat":"53.3177","lon":"9.8695","distance":0,"name":"Buchholz","country":"Germany","cc":"DE","sponsor":"Buchholz Digital GmbH","id":"51487","preferred":0,"isp_id":"97315","https_functional":1,"host":"speed02.buchholz-digital.net.prod.hosts.ooklaserver.net:8080"},
{"url":"http://speedtest11.hotspot.koeln:8080/speedtest/upload.php","lat":"50.9364","lon":"6.9528","distance":0,"name":"Cologne","country":"Germany","cc":"DE","sponsor":"NetCologne","id":"6601","preferred":0,"isp_id":"369","https_functional":1,"host":"speedtest11.hotspot.koeln.prod.hosts.ooklaserver.net:8080"},
{"url":"http://speedtest21.hotspot.koeln:8080/speedtest/upload.php","lat":"50.9364","lon":"6.9528","distance":0,"name":"Cologne","country":"Germany","cc":"DE","sponsor":"hotspot.koeln","id":"6670","preferred":0,"isp_id":"369","https_functional":1,"host":"speedtest21.hotspot.koeln.prod.hosts.ooklaserver.net:8080"},
{"url":"http://speedtest.currenta.net:8080/speedtest/upload.php","lat":"51.0937","lon":"6.8289","distance":0,"name":"Dormagen","country":"Germany","cc":"DE","sponsor":"Currenta GmbH & Co. OHG","id":"60757","preferred":0,"isp_id":"330982","https_functional":1,"host":"speedtest.currenta.net.prod.hosts.ooklaserver.net:8080"},
{"url":"http://dus.speedtest.komdsl.de:8080/speedtest/upload.php","lat":"51.2256","lon":"6.7828","distance":0,"name":"Dusseldorf","country":"Germany","cc":"DE","sponsor":"Thüga SmartService","id":"48091","preferred":0,"isp_id":"321856","https_functional":1,"host":"dus.speedtest.komdsl.de.prod.hosts.ooklaserver.net:8080"},
{"url":"http://speed.de-west-02.wiit-cloud.io:8080/speedtest/upload.php","lat":"51.2256","lon":"6.7828","distance":0,"name":"Dusseldorf","country":"Germany","cc":"DE","sponsor":"WIIT AG","id":"17392","preferred":0,"isp_id":"38754","https_functional":1,"host":"speed.de-west-02.wiit-cloud.io.prod.hosts.ooklaserver.net:8080"},
{"url":"http://speedtest.4qh.de:8080/speedtest/upload.php","lat":"51.2256","lon":"6.7828","distance":0,"name":"Dusseldorf","country":"Germany","cc":"DE","sponsor":"www.4QH.de - Server Sponsoring","id":"61977","preferred":0,"isp_id":"191606","https_functional":1,"host":"speedtest.4qh.de:8080"},
{"url":"http://ookla.dus-02.testpub.telefonica.de:8080/speedtest/upload.php","lat":"51.2705","lon":"6.8144","distance":0,"name":"Düsseldorf","country":"Germany","cc":"DE","sponsor":"Telefónica Germany GmbH & Co. OHG","id":"34482","preferred":0,"isp_id":"73468","https_functional":1,"host":"ookla.dus-02.testpub.telefonica.de.prod.hosts.ooklaserver.net:8080"},
{"url":"http://speedtest.dg-sys.net:8080/speedtest/upload.php","lat":"51.2230","lon":"6.7825","distance":0,"name":"Düsseldorf","country":"Germany","cc":"DE","sponsor":"Deutsche-Glasfaser","id":"69359","preferred":0,"isp_id":"99037","https_functional":1,"host":"speedtest.dg-sys.net:8080"},
{"url":"http://speedtest.dus.plusnet.de:8080/speedtest/upload.php","lat":"51.2256","lon":"6.7828","distance":0,"name":"Düsseldorf","country":"Germany","cc":"DE","sponsor":"Plusnet GmbH","id":"70877","preferred":0,"isp_id":"253948","https_functional":1,"host":"speedtest.dus.plusnet.de.prod.hosts.ooklaserver.net:8080"},
{"url":"http://ookla-speedtest.tkrz.de:8080/speedtest/upload.php","lat":"52.1722","lon":"7.5320","distance":0,"name":"Emsdetten","country":"Germany","cc":"DE","sponsor":"TKRZ Stadtwerke GmbH","id":"58941","preferred":0,"isp_id":"66498","https_functional":1,"host":"ookla-speedtest.tkrz.de:8080"},
{"url":"http://ookla.ess-01.testpub.telefonica.de:8080/speedtest/upload.php","lat":"51.4576","lon":"7.0225","distance":0,"name":"Essen","country":"Germany","cc":"DE","sponsor":"Telefónica Germany GmbH & Co. OHG","id":"65913","preferred":0,"isp_id":"73468","https_functional":1,"host":"ookla.ess-01.testpub.telefonica.de.prod.hosts.ooklaserver.net:8080"},
{"url":"http://speedtest.kappenhagen.tech:8080/speedtest/upload.php","lat":"51.4556","lon":"7.0116","distance":0,"name":"Essen","country":"Germany","cc":"DE","sponsor":"KAPPENHAGEN:TECH","id":"41644","preferred":0,"isp_id":"65406","host":"speedtest.kappenhagen.tech:8080"},
{"url":"http://de-ffm1-ookla-01.wemacom.net:8080/speedtest/upload.php","lat":"50.1109","lon":"8.6821","distance":0,"name":"Frankfurt","country":"Germany","cc":"DE","sponsor":"WEMACOM Telekommunikation GmbH","id":"54577","preferred":0,"isp_id":"53295","https_functional":1,"host":"de-ffm1-ookla-01.wemacom.net.prod.hosts.ooklaserver.net:8080"},
{"url":"http://de-lg.h2.nexus:8080/speedtest/upload.php","lat":"50.1109","lon":"8.6821","distance":0,"name":"Frankfurt","country":"Germany","cc":"DE","sponsor":"H2NEXUS LTD","id":"71892","preferred":0,"isp_id":"301111","https_functional":1,"host":"de-lg.h2.nexus:8080"},
{"url":"http://fr5.speedtest.gslnetworks.com:8080/speedtest/upload.php","lat":"50.1109","lon":"8.6821","distance":0,"name":"Frankfurt","country":"Germany","cc":"DE","sponsor":"GSL Networks","id":"50771","preferred":0,"isp_id":"212354","https_functional":1,"host":"fr5.speedtest.gslnetworks.com.prod.hosts.ooklaserver.net:8080"},
{"url":"http://ipl3pt.fft.ops.eu.uu.net:8080/speedtest/upload.php","lat":"50.1109","lon":"8.6821","distance":0,"name":"Frankfurt","country":"Germany","cc":"DE","sponsor":"Verizon.com","id":"52770","preferred":0,"isp_id":"8041","https_functional":1,"host":"ipl3pt.fft.ops.eu.uu.net:8080"},
{"url":"https://lg-fra.fdcservers.net:8080/speedtest/upload.php","lat":"50.1109","lon":"8.6821","distance":0,"name":"Frankfurt","country":"Germany","cc":"DE","sponsor":"fdcservers.net","id":"10010","preferred":0,"isp_id":"27716","https_functional":1,"host":"lg-fra.fdcservers.net:8080"},
{"url":"http://ookla.fnm.as6453.net:8080/speedtest/upload.php","lat":"50.1109","lon":"8.6821","distance":0,"name":"Frankfurt","country":"Germany","cc":"DE","sponsor":"Tata Communications","id":"73624","preferred":0,"isp_id":"310547","https_functional":1,"host":"ookla.fnm.as6453.net.prod.hosts.ooklaserver.net:8080"},
{"url":"http://speedtest-fkt-eqx.retn.net:8080/speedtest/upload.php","lat":"50.1109","lon":"8.6821","distance":0,"name":"Frankfurt","country":"Germany","cc":"DE","sponsor":"RETN","id":"31120","preferred":0,"isp_id":"295023","https_functional":1,"host":"speedtest-fkt-eqx.retn.net.prod.hosts.ooklaserver.net:8080"},
{"url":"http://speedtest-fra.melbicom.net:8080/speedtest/upload.php","lat":"50.1109","lon":"8.6821","distance":0,"name":"Frankfurt","country":"Germany","cc":"DE","sponsor":"Melbicom","id":"37492","preferred":0,"isp_id":"149168","https_functional":1,"host":"speedtest-fra.melbicom.net:8080"},
{"url":"https://speedtest-net.mk.de:8080/speedtest/upload.php","lat":"50.1109","lon":"8.6821","distance":0,"name":"Frankfurt","country":"Germany","cc":"DE","sponsor":"MK Netzdienste","id":"61917","preferred":0,"isp_id":"3526","https_functional":1,"host":"speedtest-net.mk.de:8080"},
{"url":"http://speedtest-ntt-fra.as20011.net:8080/speedtest/upload.php","lat":"50.1109","lon":"8.6821","distance":0,"name":"Frankfurt","country":"Germany","cc":"DE","sponsor":"NTT DATA, Inc.","id":"70565","preferred":0,"isp_id":"405","https_functional":1,"host":"speedtest-ntt-fra.as20011.net:8080"},
{"url":"http://speedtest.58243.as:8080/speedtest/upload.php","lat":"50.1109","lon":"8.6821","distance":0,"name":"Frankfurt","country":"Germany","cc":"DE","sponsor":"TELE AG","id":"44477","preferred":0,"isp_id":"84203","https_functional":1,"host":"speedtest.58243.as.prod.hosts.ooklaserver.net:8080"},
{"url":"http://speedtest.battern.eu:8080/speedtest/upload.php","lat":"50.1109","lon":"8.6821","distance":0,"name":"Frankfurt","country":"Germany","cc":"DE","sponsor":"Batternhosting","id":"53864","preferred":0,"isp_id":"0","https_functional":1,"host":"speedtest.battern.eu.prod.hosts.ooklaserver.net:8080"},
{"url":"http://speedtest.creolineserver.de:8080/speedtest/upload.php","lat":"50.1109","lon":"8.6821","distance":0,"name":"Frankfurt","country":"Germany","cc":"DE","sponsor":"creoline GmbH","id":"17312","preferred":0,"isp_id":"181125","host":"speedtest.creolineserver.de:8080"},
{"url":"http://speedtest.eu-fr.kamatera.com:8080/speedtest/upload.php","lat":"50.1109","lon":"8.6821","distance":0,"name":"Frankfurt","country":"Germany","cc":"DE","sponsor":"KamaTera, Inc.","id":"69755","preferred":0,"isp_id":"179449","https_functional":1,"host":"speedtest.eu-fr.kamatera.com.prod.hosts.ooklaserver.net:8080"},
{"url":"http://speedtest.ip-projects.de:8080/speedtest/upload.php","lat":"50.1109","lon":"8.6821","distance":0,"name":"Frankfurt","country":"Germany","cc":"DE","sponsor":"IP-Projects GmbH & Co. KG","id":"8040","preferred":0,"isp_id":"330760","https_functional":1,"host":"speedtest.ip-projects.de:8080"},
{"url":"http://speedtest.meerfarbig.net:8080/speedtest/upload.php","lat":"50.1109","lon":"8.6821","distance":0,"name":"Frankfurt","country":"Germany","cc":"DE","sponsor":"meerfarbig GmbH & Co. KG","id":"18667","preferred":0,"isp_id":"331389","https_functional":1,"host":"speedtest.meerfarbig.net.prod.hosts.ooklaserver.net:8080"},
{"url":"http://speedtest.ropa.de:8080/speedtest/upload.php","lat":"50.1109","lon":"8.6821","distance":0,"name":"Frankfurt","country":"Germany","cc":"DE","sponsor":"ropa GmbH","id":"37748","preferred":0,"isp_id":"250706","https_functional":1,"host":"speedtest.ropa.de.prod.hosts.ooklaserver.net:8080"},
{"url":"http://speedtest.twerion.net:8080/speedtest/upload.php","lat":"50.1109","lon":"8.6821","distance":0,"name":"Frankfurt","country":"Germany","cc":"DE","sponsor":"Twerion.net | Minecraft Server","id":"55462","preferred":0,"isp_id":"2562","https_functional":1,"host":"speedtest.twerion.net.prod.hosts.ooklaserver.net:8080"},
{"url":"http://speedtest.webdiscount.net:8080/speedtest/upload.php","lat":"50.1109","lon":"8.6821","distance":0,"name":"Frankfurt","country":"Germany","cc":"DE","sponsor":"WEBDISCOUNT GmbH & Co. KG","id":"63028","preferred":0,"isp_id":"25798","https_functional":1,"host":"speedtest.webdiscount.net.prod.hosts.ooklaserver.net:8080"},
{"url":"http://speedtest3.dacor.de:8080/speedtest/upload.php","lat":"50.1109","lon":"8.6821","distance":0,"name":"Frankfurt","country":"Germany","cc":"DE","sponsor":"suec//dacor GmbH","id":"25633","preferred":0,"isp_id":"22272","host":"speedtest3.dacor.de:8080"},
{"url":"http://srv1297902.hstgr.cloud:8080/speedtest/upload.php","lat":"50.1109","lon":"8.6821","distance":0,"name":"Frankfurt","country":"Germany","cc":"DE","sponsor":"Hostinger","id":"73572","preferred":0,"isp_id":"270164","https_functional":1,"host":"srv1297902.hstgr.cloud.prod.hosts.ooklaserver.net:8080"},
{"url":"http://de-fra2-lg1.level66.network:8080/speedtest/upload.php","lat":"50.1109","lon":"8.6821","distance":0,"name":"Frankfurt am Main","country":"Germany","cc":"DE","sponsor":"level66.network UG (haftungsbeschränkt)","id":"39047","preferred":0,"isp_id":"189826","https_functional":1,"host":"de-fra2-lg1.level66.network.prod.hosts.ooklaserver.net:8080"},
{"url":"http://de.speedtest.waicore.com:8080/speedtest/upload.php","lat":"50.1109","lon":"8.6821","distance":0,"name":"Frankfurt am Main","country":"Germany","cc":"DE","sponsor":"WAIcore Ltd","id":"67916","preferred":0,"isp_id":"259312","https_functional":1,"host":"de.speedtest.waicore.com.prod.hosts.ooklaserver.net:8080"},
{"url":"http://ffm.wsqm.telekom-dienste.de:8080/speedtest/upload.php","lat":"50.1109","lon":"8.6821","distance":0,"name":"Frankfurt am Main","country":"Germany","cc":"DE","sponsor":"Deutsche Telekom","id":"31448","preferred":0,"isp_id":"252","https_functional":1,"host":"ffm.wsqm.telekom-dienste.de.prod.hosts.ooklaserver.net:8080"},
{"url":"http://fra.speedtest.clouvider.net:8080/speedtest/upload.php","lat":"50.1109","lon":"8.6821","distance":0,"name":"Frankfurt am Main","country":"Germany","cc":"DE","sponsor":"Clouvider Ltd","id":"35692","preferred":0,"isp_id":"101389","https_functional":1,"host":"fra.speedtest.clouvider.net.prod.hosts.ooklaserver.net:8080"},
{"url":"http://ookla.lunoxia.net:8080/speedtest/upload.php","lat":"51.2277","lon":"6.7735","distance":0,"name":"Frankfurt am Main","country":"Germany","cc":"DE","sponsor":"Lunoxia","id":"32412","preferred":0,"isp_id":"234848","host":"ookla.lunoxia.net:8080"},
{"url":"http://speedtest-de.webdade.com:8080/speedtest/upload.php","lat":"50.1109","lon":"8.6821","distance":0,"name":"Frankfurt am Main","country":"Germany","cc":"DE","sponsor":"Webdade","id":"72038","preferred":0,"isp_id":"237907","host":"speedtest-de.webdade.com:8080"},
{"url":"http://speedtest-fra-de.w-net.eu:8080/speedtest/upload.php","lat":"50.1109","lon":"8.6821","distance":0,"name":"Frankfurt am Main","country":"Germany","cc":"DE","sponsor":"Wnet","id":"72436","preferred":0,"isp_id":"300784","https_functional":1,"host":"speedtest-fra-de.w-net.eu.prod.hosts.ooklaserver.net:8080"},
{"url":"http://speedtest.23m.com:8080/speedtest/upload.php","lat":"50.1109","lon":"8.6821","distance":0,"name":"Frankfurt am Main","country":"Germany","cc":"DE","sponsor":"23M GmbH","id":"44081","preferred":0,"isp_id":"234820","https_functional":1,"host":"speedtest.23m.com.prod.hosts.ooklaserver.net:8080"},
{"url":"http://speedtest.fra.plusnet.de:8080/speedtest/upload.php","lat":"50.1109","lon":"8.6821","distance":0,"name":"Frankfurt am Main","country":"Germany","cc":"DE","sponsor":"Plusnet GmbH","id":"70635","preferred":0,"isp_id":"253948","https_functional":1,"host":"speedtest.fra.plusnet.de.prod.hosts.ooklaserver.net:8080"},
{"url":"http://speedtest.frankfurt-am-main.valtrix.org:8080/speedtest/upload.php","lat":"50.1109","lon":"8.6821","distance":0,"name":"Frankfurt am Main","country":"Germany","cc":"DE","sponsor":"Valtrix Worldwide LLC","id":"73035","preferred":0,"isp_id":"301298","https_functional":1,"host":"speedtest.frankfurt-am-main.valtrix.org:8080"},
{"url":"http://speedtest.lamasatpro.com:8080/speedtest/upload.php","lat":"50.1109","lon":"8.6821","distance":0,"name":"Frankfurt am Main","country":"Germany","cc":"DE","sponsor":"Lamasat Pro","id":"63464","preferred":0,"isp_id":"287429","https_functional":1,"host":"speedtest.lamasatpro.com.prod.hosts.ooklaserver.net:8080"},
{"url":"http://speedtest.pingless.com:8080/speedtest/upload.php","lat":"50.1109","lon":"8.6821","distance":0,"name":"Frankfurt am Main","country":"Germany","cc":"DE","sponsor":"Pingless.com","id":"39873","preferred":0,"isp_id":"267968","host":"speedtest.pingless.com:8080"},
{"url":"http://speedtest1.synlinq.de:8080/speedtest/upload.php","lat":"50.1109","lon":"8.6821","distance":0,"name":"Frankfurt am Main","country":"Germany","cc":"DE","sponsor":"SYNLINQ","id":"32298","preferred":0,"isp_id":"200934","https_functional":1,"host":"speedtest1.synlinq.de.prod.hosts.ooklaserver.net:8080"},
{"url":"http://speedtest.goetel.net:8080/speedtest/upload.php","lat":"51.5413","lon":"9.9158","distance":0,"name":"Göttingen","country":"Germany","cc":"DE","sponsor":"goetel GmbH","id":"23610","preferred":0,"isp_id":"18361","https_functional":1,"host":"speedtest.goetel.net.prod.hosts.ooklaserver.net:8080"},
{"url":"http://ookla.ham-02.testpub.telefonica.de:8080/speedtest/upload.php","lat":"53.5488","lon":"9.9872","distance":0,"name":"Hamburg","country":"Germany","cc":"DE","sponsor":"Telefónica Germany GmbH & Co. OHG","id":"73592","preferred":0,"isp_id":"73468","https_functional":1,"host":"ookla.ham-02.testpub.telefonica.de.prod.hosts.ooklaserver.net:8080"},
{"url":"http://purtel39.purtel.com:8080/speedtest/upload.php","lat":"53.5488","lon":"9.9872","distance":0,"name":"Hamburg","country":"Germany","cc":"DE","sponsor":"purtel.com GmbH","id":"63738","preferred":0,"isp_id":"119014","https_functional":1,"host":"purtel39.purtel.com.prod.hosts.ooklaserver.net:8080"},
{"url":"http://speedtest.jonasdevries.net:8080/speedtest/upload.php","lat":"53.5653","lon":"10.0014","distance":0,"name":"Hamburg","country":"Germany","cc":"DE","sponsor":"Jonas de Vries (Network-Test)","id":"58266","preferred":0,"isp_id":"65406","https_functional":1,"host":"speedtest.jonasdevries.net.prod.hosts.ooklaserver.net:8080"},
{"url":"http://speedtest.netzwerge.de:8080/speedtest/upload.php","lat":"53.5653","lon":"10.0014","distance":0,"name":"Hamburg","country":"Germany","cc":"DE","sponsor":"Netzwerge GmbH","id":"61958","preferred":0,"isp_id":"135988","https_functional":1,"host":"speedtest.netzwerge.de.prod.hosts.ooklaserver.net:8080"},
{"url":"http://speedtest.ookla.ham1.x-ion.de:8080/speedtest/upload.php","lat":"53.5488","lon":"9.9872","distance":0,"name":"Hamburg","country":"Germany","cc":"DE","sponsor":"x-ion GmbH","id":"7803","preferred":0,"isp_id":"271862","https_functional":1,"host":"speedtest.ookla.ham1.x-ion.de.prod.hosts.ooklaserver.net:8080"},
{"url":"http://ookla.haj-01.testpub.telefonica.de:8080/speedtest/upload.php","lat":"52.3759","lon":"9.7320","distance":0,"name":"Hannover","country":"Germany","cc":"DE","sponsor":"Telefónica Germany GmbH & Co. OHG","id":"60747","preferred":0,"isp_id":"73468","https_functional":1,"host":"ookla.haj-01.testpub.telefonica.de.prod.hosts.ooklaserver.net:8080"},
{"url":"http://speedtest.hannover.jonasdevries.de:8080/speedtest/upload.php","lat":"52.3759","lon":"9.7320","distance":0,"name":"Hannover","country":"Germany","cc":"DE","sponsor":"Jonas de Vries (Network-Test)","id":"60440","preferred":0,"isp_id":"65406","https_functional":1,"host":"speedtest.hannover.jonasdevries.de.prod.hosts.ooklaserver.net:8080"},
{"url":"http://speedtest.northernaccess.de:8080/speedtest/upload.php","lat":"52.3759","lon":"9.7320","distance":0,"name":"Hannover","country":"Germany","cc":"DE","sponsor":"Northern-Access GmbH","id":"64302","preferred":0,"isp_id":"0","https_functional":1,"host":"speedtest.northernaccess.de.prod.hosts.ooklaserver.net:8080"},
{"url":"http://speedtest02.htp-tel.de:8080/speedtest/upload.php","lat":"52.3759","lon":"9.7320","distance":0,"name":"Hannover","country":"Germany","cc":"DE","sponsor":"htp GmbH","id":"48042","preferred":0,"isp_id":"3894","https_functional":1,"host":"speedtest02.htp-tel.de.prod.hosts.ooklaserver.net:8080"},
{"url":"http://speedtest.edv-kossmann.de:8080/speedtest/upload.php","lat":"51.0600","lon":"6.1184","distance":0,"name":"Heinsberg","country":"Germany","cc":"DE","sponsor":"EDV KOSSMANN","id":"68164","preferred":0,"isp_id":"38754","https_functional":1,"host":"speedtest.edv-kossmann.de.prod.hosts.ooklaserver.net:8080"},
{"url":"http://speedtest.stellar-synergy.de:8080/speedtest/upload.php","lat":"50.8806","lon":"6.8881","distance":0,"name":"Hürth","country":"Germany","cc":"DE","sponsor":"Stellar Synergy","id":"69023","preferred":0,"isp_id":"22898","https_functional":1,"host":"speedtest.stellar-synergy.de.prod.hosts.ooklaserver.net:8080"},
{"url":"http://speedtest.netcomnetz.de:8080/speedtest/upload.php","lat":"51.3127","lon":"9.4797","distance":0,"name":"Kassel","country":"Germany","cc":"DE","sponsor":"Netcom Kassel Gesellschaft für Telekommunikation mbH","id":"53619","preferred":0,"isp_id":"132452","https_functional":1,"host":"speedtest.netcomnetz.de.prod.hosts.ooklaserver.net:8080"},
{"url":"http://speedtest01.ber.server.camp:8080/speedtest/upload.php","lat":"51.3119","lon":"9.4916","distance":0,"name":"Kassel","country":"Germany","cc":"DE","sponsor":"Server.camp - Open Source Hosting","id":"61216","preferred":0,"isp_id":"0","https_functional":1,"host":"speedtest01.ber.server.camp.prod.hosts.ooklaserver.net:8080"},
{"url":"http://st02.fynncloud.net:8080/speedtest/upload.php","lat":"51.3119","lon":"9.4916","distance":0,"name":"Kassel","country":"Germany","cc":"DE","sponsor":"FynnCloud","id":"62165","preferred":0,"isp_id":"272948","https_functional":1,"host":"st02.fynncloud.net.prod.hosts.ooklaserver.net:8080"},
{"url":"http://ookla.speed.tng.de:8080/speedtest/upload.php","lat":"54.3253","lon":"10.1406","distance":0,"name":"Kiel","country":"Germany","cc":"DE","sponsor":"TNG Stadtnetz GmbH","id":"73876","preferred":0,"isp_id":"224181","https_functional":1,"host":"ookla.speed.tng.de.prod.hosts.ooklaserver.net:8080"},
{"url":"http://speed.ktk.de:8080/speedtest/upload.php","lat":"50.3597","lon":"7.5978","distance":0,"name":"Koblenz","country":"Germany","cc":"DE","sponsor":"KEVAG Telekom GmbH","id":"4546","preferred":0,"isp_id":"6850","https_functional":1,"host":"speed.ktk.de.prod.hosts.ooklaserver.net:8080"},
{"url":"http://speedtest.agw1.as49436.net:8080/speedtest/upload.php","lat":"51.7760","lon":"8.3231","distance":0,"name":"Langenberg","country":"Germany","cc":"DE","sponsor":"Stadtwerke Soest GmbH","id":"67616","preferred":0,"isp_id":"191606","https_functional":1,"host":"speedtest.agw1.as49436.net.prod.hosts.ooklaserver.net:8080"},
{"url":"http://speedtest.leer.jonasdevries.de:8080/speedtest/upload.php","lat":"53.2357","lon":"7.4679","distance":0,"name":"Leer","country":"Germany","cc":"DE","sponsor":"Jonas de Vries (Network-Test)","id":"60421","preferred":0,"isp_id":"65406","https_functional":1,"host":"speedtest.leer.jonasdevries.de.prod.hosts.ooklaserver.net:8080"},
{"url":"http://ookla.kues-data.de:8080/speedtest/upload.php","lat":"49.5092","lon":"6.7463","distance":0,"name":"Losheim am See","country":"Germany","cc":"DE","sponsor":"KUES DATA GmbH","id":"49575","preferred":0,"isp_id":"268422","https_functional":1,"host":"ookla.kues-data.de.prod.hosts.ooklaserver.net:8080"},
{"url":"http://speedtest.ip-works.de:8080/speedtest/upload.php","lat":"53.8655","lon":"10.6866","distance":0,"name":"Lübeck","country":"Germany","cc":"DE","sponsor":"Stadtwerke Lübeck GmbH","id":"44599","preferred":0,"isp_id":"4049","https_functional":1,"host":"speedtest.ip-works.de.prod.hosts.ooklaserver.net:8080"},
{"url":"http://ookla1.1und1-mobilfunk.de:8080/speedtest/upload.php","lat":"49.9929","lon":"8.2473","distance":0,"name":"Mainz","country":"Germany","cc":"DE","sponsor":"1&1 Mobilfunk","id":"55133","preferred":0,"isp_id":"22939","https_functional":1,"host":"ookla1.1und1-mobilfunk.de:8080"},
{"url":"http://ookla2.1und1-mobilfunk.de:8080/speedtest/upload.php","lat":"51.9607","lon":"7.6261","distance":0,"name":"Munster","country":"Germany","cc":"DE","sponsor":"1&1 Mobilfunk","id":"61290","preferred":0,"isp_id":"22939","https_functional":1,"host":"ookla2.1und1-mobilfunk.de:8080"},
{"url":"http://speedtest.swnnms.net:8080/speedtest/upload.php","lat":"54.0714","lon":"9.9900","distance":0,"name":"Neumünster","country":"Germany","cc":"DE","sponsor":"Stadtwerke Neumünster GmbH","id":"28148","preferred":0,"isp_id":"95881","https_functional":1,"host":"speedtest.swnnms.net:8080"},
{"url":"http://northernaccess.de:8080/speedtest/upload.php","lat":"52.6381","lon":"9.2084","distance":0,"name":"Nienburg","country":"Germany","cc":"DE","sponsor":"Northern-Access GmbH","id":"61387","preferred":0,"isp_id":"0","https_functional":1,"host":"northernaccess.de.prod.hosts.ooklaserver.net:8080"},
{"url":"http://speedtest.wtnet.de:8080/speedtest/upload.php","lat":"53.7064","lon":"10.0103","distance":0,"name":"Norderstedt","country":"Germany","cc":"DE","sponsor":"wilhelm.tel","id":"4087","preferred":0,"isp_id":"91706","https_functional":1,"host":"speedtest.wtnet.de:8080"},
{"url":"http://speedtest-gwn24.tele-ag.de:8080/speedtest/upload.php","lat":"50.9040","lon":"7.5420","distance":0,"name":"Nümbrecht","country":"Germany","cc":"DE","sponsor":"Gemeindewerke Nümbrecht GmbH","id":"22274","preferred":0,"isp_id":"177672","https_functional":1,"host":"speedtest-gwn24.tele-ag.de.prod.hosts.ooklaserver.net:8080"},
{"url":"http://net-speed1-pp.ewetel.de:8080/speedtest/upload.php","lat":"53.1439","lon":"8.2139","distance":0,"name":"Oldenburg","country":"Germany","cc":"DE","sponsor":"EWE TEL GmbH","id":"64665","preferred":0,"isp_id":"54119","https_functional":1,"host":"net-speed1-pp.ewetel.de.prod.hosts.ooklaserver.net:8080"},
{"url":"http://speed.xiweb.de:8080/speedtest/upload.php","lat":"51.7085","lon":"7.3781","distance":0,"name":"Olfen","country":"Germany","cc":"DE","sponsor":"Olfenkom GmbH","id":"71079","preferred":0,"isp_id":"84646","https_functional":1,"host":"speed.xiweb.de.prod.hosts.ooklaserver.net:8080"},
{"url":"http://speedtest-rz.vsm.sh:8080/speedtest/upload.php","lat":"53.6990","lon":"10.7711","distance":0,"name":"Ratzeburg","country":"Germany","cc":"DE","sponsor":"Vereinigte Stadtwerke Media GmbH","id":"44668","preferred":0,"isp_id":"160646","https_functional":1,"host":"speedtest-rz.vsm.sh.prod.hosts.ooklaserver.net:8080"},
{"url":"http://speedtest.agw2.as49436.net:8080/speedtest/upload.php","lat":"51.8167","lon":"8.4342","distance":0,"name":"Rietberg","country":"Germany","cc":"DE","sponsor":"Stadtwerke Soest GmbH","id":"67618","preferred":0,"isp_id":"191606","https_functional":1,"host":"speedtest.agw2.as49436.net.prod.hosts.ooklaserver.net:8080"},
{"url":"http://sp1.speedy.breitband-rostock.de:8080/speedtest/upload.php","lat":"54.0924","lon":"12.0991","distance":0,"name":"Rostock","country":"Germany","cc":"DE","sponsor":"Stadtwerke Rostock AG","id":"41226","preferred":0,"isp_id":"69778","https_functional":1,"host":"sp1.speedy.breitband-rostock.de:8080"},
{"url":"http://speedtest.ediscom.net:8080/speedtest/upload.php","lat":"54.0924","lon":"12.0991","distance":0,"name":"Rostock","country":"Germany","cc":"DE","sponsor":"e.discom Telekommunikation GmbH","id":"61837","preferred":0,"isp_id":"1389","https_functional":1,"host":"speedtest.ediscom.net.prod.hosts.ooklaserver.net:8080"},
{"url":"http://speedtest.schlueter-server.de:8080/speedtest/upload.php","lat":"51.4925","lon":"8.4370","distance":0,"name":"Ruethen","country":"Germany","cc":"DE","sponsor":"Schlueter Onlinedienste","id":"29806","preferred":0,"isp_id":"191606","https_functional":1,"host":"speedtest.schlueter-server.de.prod.hosts.ooklaserver.net:8080"},
{"url":"http://speedtest.intersaar.de:8080/speedtest/upload.php","lat":"49.2500","lon":"6.9667","distance":0,"name":"Saarbrucken","country":"Germany","cc":"DE","sponsor":"intersaar GmbH","id":"3692","preferred":0,"isp_id":"4185","https_functional":1,"host":"speedtest.intersaar.de.prod.hosts.ooklaserver.net:8080"},
{"url":"http://speedtest.nbgo.de:8080/speedtest/upload.php","lat":"49.3544","lon":"6.8057","distance":0,"name":"Saarwellingen","country":"Germany","cc":"DE","sponsor":"Net-Build GmbH","id":"63866","preferred":0,"isp_id":"268178","https_functional":1,"host":"speedtest.nbgo.de:8080"},
{"url":"http://sl-04.wemacom.net:8080/speedtest/upload.php","lat":"53.6333","lon":"11.4167","distance":0,"name":"Schwerin","country":"Germany","cc":"DE","sponsor":"WEMACOM Telekommunikation GmbH","id":"45664","preferred":0,"isp_id":"53295","https_functional":1,"host":"sl-04.wemacom.net.prod.hosts.ooklaserver.net:8080"},
{"url":"http://speedtest.stadtwerke-soest.de:8080/speedtest/upload.php","lat":"51.5714","lon":"8.1105","distance":0,"name":"Soest","country":"Germany","cc":"DE","sponsor":"Stadtwerke Soest GmbH","id":"47513","preferred":0,"isp_id":"191606","https_functional":1,"host":"speedtest.stadtwerke-soest.de.prod.hosts.ooklaserver.net:8080"},
{"url":"http://speedtest.hochschule-trier.de:8080/speedtest/upload.php","lat":"49.7500","lon":"6.6371","distance":0,"name":"Trier","country":"Germany","cc":"DE","sponsor":"Hochschule Trier","id":"33264","preferred":0,"isp_id":"26520","https_functional":1,"host":"speedtest.hochschule-trier.de:8080"},
{"url":"http://speedtest.fnoh.de:8080/speedtest/upload.php","lat":"52.4648","lon":"10.2035","distance":0,"name":"Uetze","country":"Germany","cc":"DE","sponsor":"FNOH-DSL","id":"49459","preferred":0,"isp_id":"99914","https_functional":1,"host":"speedtest.fnoh.de.prod.hosts.ooklaserver.net:8080"},
{"url":"http://speedtest1.t-m-net.de:8080/speedtest/upload.php","lat":"52.9233","lon":"9.2350","distance":0,"name":"Verden","country":"Germany","cc":"DE","sponsor":"Marco Bungalski GmbH","id":"8827","preferred":0,"isp_id":"94844","https_functional":1,"host":"speedtest1.t-m-net.de.prod.hosts.ooklaserver.net:8080"},
{"url":"http://speedtest.wol.jonasdevries.de:8080/speedtest/upload.php","lat":"53.1540","lon":"7.4420","distance":0,"name":"Westoverledingen","country":"Germany","cc":"DE","sponsor":"Jonas de Vries (Network-Test)","id":"59653","preferred":0,"isp_id":"65406","https_functional":1,"host":"speedtest.wol.jonasdevries.de.prod.hosts.ooklaserver.net:8080"},
{"url":"http://speedtest.witcom.cloud:8080/speedtest/upload.php","lat":"50.0782","lon":"8.2398","distance":0,"name":"Wiesbaden","country":"Germany","cc":"DE","sponsor":"WiTCOM","id":"29320","preferred":0,"isp_id":"61892","host":"speedtest.witcom.cloud:8080"},
{"url":"http://a400.speedtest.wobcom.de:8080/speedtest/upload.php","lat":"52.4226","lon":"10.7865","distance":0,"name":"Wolfsburg","country":"Germany","cc":"DE","sponsor":"WOBCOM GmbH","id":"53128","preferred":0,"isp_id":"2991","https_functional":1,"host":"a400.speedtest.wobcom.de:8080"},
{"url":"http://speedtest.host-unlimited.de:8080/speedtest/upload.php","lat":"52.4226","lon":"10.7865","distance":0,"name":"Wolfsburg","country":"Germany","cc":"DE","sponsor":"Bieber IT GmbH","id":"68854","preferred":0,"isp_id":"296514","host":"speedtest.host-unlimited.de:8080"},
{"url":"http://1010.hkspeedtest.com:8080/speedtest/upload.php","lat":"22.2760","lon":"114.1751","distance":0,"name":"Hong Kong","country":"Hong Kong","cc":"HK","sponsor":"1010","id":"43356","preferred":0,"isp_id":"101231","https_functional":1,"host":"1010.hkspeedtest.com.prod.hosts.ooklaserver.net:8080"},
{"url":"http://csl.hkspeedtest.com:8080/speedtest/upload.php","lat":"22.3668","lon":"114.1302","distance":0,"name":"Hong Kong","country":"Hong Kong","cc":"HK","sponsor":"CSL","id":"13538","preferred":0,"isp_id":"101231","https_functional":1,"host":"csl.hkspeedtest.com.prod.hosts.ooklaserver.net:8080"},
{"url":"http://hk-hkg12.speed.misaka.one:8080/speedtest/upload.php","lat":"22.2500","lon":"114.1667","distance":0,"name":"Hong Kong","country":"Hong Kong","cc":"HK","sponsor":"Misaka Network, Inc.","id":"44745","preferred":0,"isp_id":"118607","https_functional":1,"host":"hk-hkg12.speed.misaka.one:8080"},
{"url":"http://hk01.bigball.top:8080/speedtest/upload.php","lat":"22.2500","lon":"114.1667","distance":0,"name":"Hong Kong","country":"Hong Kong","cc":"HK","sponsor":"MistNet","id":"72331","preferred":0,"isp_id":"274961","https_functional":1,"host":"hk01.bigball.top.prod.hosts.ooklaserver.net:8080"},
{"url":"http://hk1.speedtest.gslnetworks.com:8080/speedtest/upload.php","lat":"22.2500","lon":"114.1667","distance":0,"name":"Hong Kong","country":"Hong Kong","cc":"HK","sponsor":"GSL Networks","id":"48446","preferred":0,"isp_id":"215509","https_functional":1,"host":"hk1.speedtest.gslnetworks.com.prod.hosts.ooklaserver.net:8080"},
{"url":"http://hkg.02.speedtest.kansuiun.com:8080/speedtest/upload.php","lat":"22.2500","lon":"114.1667","distance":0,"name":"Hong Kong","country":"Hong Kong","cc":"HK","sponsor":"Kansuiun Co., Ltd","id":"70128","preferred":0,"isp_id":"295279","https_functional":1,"host":"hkg.02.speedtest.kansuiun.com.prod.hosts.ooklaserver.net:8080"},
{"url":"http://hkgspeedtest.cmctelecom.vn:8080/speedtest/upload.php","lat":"22.3000","lon":"114.2000","distance":0,"name":"Hong Kong","country":"Hong Kong","cc":"HK","sponsor":"CMC Telecom","id":"57571","preferred":0,"isp_id":"46039","https_functional":1,"host":"hkgspeedtest.cmctelecom.vn.prod.hosts.ooklaserver.net:8080"},
{"url":"http://hkspeedtest.netvigator.com:8080/speedtest/upload.php","lat":"22.2864","lon":"114.1491","distance":0,"name":"Hong Kong","country":"Hong Kong","cc":"HK","sponsor":"Netvigator","id":"63143","preferred":0,"isp_id":"260668","https_functional":1,"host":"hkspeedtest.netvigator.com.prod.hosts.ooklaserver.net:8080"},
{"url":"http://hkt.hkspeedtest.com:8080/speedtest/upload.php","lat":"22.2500","lon":"114.1667","distance":0,"name":"Hong Kong","country":"Hong Kong","cc":"HK","sponsor":"Club SIM by HKT","id":"60177","preferred":0,"isp_id":"101231","https_functional":1,"host":"hkt.hkspeedtest.com.prod.hosts.ooklaserver.net:8080"},
{"url":"http://hkthspeedtest02.telstraglobal.net:8080/speedtest/upload.php","lat":"22.2500","lon":"114.1667","distance":0,"name":"Hong Kong","country":"Hong Kong","cc":"HK","sponsor":"Telstra International","id":"44340","preferred":0,"isp_id":"84702","https_functional":1,"host":"hkthspeedtest02.telstraglobal.net.prod.hosts.ooklaserver.net:8080"},
{"url":"http://hoshiyomi.ratatoskr.org:8080/speedtest/upload.php","lat":"22.2500","lon":"114.1667","distance":0,"name":"Hong Kong","country":"Hong Kong","cc":"HK","sponsor":"ラタトスク","id":"57779","preferred":0,"isp_id":"77744","https_functional":1,"host":"hoshiyomi.ratatoskr.org.prod.hosts.ooklaserver.net:8080"},
{"url":"http://kami.smartone.com:8080/speedtest/upload.php","lat":"22.2796","lon":"114.1592","distance":0,"name":"Hong Kong","country":"Hong Kong","cc":"HK","sponsor":"SmarTone","id":"35791","preferred":0,"isp_id":"2404","https_functional":1,"host":"kami.smartone.com.prod.hosts.ooklaserver.net:8080"},
{"url":"http://lg-hkg.fdcservers.net:8080/speedtest/upload.php","lat":"22.2500","lon":"114.1667","distance":0,"name":"Hong Kong","country":"Hong Kong","cc":"HK","sponsor":"fdcservers.net","id":"28912","preferred":0,"isp_id":"27716","https_functional":1,"host":"lg-hkg.fdcservers.net:8080"},
{"url":"http://ookla-speedtest-central.hgconair.hgc.com.hk:8080/speedtest/upload.php","lat":"22.2800","lon":"114.1588","distance":0,"name":"Hong Kong","country":"Hong Kong","cc":"HK","sponsor":"HGC環電","id":"37390","preferred":0,"isp_id":"51880","https_functional":1,"host":"ookla-speedtest-central.hgconair.hgc.com.hk:8080"},
{"url":"http://ookla.hk2.as6453.net:8080/speedtest/upload.php","lat":"22.3193","lon":"114.1694","distance":0,"name":"Hong Kong","country":"Hong Kong","cc":"HK","sponsor":"Tata Communications","id":"73629","preferred":0,"isp_id":"310580","https_functional":1,"host":"ookla.hk2.as6453.net.prod.hosts.ooklaserver.net:8080"},
{"url":"https://sosimhk.datapath.three.com.hk:8080/speedtest/upload.php","lat":"22.2500","lon":"114.1667","distance":0,"name":"Hong Kong","country":"Hong Kong","cc":"HK","sponsor":"SoSIM","id":"63076","preferred":0,"isp_id":"86733","host":"sosimhk.datapath.three.com.hk:8080"},
{"url":"http://speedtest-hkg.retn.net:8080/speedtest/upload.php","lat":"22.2500","lon":"114.1667","distance":0,"name":"Hong Kong","country":"Hong Kong","cc":"HK","sponsor":"RETN","id":"68983","preferred":0,"isp_id":"275610","https_functional":1,"host":"speedtest-hkg.retn.net.prod.hosts.ooklaserver.net:8080"},
{"url":"http://speedtest.hk.chinamobile.com:8080/speedtest/upload.php","lat":"22.3193","lon":"114.1694","distance":0,"name":"Hong Kong","country":"Hong Kong","cc":"HK","sponsor":"CMHK Mobile Service","id":"32155","preferred":0,"isp_id":"207318","https_functional":1,"host":"speedtest.hk.chinamobile.com:8080"},
{"url":"http://speedtest.hk210.hkg.cn.ctcsci.com:8080/speedtest/upload.php","lat":"22.2500","lon":"114.1667","distance":0,"name":"Hong Kong","country":"Hong Kong","cc":"HK","sponsor":"CTCSCI TECH LTD","id":"62193","preferred":0,"isp_id":"277245","https_functional":1,"host":"speedtest.hk210.hkg.cn.ctcsci.com.prod.hosts.ooklaserver.net:8080"},
{"url":"http://speedtest.rfchost.net:8080/speedtest/upload.php","lat":"22.2500","lon":"114.1667","distance":0,"name":"Hong Kong","country":"Hong Kong","cc":"HK","sponsor":"RFCHOST","id":"69119","preferred":0,"isp_id":"0","https_functional":1,"host":"speedtest.rfchost.net.prod.hosts.ooklaserver.net:8080"},
{"url":"http://speedtest.three.com.hk:8080/speedtest/upload.php","lat":"22.3193","lon":"114.1694","distance":0,"name":"Hong Kong","country":"Hong Kong","cc":"HK","sponsor":"Hutchison HK","id":"33414","preferred":0,"isp_id":"86733","https_functional":1,"host":"speedtest.three.com.hk:8080"},
{"url":"http://speedtest1c.hkix.net:8080/speedtest/upload.php","lat":"22.2500","lon":"114.1667","distance":0,"name":"Hong Kong","country":"Hong Kong","cc":"HK","sponsor":"HKIX","id":"61296","preferred":0,"isp_id":"148719","https_functional":1,"host":"speedtest1c.hkix.net.prod.hosts.ooklaserver.net:8080"},
{"url":"http://speedtest21.hkbn.net:8080/speedtest/upload.php","lat":"22.2500","lon":"114.1667","distance":0,"name":"Hong Kong","country":"Hong Kong","cc":"HK","sponsor":"HKBN","id":"65463","preferred":0,"isp_id":"77744","https_functional":1,"host":"speedtest21.hkbn.net.prod.hosts.ooklaserver.net:8080"},
{"url":"http://speedtestbb.hk.chinamobile.com:8080/speedtest/upload.php","lat":"22.3193","lon":"114.1694","distance":0,"name":"Hong Kong","country":"Hong Kong","cc":"HK","sponsor":"CMHK Broadband","id":"37639","preferred":0,"isp_id":"207318","https_functional":1,"host":"speedtestbb.hk.chinamobile.com:8080"},
{"url":"http://speedtesthkg.fpt.vn:8080/speedtest/upload.php","lat":"22.3193","lon":"114.1694","distance":0,"name":"Hong Kong","country":"Hong Kong","cc":"HK","sponsor":"FPT Telecom","id":"67826","preferred":0,"isp_id":"43723","https_functional":1,"host":"speedtesthkg.fpt.vn.prod.hosts.ooklaserver.net:8080"},
{"url":"http://sunmobile.hkspeedtest.com:8080/speedtest/upload.php","lat":"22.2500","lon":"114.1667","distance":0,"name":"Hong Kong","country":"Hong Kong","cc":"HK","sponsor":"Sun Mobile","id":"60178","preferred":0,"isp_id":"101231","https_functional":1,"host":"sunmobile.hkspeedtest.com.prod.hosts.ooklaserver.net:8080"},
{"url":"http://suntechspeedtest.com:8080/speedtest/upload.php","lat":"22.2500","lon":"114.1667","distance":0,"name":"Hong Kong","country":"Hong Kong","cc":"HK","sponsor":"STC","id":"1536","preferred":0,"isp_id":"260668","https_functional":1,"host":"suntechspeedtest.com.prod.hosts.ooklaserver.net:8080"},
{"url":"http://sp1.angelbroadband.com:8080/speedtest/upload.php","lat":"30.1453","lon":"74.1993","distance":0,"name":"Abohar","country":"India","cc":"IN","sponsor":"ANGEL BROADBAND","id":"20419","preferred":0,"isp_id":"330188","https_functional":1,"host":"sp1.angelbroadband.com.prod.hosts.ooklaserver.net:8080"},
{"url":"http://speedtest.absenterprises.co.in:8080/speedtest/upload.php","lat":"29.2823","lon":"75.4716","distance":0,"name":"Adampur","country":"India","cc":"IN","sponsor":"ABS ENTERPRISES","id":"25515","preferred":0,"isp_id":"233343","https_functional":1,"host":"speedtest.absenterprises.co.in.prod.hosts.ooklaserver.net:8080"},
{"url":"http://shhdooklaspeed1.jioconnect.com:8080/speedtest/upload.php","lat":"30.3557","lon":"76.8019","distance":0,"name":"Ambala","country":"India","cc":"IN","sponsor":"Jio","id":"15276","preferred":0,"isp_id":"137615","https_functional":1,"host":"shhdooklaspeed1.jioconnect.com.prod.hosts.ooklaserver.net:8080"},
{"url":"http://speedtest.sgbroadband.in:8080/speedtest/upload.php","lat":"29.5201","lon":"76.6142","distance":0,"name":"Assandh","country":"India","cc":"IN","sponsor":"SG BROADBAND","id":"49570","preferred":0,"isp_id":"191928","https_functional":1,"host":"speedtest.sgbroadband.in.prod.hosts.ooklaserver.net:8080"},
{"url":"http://speed.airwavesinternet.com:8080/speedtest/upload.php","lat":"30.9578","lon":"76.7914","distance":0,"name":"Baddi","country":"India","cc":"IN","sponsor":"AIRWAVES INTERNET PVT LTD","id":"44714","preferred":0,"isp_id":"106591","https_functional":1,"host":"speed.airwavesinternet.com.prod.hosts.ooklaserver.net:8080"},
{"url":"http://sp2.unpl.co.in:8080/speedtest/upload.php","lat":"28.6914","lon":"76.9314","distance":0,"name":"Bahadurgarh","country":"India","cc":"IN","sponsor":"UN Broadband","id":"47827","preferred":0,"isp_id":"330424","https_functional":1,"host":"sp2.unpl.co.in.prod.hosts.ooklaserver.net:8080"},
{"url":"http://speedtest4.fivenetwork.in:8080/speedtest/upload.php","lat":"30.2110","lon":"74.9455","distance":0,"name":"Bathinda","country":"India","cc":"IN","sponsor":"Five Network","id":"55053","preferred":0,"isp_id":"333215","https_functional":1,"host":"speedtest4.fivenetwork.in.prod.hosts.ooklaserver.net:8080"},
{"url":"http://speedtestbti.angelbroadband.com:8080/speedtest/upload.php","lat":"30.2110","lon":"74.9455","distance":0,"name":"Bathinda","country":"India","cc":"IN","sponsor":"ANGEL BROADBAND","id":"60728","preferred":0,"isp_id":"330188","https_functional":1,"host":"speedtestbti.angelbroadband.com.prod.hosts.ooklaserver.net:8080"},
{"url":"http://speedtest.msnetworks.in:8080/speedtest/upload.php","lat":"28.7975","lon":"76.1322","distance":0,"name":"Bhiwani","country":"India","cc":"IN","sponsor":"MS NETWORKS","id":"52161","preferred":0,"isp_id":"308923","https_functional":1,"host":"speedtest.msnetworks.in.prod.hosts.ooklaserver.net:8080"},
{"url":"http://speedtest2.micronet.in:8080/speedtest/upload.php","lat":"28.7752","lon":"75.9928","distance":0,"name":"Bhiwani","country":"India","cc":"IN","sponsor":"MicroNet GigaFiber","id":"68228","preferred":0,"isp_id":"274517","https_functional":1,"host":"speedtest2.micronet.in.prod.hosts.ooklaserver.net:8080"},
{"url":"http://speedtestbir.airjaldi.net:8080/speedtest/upload.php","lat":"32.0456","lon":"76.7236","distance":0,"name":"Bir","country":"India","cc":"IN","sponsor":"AirJaldi Networks","id":"52367","preferred":0,"isp_id":"330182","https_functional":1,"host":"speedtestbir.airjaldi.net.prod.hosts.ooklaserver.net:8080"},
{"url":"http://bsnlooklachd.mywire.org:8080/speedtest/upload.php","lat":"30.7333","lon":"76.7794","distance":0,"name":"Chandigarh","country":"India","cc":"IN","sponsor":"BHARAT SANCHAR NIGAM LTD","id":"61708","preferred":0,"isp_id":"73461","https_functional":1,"host":"bsnlooklachd.mywire.org.prod.hosts.ooklaserver.net:8080"},
{"url":"http://sgmlooklaspeed1.jioconnect.com:8080/speedtest/upload.php","lat":"30.7333","lon":"76.7794","distance":0,"name":"Chandigarh","country":"India","cc":"IN","sponsor":"Jio","id":"15261","preferred":0,"isp_id":"137615","https_functional":1,"host":"sgmlooklaspeed1.jioconnect.com.prod.hosts.ooklaserver.net:8080"},
{"url":"http://speedtest.chd.gispl.net:8080/speedtest/upload.php","lat":"30.7333","lon":"76.7794","distance":0,"name":"Chandigarh","country":"India","cc":"IN","sponsor":"Gigantic Internet Service Pvt Ltd","id":"72673","preferred":0,"isp_id":"330799","https_functional":1,"host":"speedtest.chd.gispl.net.prod.hosts.ooklaserver.net:8080"},
{"url":"http://speedtest.foxcell.net:8080/speedtest/upload.php","lat":"30.7333","lon":"76.7794","distance":0,"name":"Chandigarh","country":"India","cc":"IN","sponsor":"Foxcell Communication Pvt Ltd","id":"31507","preferred":0,"isp_id":"121076","https_functional":1,"host":"speedtest.foxcell.net.prod.hosts.ooklaserver.net:8080"},
{"url":"http://speedtestchd.netplus.co.in:8080/speedtest/upload.php","lat":"30.7333","lon":"76.7794","distance":0,"name":"Chandigarh","country":"India","cc":"IN","sponsor":"Netplus Broadband Services Pvt Ltd","id":"41294","preferred":0,"isp_id":"111480","https_functional":1,"host":"speedtestchd.netplus.co.in.prod.hosts.ooklaserver.net:8080"},
{"url":"http://dehradun.blueskynetwork.in:8080/speedtest/upload.php","lat":"30.3165","lon":"78.0322","distance":0,"name":"Dehradun","country":"India","cc":"IN","sponsor":"Bluesky Broadband","id":"46177","preferred":0,"isp_id":"330324","https_functional":1,"host":"dehradun.blueskynetwork.in.prod.hosts.ooklaserver.net:8080"},
{"url":"http://speedtest.stgscloud.com:8080/speedtest/upload.php","lat":"30.3275","lon":"78.0325","distance":0,"name":"Dehradun","country":"India","cc":"IN","sponsor":"STGS Cloud","id":"63046","preferred":0,"isp_id":"0","https_functional":1,"host":"speed.stgscloud.com.prod.hosts.ooklaserver.net:8080"},
{"url":"http://speedtest.e-net.net.in:8080/speedtest/upload.php","lat":"30.3165","lon":"78.0322","distance":0,"name":"Dehradun","country":"India","cc":"IN","sponsor":"E Net Solutions Pvt Ltd","id":"68043","preferred":0,"isp_id":"103690","https_functional":1,"host":"speedtest.e-net.net.in.prod.hosts.ooklaserver.net:8080"},
{"url":"http://speedtest.igennetworks.in:8080/speedtest/upload.php","lat":"30.3165","lon":"78.0322","distance":0,"name":"Dehradun","country":"India","cc":"IN","sponsor":"Bharatnet Communications","id":"25859","preferred":0,"isp_id":"295581","https_functional":1,"host":"speedtest.igennetworks.in.prod.hosts.ooklaserver.net:8080"},
{"url":"http://speedtest.megahertz.net.in:8080/speedtest/upload.php","lat":"30.3220","lon":"78.0300","distance":0,"name":"Dehradun","country":"India","cc":"IN","sponsor":"Megahertz Internet Network PVT Ltd","id":"28322","preferred":0,"isp_id":"135142","https_functional":1,"host":"speedtest.megahertz.net.in:8080"},
{"url":"http://speedtest02.radinet.in:8080/speedtest/upload.php","lat":"30.3165","lon":"78.0322","distance":0,"name":"Dehradun","country":"India","cc":"IN","sponsor":"RADINET Info. Solutions Pvt Ltd","id":"54709","preferred":0,"isp_id":"181091","https_functional":1,"host":"speedtest02.radinet.in.prod.hosts.ooklaserver.net:8080"},
{"url":"http://dlhiooklaspeed1.jioconnect.com:8080/speedtest/upload.php","lat":"28.7041","lon":"77.1025","distance":0,"name":"Delhi","country":"India","cc":"IN","sponsor":"Jio","id":"9809","preferred":0,"isp_id":"137615","https_functional":1,"host":"dlhiooklaspeed1.jioconnect.com.prod.hosts.ooklaserver.net:8080"},
{"url":"http://sp.yakshtel.com:8080/speedtest/upload.php","lat":"28.7041","lon":"77.1025","distance":0,"name":"Delhi","country":"India","cc":"IN","sponsor":"Vista Network","id":"58707","preferred":0,"isp_id":"209688","https_functional":1,"host":"sp.yakshtel.com.prod.hosts.ooklaserver.net:8080"},
{"url":"http://sp1.snsinternet.com:8080/speedtest/upload.php","lat":"28.7041","lon":"77.1025","distance":0,"name":"Delhi","country":"India","cc":"IN","sponsor":"SNS INTERNET","id":"52320","preferred":0,"isp_id":"167133","https_functional":1,"host":"sp1.snsinternet.com.prod.hosts.ooklaserver.net:8080"},
{"url":"http://sp1.worldfibernet.com:8080/speedtest/upload.php","lat":"28.7041","lon":"77.1025","distance":0,"name":"Delhi","country":"India","cc":"IN","sponsor":"World Fibernet","id":"51746","preferred":0,"isp_id":"241107","https_functional":1,"host":"sp1.worldfibernet.com.prod.hosts.ooklaserver.net:8080"},
{"url":"http://speed.mylink.co.in:8080/speedtest/upload.php","lat":"28.7041","lon":"77.1025","distance":0,"name":"Delhi","country":"India","cc":"IN","sponsor":"Mylink Services Pvt Ltd","id":"61955","preferred":0,"isp_id":"173909","https_functional":1,"host":"speed.mylink.co.in.prod.hosts.ooklaserver.net:8080"},
{"url":"http://speedtest.bakcom.in:8080/speedtest/upload.php","lat":"28.7041","lon":"77.1025","distance":0,"name":"Delhi","country":"India","cc":"IN","sponsor":"Bakcom Networks","id":"68950","preferred":0,"isp_id":"99653","https_functional":1,"host":"speedtest.bakcom.in:8080"},
{"url":"http://speedtest.maxnetdigital.in:8080/speedtest/upload.php","lat":"28.7041","lon":"77.1025","distance":0,"name":"Delhi","country":"India","cc":"IN","sponsor":"Maxnet Digital","id":"69744","preferred":0,"isp_id":"221068","host":"speedtest.maxnetdigital.in:8080"},