[
{"url":"http://colocity.speedtest.gslnetworks.com:8080/speedtest/upload.php","lat":"-34.9290","lon":"138.6010","distance":0,"name":"Adelaide","country":"Australia","cc":"AU","sponsor":"GSL Networks","id":"48362","preferred":0,"isp_id":"274339","https_functional":1,"host":"colocity.speedtest.gslnetworks.com.prod.hosts.ooklaserver.net:8080"},
{"url":"http://b2.speedtest.gslnetworks.com:8080/speedtest/upload.php","lat":"-27.4728","lon":"153.0278","distance":0,"name":"Brisbane","country":"Australia","cc":"AU","sponsor":"GSL Networks","id":"48346","preferred":0,"isp_id":"274339","https_functional":1,"host":"b2.speedtest.gslnetworks.com.prod.hosts.ooklaserver.net:8080"},
{"url":"http://me1.speedtest.gslnetworks.com.au:8080/speedtest/upload.php","lat":"-37.8136","lon":"144.9631","distance":0,"name":"Melbourne","country":"Australia","cc":"AU","sponsor":"GSL Networks","id":"46114","preferred":0,"isp_id":"274339","https_functional":1,"host":"me1.speedtest.gslnetworks.com.au.prod.hosts.ooklaserver.net:8080"},
{"url":"http://pe2.speedtest.gslnetworks.com:8080/speedtest/upload.php","lat":"-31.9554","lon":"115.8585","distance":0,"name":"Perth","country":"Australia","cc":"AU","sponsor":"GSL Networks","id":"50848","preferred":0,"isp_id":"274339","https_functional":1,"host":"pe2.speedtest.gslnetworks.com.prod.hosts.ooklaserver.net:8080"},
{"url":"http://sy5.test.gslnetworks.com.au:8080/speedtest/upload.php","lat":"-33.8600","lon":"151.2111","distance":0,"name":"Sydney","country":"Australia","cc":"AU","sponsor":"GSL Networks","id":"44735","preferred":0,"isp_id":"274339","https_functional":1,"host":"sy5.test.gslnetworks.com.au.prod.hosts.ooklaserver.net:8080"},
{"url":"http://acrenettecnologia.brsserver.com.br:8080/speedtest/upload.php","lat":"-10.0765","lon":"-67.0587","distance":0,"name":"Acrelândia","country":"Brazil","cc":"BR","sponsor":"ACRENET TECNOLOGIA","id":"68916","preferred":0,"isp_id":"308296","https_functional":1,"host":"acrenettecnologia.brsserver.com.br:8080"},
{"url":"http://ookla-autazes.amazoniasat-isp.com.br:8080/speedtest/upload.php","lat":"-3.5789","lon":"-59.1345","distance":0,"name":"Autazes","country":"Brazil","cc":"BR","sponsor":"Amazônia Sat","id":"53443","preferred":0,"isp_id":"151261","https_functional":1,"host":"ookla-autazes.amazoniasat-isp.com.br.prod.hosts.ooklaserver.net:8080"},
{"url":"http://teste.routinger.com.br:8080/speedtest/upload.php","lat":"-3.5789","lon":"-59.1345","distance":0,"name":"Autazes","country":"Brazil","cc":"BR","sponsor":"Routinger","id":"64181","preferred":0,"isp_id":"228442","https_functional":1,"host":"teste.routinger.com.br:8080"},
{"url":"http://spd76.claro.com.br:8080/speedtest/upload.php","lat":"2.8235","lon":"-60.6759","distance":0,"name":"Boa Vista","country":"Brazil","cc":"BR","sponsor":"Claro Móvel - BVA1","id":"70589","preferred":0,"isp_id":"14791","https_functional":1,"host":"spd76.claro.com.br:8080"},
{"url":"http://speed.cyborgtelecom.com.br:8080/speedtest/upload.php","lat":"2.8206","lon":"-60.6738","distance":0,"name":"Boa Vista","country":"Brazil","cc":"BR","sponsor":"Cyborg Telecom","id":"53054","preferred":0,"isp_id":"0","https_functional":1,"host":"speed.cyborgtelecom.com.br:8080"},
{"url":"http://speedtest.inforr.com.br:8080/speedtest/upload.php","lat":"2.8235","lon":"-60.6759","distance":0,"name":"Boa Vista","country":"Brazil","cc":"BR","sponsor":"INFORR TELECOM","id":"10931","preferred":0,"isp_id":"233646","https_functional":1,"host":"speedtest.inforr.com.br:8080"},
{"url":"http://speedtest.linknetbv.com:8080/speedtest/upload.php","lat":"2.8235","lon":"-60.6759","distance":0,"name":"Boa Vista","country":"Brazil","cc":"BR","sponsor":"LINK-NETBV","id":"49031","preferred":0,"isp_id":"258135","https_functional":1,"host":"speedtest.linknetbv.com:8080"},
{"url":"http://speedtest.roraimanet.com.br:8080/speedtest/upload.php","lat":"2.8206","lon":"-60.6738","distance":0,"name":"Boa Vista","country":"Brazil","cc":"BR","sponsor":"RoraimaNET Telecomunicações","id":"25279","preferred":0,"isp_id":"149462","https_functional":1,"host":"speedtest.roraimanet.com.br.prod.hosts.ooklaserver.net:8080"},
{"url":"http://speedtest.saidnettelecom.com.br:8080/speedtest/upload.php","lat":"2.8236","lon":"-60.6745","distance":0,"name":"Boa Vista","country":"Brazil","cc":"BR","sponsor":"SAIDNET TELECOM","id":"69557","preferred":0,"isp_id":"243067","https_functional":1,"host":"speedtest.saidnettelecom.com.br.prod.hosts.ooklaserver.net:8080"},
{"url":"http://speedtest.uplinkrr.com.br:8080/speedtest/upload.php","lat":"2.8235","lon":"-60.6759","distance":0,"name":"Boa Vista","country":"Brazil","cc":"BR","sponsor":"UpLink","id":"50249","preferred":0,"isp_id":"0","host":"speedtest.uplinkrr.com.br:8080"},
{"url":"http://speedtest.webfibertelecom.com.br:8080/speedtest/upload.php","lat":"2.8235","lon":"-60.6758","distance":0,"name":"Boa Vista","country":"Brazil","cc":"BR","sponsor":"Webfiber Telecom","id":"21777","preferred":0,"isp_id":"178316","https_functional":1,"host":"speedtest.webfibertelecom.com.br.prod.hosts.ooklaserver.net:8080"},
{"url":"http://speedteste.netfast.com.br:8080/speedtest/upload.php","lat":"2.8235","lon":"-60.6759","distance":0,"name":"Boa Vista","country":"Brazil","cc":"BR","sponsor":"NETFAST RR","id":"73307","preferred":0,"isp_id":"192340","https_functional":1,"host":"speedteste.netfast.com.br:8080"},
{"url":"http://speedtestrr.vtal.net.br:8080/speedtest/upload.php","lat":"2.8235","lon":"-60.6759","distance":0,"name":"Boa Vista","country":"Brazil","cc":"BR","sponsor":"Vtal","id":"40396","preferred":0,"isp_id":"243067","https_functional":1,"host":"speedtestrr.vtal.net.br.prod.hosts.ooklaserver.net:8080"},
{"url":"http://teste.suprainternet.com.br:8080/speedtest/upload.php","lat":"2.7885","lon":"-60.7259","distance":0,"name":"Boa Vista","country":"Brazil","cc":"BR","sponsor":"Supra internet","id":"46999","preferred":0,"isp_id":"318468","host":"teste.suprainternet.com.br:8080"},
{"url":"http://velocidade.4wnet.com.br:8080/speedtest/upload.php","lat":"2.8235","lon":"-60.6759","distance":0,"name":"Boa Vista","country":"Brazil","cc":"BR","sponsor":"4WNET TELECOMUNICAÇÕES","id":"25749","preferred":0,"isp_id":"192914","https_functional":1,"host":"velocidade.4wnet.com.br:8080"},
{"url":"http://velocidade.amazoniatelecom.com.br:8080/speedtest/upload.php","lat":"2.8235","lon":"-60.6759","distance":0,"name":"Boa Vista","country":"Brazil","cc":"BR","sponsor":"Amazônia Telecom","id":"22091","preferred":0,"isp_id":"164194","https_functional":1,"host":"velocidade.amazoniatelecom.com.br:8080"},
{"url":"http://speedtest.routinger.com.br:8080/speedtest/upload.php","lat":"-3.8194","lon":"-60.3612","distance":0,"name":"Careiro","country":"Brazil","cc":"BR","sponsor":"Routinger","id":"45199","preferred":0,"isp_id":"228442","https_functional":1,"host":"speedtest.routinger.com.br:8080"},
{"url":"http://ookla.paulonet.srv.br:8080/speedtest/upload.php","lat":"-3.0363","lon":"-59.9855","distance":0,"name":"Cidade Nova","country":"Brazil","cc":"BR","sponsor":"PauloNet - PRM","id":"26057","preferred":0,"isp_id":"192438","https_functional":1,"host":"ookla.paulonet.srv.br.prod.hosts.ooklaserver.net:8080"},
{"url":"http://ookla.speedtestunonet.com.br:8080/speedtest/upload.php","lat":"-7.6280","lon":"-72.6762","distance":0,"name":"Cruzeiro do Sul","country":"Brazil","cc":"BR","sponsor":"UNONET","id":"54070","preferred":0,"isp_id":"193205","https_functional":1,"host":"ookla.speedtestunonet.com.br.prod.hosts.ooklaserver.net:8080"},
{"url":"http://speedtest.omegasul.com.br:8080/speedtest/upload.php","lat":"-7.6280","lon":"-72.6762","distance":0,"name":"Cruzeiro do Sul","country":"Brazil","cc":"BR","sponsor":"Omegasul Telecom","id":"29667","preferred":0,"isp_id":"118283","https_functional":1,"host":"speedtest.omegasul.com.br.prod.hosts.ooklaserver.net:8080"},
{"url":"http://stczs.norteultrafibra.com.br:8080/speedtest/upload.php","lat":"-7.6280","lon":"-72.6762","distance":0,"name":"Cruzeiro do Sul","country":"Brazil","cc":"BR","sponsor":"Norte Fibra","id":"69916","preferred":0,"isp_id":"0","https_functional":1,"host":"stczs.norteultrafibra.com.br:8080"},
{"url":"http://speed.econett.com.br:8080/speedtest/upload.php","lat":"-11.0294","lon":"-68.7409","distance":0,"name":"Epitaciolândia","country":"Brazil","cc":"BR","sponsor":"ECONET-","id":"68667","preferred":0,"isp_id":"203142","https_functional":1,"host":"speed.econett.com.br:8080"},
{"url":"http://velocimetro.govistabr.com.br:8080/speedtest/upload.php","lat":"-11.0294","lon":"-68.7409","distance":0,"name":"Epitaciolândia","country":"Brazil","cc":"BR","sponsor":"GoVistaBR","id":"44381","preferred":0,"isp_id":"203142","host":"velocimetro.govistabr.com.br:8080"},
{"url":"http://speedtest.japanettelecom.com.br:8080/speedtest/upload.php","lat":"-23.4849","lon":"-46.3495","distance":0,"name":"Itaquaquecetuba","country":"Brazil","cc":"BR","sponsor":"JAPANET TELECOM","id":"56562","preferred":0,"isp_id":"223300","https_functional":1,"host":"speedtest.japanettelecom.com.br:8080"},
{"url":"http://speedtest.lanvegas.com.br:8080/speedtest/upload.php","lat":"-7.2637","lon":"-64.7965","distance":0,"name":"Lábrea","country":"Brazil","cc":"BR","sponsor":"LanVegas","id":"74247","preferred":0,"isp_id":"195219","https_functional":1,"host":"speedtest.lanvegas.com.br:8080"},
{"url":"http://2bnetwork.brsserver.com.br:8080/speedtest/upload.php","lat":"-3.1000","lon":"-60.0167","distance":0,"name":"Manaus","country":"Brazil","cc":"BR","sponsor":"2B Network","id":"73645","preferred":0,"isp_id":"327317","https_functional":1,"host":"2bnetwork.brsserver.com.br:8080"},
{"url":"http://fwnetwork.brsserver.com.br:8080/speedtest/upload.php","lat":"-3.1000","lon":"-60.0167","distance":0,"name":"Manaus","country":"Brazil","cc":"BR","sponsor":"Fw Network","id":"70801","preferred":0,"isp_id":"315096","https_functional":1,"host":"fwnetwork.brsserver.com.br:8080"},
{"url":"http://glconnect.brsserver.com.br:8080/speedtest/upload.php","lat":"-3.1000","lon":"-60.0167","distance":0,"name":"Manaus","country":"Brazil","cc":"BR","sponsor":"GLCONNECT","id":"69773","preferred":0,"isp_id":"311783","https_functional":1,"host":"glconnect.brsserver.com.br:8080"},
{"url":"http://lifitelecom.brsserver.com.br:8080/speedtest/upload.php","lat":"-3.1000","lon":"-60.0167","distance":0,"name":"Manaus","country":"Brazil","cc":"BR","sponsor":"LIFI TELECOM","id":"67434","preferred":0,"isp_id":"304105","https_functional":1,"host":"lifitelecom.brsserver.com.br:8080"},
{"url":"http://mns.i-systems.com:8080/speedtest/upload.php","lat":"-3.1000","lon":"-60.0167","distance":0,"name":"Manaus","country":"Brazil","cc":"BR","sponsor":"I-Systems","id":"64565","preferred":0,"isp_id":"299307","https_functional":1,"host":"mns.i-systems.com:8080"},
{"url":"https://ok.conectmastelecom.com.br:8080/speedtest/upload.php","lat":"-3.1000","lon":"-60.0167","distance":0,"name":"Manaus","country":"Brazil","cc":"BR","sponsor":"CONECTMAS Telecom","id":"37188","preferred":0,"isp_id":"219759","https_functional":1,"host":"ok.conectmastelecom.com.br:8080"},
{"url":"http://ookla.amazoniasat-isp.com.br:8080/speedtest/upload.php","lat":"-3.1000","lon":"-60.0167","distance":0,"name":"Manaus","country":"Brazil","cc":"BR","sponsor":"Amazônia Sat","id":"47135","preferred":0,"isp_id":"151261","https_functional":1,"host":"ookla.amazoniasat-isp.com.br.prod.hosts.ooklaserver.net:8080"},
{"url":"http://ookla.araujotelecom.com.br:8080/speedtest/upload.php","lat":"-3.1000","lon":"-60.0167","distance":0,"name":"Manaus","country":"Brazil","cc":"BR","sponsor":"Araujo Telecom","id":"57219","preferred":0,"isp_id":"219759","https_functional":1,"host":"ookla.araujotelecom.com.br.prod.hosts.ooklaserver.net:8080"},
{"url":"http://ookla.fibraleste.com.br:8080/speedtest/upload.php","lat":"-3.1000","lon":"-60.0167","distance":0,"name":"Manaus","country":"Brazil","cc":"BR","sponsor":"Fibra Leste","id":"73680","preferred":0,"isp_id":"130142","https_functional":1,"host":"ookla.fibraleste.com.br:8080"},
{"url":"http://ookla.fullisp.com.br:8080/speedtest/upload.php","lat":"-3.1000","lon":"-60.0167","distance":0,"name":"Manaus","country":"Brazil","cc":"BR","sponsor":"Full Telecom","id":"62310","preferred":0,"isp_id":"19182","https_functional":1,"host":"ookla.fullisp.com.br.prod.hosts.ooklaserver.net:8080"},
{"url":"http://ookla.jgainterlinktelecom.com.br:8080/speedtest/upload.php","lat":"-3.1000","lon":"-60.0167","distance":0,"name":"Manaus","country":"Brazil","cc":"BR","sponsor":"JGA INTER LINK TELECOM LTDA","id":"64271","preferred":0,"isp_id":"206074","https_functional":1,"host":"ookla.jgainterlinktelecom.com.br.prod.hosts.ooklaserver.net:8080"},
{"url":"http://ookla.playmaisreverso.net.br:8080/speedtest/upload.php","lat":"-3.1000","lon":"-60.0167","distance":0,"name":"Manaus","country":"Brazil","cc":"BR","sponsor":"PlayMais Fibra","id":"63156","preferred":0,"isp_id":"284546","https_functional":1,"host":"ookla.playmaisreverso.net.br.prod.hosts.ooklaserver.net:8080"},
{"url":"http://ookla.siditelecom-isp.com.br:8080/speedtest/upload.php","lat":"-3.1000","lon":"-60.0167","distance":0,"name":"Manaus","country":"Brazil","cc":"BR","sponsor":"Sidi Telecom","id":"47570","preferred":0,"isp_id":"193476","https_functional":1,"host":"ookla.siditelecom-isp.com.br.prod.hosts.ooklaserver.net:8080"},
{"url":"http://spd33.claro.com.br:8080/speedtest/upload.php","lat":"-3.1000","lon":"-60.0167","distance":0,"name":"Manaus","country":"Brazil","cc":"BR","sponsor":"Claro Móvel - MNS1","id":"37453","preferred":0,"isp_id":"14791","https_functional":1,"host":"spd33.claro.com.br:8080"},
{"url":"http://spdt.voenetworks.com:8080/speedtest/upload.php","lat":"-3.1190","lon":"-60.0217","distance":0,"name":"Manaus","country":"Brazil","cc":"BR","sponsor":"VOE NETWORKS","id":"72704","preferred":0,"isp_id":"313477","https_functional":1,"host":"spdt.voenetworks.com:8080"},
{"url":"http://speed.amazonett.com.br:8080/speedtest/upload.php","lat":"-3.1000","lon":"-60.0167","distance":0,"name":"Manaus","country":"Brazil","cc":"BR","sponsor":"Amazonet Telecom Ltda","id":"26522","preferred":0,"isp_id":"128217","https_functional":1,"host":"speed.amazonett.com.br:8080"},
{"url":"http://speedam.wsp.net.br:8080/speedtest/upload.php","lat":"-3.1000","lon":"-60.0167","distance":0,"name":"Manaus","country":"Brazil","cc":"BR","sponsor":"WSP FIBRA","id":"59830","preferred":0,"isp_id":"89080","https_functional":1,"host":"speedam.wsp.net.br:8080"},
{"url":"http://speedtest.3dnet.net.br:8080/speedtest/upload.php","lat":"-3.1000","lon":"-60.0167","distance":0,"name":"Manaus","country":"Brazil","cc":"BR","sponsor":"3DNET","id":"72985","preferred":0,"isp_id":"283369","https_functional":1,"host":"speedtest.3dnet.net.br.prod.hosts.ooklaserver.net:8080"},
{"url":"http://speedtest.albatroznetwork.com.br:8080/speedtest/upload.php","lat":"-3.1190","lon":"-60.0217","distance":0,"name":"Manaus","country":"Brazil","cc":"BR","sponsor":"Albatroz Network","id":"56117","preferred":0,"isp_id":"259266","https_functional":1,"host":"speedtest.albatroznetwork.com.br:8080"},
{"url":"http://speedtest.amazonasfiber.com.br:8080/speedtest/upload.php","lat":"-3.1000","lon":"-60.0167","distance":0,"name":"Manaus","country":"Brazil","cc":"BR","sponsor":"AmazonasFiber","id":"73934","preferred":0,"isp_id":"283369","https_functional":1,"host":"speedtest.amazonasfiber.com.br.prod.hosts.ooklaserver.net:8080"},
{"url":"http://speedtest.bemol.com.br:8080/speedtest/upload.php","lat":"-3.1000","lon":"-60.0167","distance":0,"name":"Manaus","country":"Brazil","cc":"BR","sponsor":"BEMOL","id":"74135","preferred":0,"isp_id":"130369","https_functional":1,"host":"speedtest.bemol.com.br:8080"},
{"url":"http://speedtest.fibernetwork.com.br:8080/speedtest/upload.php","lat":"-3.1000","lon":"-60.0167","distance":0,"name":"Manaus","country":"Brazil","cc":"BR","sponsor":"Fiber Network","id":"71451","preferred":0,"isp_id":"0","https_functional":1,"host":"speedtest.fibernetwork.com.br.prod.hosts.ooklaserver.net:8080"},
{"url":"http://speedtest.gabysantos.com.br:8080/speedtest/upload.php","lat":"-3.1000","lon":"-60.0167","distance":0,"name":"Manaus","country":"Brazil","cc":"BR","sponsor":"GABY-SANTOS TELECOM","id":"71337","preferred":0,"isp_id":"323137","https_functional":1,"host":"speedtest.gabysantos.com.br.prod.hosts.ooklaserver.net:8080"},
{"url":"http://speedtest.imais.com.br:8080/speedtest/upload.php","lat":"-3.1000","lon":"-60.0167","distance":0,"name":"Manaus","country":"Brazil","cc":"BR","sponsor":"i_mais","id":"11047","preferred":0,"isp_id":"202053","https_functional":1,"host":"speedtest.imais.com.br.prod.hosts.ooklaserver.net:8080"},
{"url":"http://speedtest.intlink.com.br:8080/speedtest/upload.php","lat":"-3.1000","lon":"-60.0167","distance":0,"name":"Manaus","country":"Brazil","cc":"BR","sponsor":"Intlink","id":"54574","preferred":0,"isp_id":"202053","https_functional":1,"host":"speedtest.intlink.com.br.prod.hosts.ooklaserver.net:8080"},
{"url":"http://speedtest.jetspeed.com.br:8080/speedtest/upload.php","lat":"-3.1000","lon":"-60.0167","distance":0,"name":"Manaus","country":"Brazil","cc":"BR","sponsor":"JETSPEED FIBRA","id":"62857","preferred":0,"isp_id":"305349","https_functional":1,"host":"speedtest.jetspeed.com.br.prod.hosts.ooklaserver.net:8080"},
{"url":"http://speedtest.jvswifi.com.br:8080/speedtest/upload.php","lat":"-3.1000","lon":"-60.0167","distance":0,"name":"Manaus","country":"Brazil","cc":"BR","sponsor":"JVS WIFI","id":"53474","preferred":0,"isp_id":"224189","host":"speedtest.jvswifi.com.br:8080"},
{"url":"http://speedtest.linkamos.com.br:8080/speedtest/upload.php","lat":"-3.1000","lon":"-60.0167","distance":0,"name":"Manaus","country":"Brazil","cc":"BR","sponsor":"LINKAMOS PROVEDOR DE INTERNET","id":"57675","preferred":0,"isp_id":"219759","https_functional":1,"host":"speedtest.linkamos.com.br:8080"},
{"url":"http://speedtest.syscom.manaus.br:8080/speedtest/upload.php","lat":"-3.1000","lon":"-60.0167","distance":0,"name":"Manaus","country":"Brazil","cc":"BR","sponsor":"Syscom Telecom","id":"35189","preferred":0,"isp_id":"228359","https_functional":1,"host":"speedtest.syscom.manaus.br:8080"},
{"url":"http://speedtest.unitelecom.net.br:8080/speedtest/upload.php","lat":"-3.1000","lon":"-60.0167","distance":0,"name":"Manaus","country":"Brazil","cc":"BR","sponsor":"UNITELECOM","id":"43704","preferred":0,"isp_id":"232469","https_functional":1,"host":"speedtest.unitelecom.net.br.prod.hosts.ooklaserver.net:8080"},
{"url":"http://speedtest.wiretelecom.com.br:8080/speedtest/upload.php","lat":"-3.1000","lon":"-60.0167","distance":0,"name":"Manaus","country":"Brazil","cc":"BR","sponsor":"Wire Telecom","id":"71486","preferred":0,"isp_id":"202053","https_functional":1,"host":"speedtest.wiretelecom.com.br.prod.hosts.ooklaserver.net:8080"},
{"url":"http://speedtestam.vtal.net.br:8080/speedtest/upload.php","lat":"-3.1000","lon":"-60.0167","distance":0,"name":"Manaus","country":"Brazil","cc":"BR","sponsor":"Vtal","id":"41076","preferred":0,"isp_id":"243067","https_functional":1,"host":"speedtestam.vtal.net.br.prod.hosts.ooklaserver.net:8080"},
{"url":"http://spetstmns01.timbrasil.com.br:8080/speedtest/upload.php","lat":"-3.1000","lon":"-60.0167","distance":0,"name":"Manaus","country":"Brazil","cc":"BR","sponsor":"TIM Brasil","id":"12562","preferred":0,"isp_id":"105781","host":"spetstmns01.timbrasil.com.br:8080"},
{"url":"http://stest.ultraconnect.com.br:8080/speedtest/upload.php","lat":"-3.1000","lon":"-60.0167","distance":0,"name":"Manaus","country":"Brazil","cc":"BR","sponsor":"ULTRACONNECT","id":"62816","preferred":0,"isp_id":"189997","https_functional":1,"host":"stest.ultraconnect.com.br:8080"},
{"url":"http://teste.diotelecom.com.br:8080/speedtest/upload.php","lat":"-3.1000","lon":"-60.0167","distance":0,"name":"Manaus","country":"Brazil","cc":"BR","sponsor":"Dio Telecom","id":"18981","preferred":0,"isp_id":"193507","https_functional":1,"host":"teste.diotelecom.com.br:8080"},
{"url":"http://teste.jsnet.manaus.br:8080/speedtest/upload.php","lat":"-3.1000","lon":"-60.0167","distance":0,"name":"Manaus","country":"Brazil","cc":"BR","sponsor":"JSNET","id":"55160","preferred":0,"isp_id":"203607","host":"teste.jsnet.manaus.br:8080"},
{"url":"http://teste.linkonfibra.com.br:8080/speedtest/upload.php","lat":"-3.1000","lon":"-60.0167","distance":0,"name":"Manaus","country":"Brazil","cc":"BR","sponsor":"Link ON FIBRA","id":"63090","preferred":0,"isp_id":"294335","https_functional":1,"host":"teste.linkonfibra.com.br:8080"},
{"url":"http://teste.msfibraam.com.br:8080/speedtest/upload.php","lat":"-3.1000","lon":"-60.0167","distance":0,"name":"Manaus","country":"Brazil","cc":"BR","sponsor":"MSFIBRA","id":"71211","preferred":0,"isp_id":"235626","https_functional":1,"host":"teste.msfibraam.com.br:8080"},
{"url":"http://teste.mwhtelecom.com.br:8080/speedtest/upload.php","lat":"-3.1000","lon":"-60.0167","distance":0,"name":"Manaus","country":"Brazil","cc":"BR","sponsor":"MWH FIBRA","id":"62420","preferred":0,"isp_id":"311387","https_functional":1,"host":"teste.mwhtelecom.com.br:8080"},
{"url":"http://speedteste.newsolutionnet.com.br:8080/speedtest/upload.php","lat":"-3.1000","lon":"-60.0167","distance":0,"name":"Manaus","country":"Brazil","cc":"BR","sponsor":"New Solution Net","id":"32474","preferred":0,"isp_id":"201614","host":"teste.newsolutionnet.com.br:8080"},
{"url":"http://teste.reatelecom.com.br:8080/speedtest/upload.php","lat":"-3.1000","lon":"-60.0167","distance":0,"name":"Manaus","country":"Brazil","cc":"BR","sponsor":"R&A Telecom","id":"28117","preferred":0,"isp_id":"175871","https_functional":1,"host":"teste.reatelecom.com.br:8080"},
{"url":"http://teste.redefinitytelecom.com.br:8080/speedtest/upload.php","lat":"-3.1190","lon":"-60.0217","distance":0,"name":"Manaus","country":"Brazil","cc":"BR","sponsor":"FINITY TELECOM","id":"72716","preferred":0,"isp_id":"132024","https_functional":1,"host":"teste.redefinitytelecom.com.br:8080"},
{"url":"http://teste.tstelecomltda.com.br:8080/speedtest/upload.php","lat":"-3.1000","lon":"-60.0167","distance":0,"name":"Manaus","country":"Brazil","cc":"BR","sponsor":"TS TELECOM Ltda","id":"51463","preferred":0,"isp_id":"162548","host":"teste.tstelecomltda.com.br:8080"},
{"url":"http://teste.wsfibra.com.br:8080/speedtest/upload.php","lat":"-3.1000","lon":"-60.0167","distance":0,"name":"Manaus","country":"Brazil","cc":"BR","sponsor":"WS-NET TELECOM","id":"36277","preferred":0,"isp_id":"128196","https_functional":1,"host":"teste.wsfibra.com.br:8080"},
{"url":"http://teste.xtremenet.com.br:8080/speedtest/upload.php","lat":"-3.1000","lon":"-60.0167","distance":0,"name":"Manaus","country":"Brazil","cc":"BR","sponsor":"Xtreme Soluções","id":"53923","preferred":0,"isp_id":"233364","https_functional":1,"host":"teste.xtremenet.com.br:8080"},
{"url":"http://velocidade.csrnetwork.com.br:8080/speedtest/upload.php","lat":"-3.1000","lon":"-60.0167","distance":0,"name":"Manaus","country":"Brazil","cc":"BR","sponsor":"CSRNETWORK","id":"71581","preferred":0,"isp_id":"130142","https_functional":1,"host":"velocidade.csrnetwork.com.br:8080"},
{"url":"http://velocidade.exytelecom.com.br:8080/speedtest/upload.php","lat":"-3.1000","lon":"-60.0167","distance":0,"name":"Manaus","country":"Brazil","cc":"BR","sponsor":"EXY TELECOM","id":"37986","preferred":0,"isp_id":"215942","host":"velocidade.exytelecom.com.br:8080"},
{"url":"http://velocidade.gtmtelecom.com.br:8080/speedtest/upload.php","lat":"-3.1000","lon":"-60.0167","distance":0,"name":"Manaus","country":"Brazil","cc":"BR","sponsor":"GTM TELECOM","id":"73435","preferred":0,"isp_id":"0","https_functional":1,"host":"velocidade.gtmtelecom.com.br:8080"},
{"url":"http://velocidade.idnetttelecom.com.br:8080/speedtest/upload.php","lat":"-3.1000","lon":"-60.0167","distance":0,"name":"Manaus","country":"Brazil","cc":"BR","sponsor":"IDNETT TELECOM","id":"28448","preferred":0,"isp_id":"201171","https_functional":1,"host":"velocidade.idnetttelecom.com.br:8080"},
{"url":"https://velocidade.impertechtelecom.com.br:8080/speedtest/upload.php","lat":"-3.1000","lon":"-60.0167","distance":0,"name":"Manaus","country":"Brazil","cc":"BR","sponsor":"Impertech Telecom","id":"28429","preferred":0,"isp_id":"201877","https_functional":1,"host":"velocidade.impertechtelecom.com.br:8080"},
{"url":"http://velocidade.ip.eti.br:8080/speedtest/upload.php","lat":"-3.1000","lon":"-60.0167","distance":0,"name":"Manaus","country":"Brazil","cc":"BR","sponsor":"IP Fibra","id":"38403","preferred":0,"isp_id":"206074","https_functional":1,"host":"velocidade.ip.eti.br:8080"},
{"url":"http://velocidade.lplink.net.br:8080/speedtest/upload.php","lat":"-3.1000","lon":"-60.0167","distance":0,"name":"Manaus","country":"Brazil","cc":"BR","sponsor":"LP Link","id":"70358","preferred":0,"isp_id":"235626","https_functional":1,"host":"velocidade.lplink.net.br:8080"},
{"url":"http://velocidade.phinfortelecom.com.br:8080/speedtest/upload.php","lat":"-3.1000","lon":"-60.0167","distance":0,"name":"Manaus","country":"Brazil","cc":"BR","sponsor":"PH Telecom","id":"12169","preferred":0,"isp_id":"162548","https_functional":1,"host":"velocidade.phinfortelecom.com.br:8080"},
{"url":"http://velocimetro-mns.virtua.com.br:8080/speedtest/upload.php","lat":"-3.1000","lon":"-60.0167","distance":0,"name":"Manaus","country":"Brazil","cc":"BR","sponsor":"Claro Net Vírtua - MNS","id":"22139","preferred":0,"isp_id":"87729","https_functional":1,"host":"velocimetro-mns.virtua.com.br.prod.hosts.ooklaserver.net:8080"},
{"url":"http://velocimetro-spt.akto.com.br:8080/speedtest/upload.php","lat":"-3.1000","lon":"-60.0167","distance":0,"name":"Manaus","country":"Brazil","cc":"BR","sponsor":"Akto Tecnologia","id":"63417","preferred":0,"isp_id":"131677","https_functional":1,"host":"velocimetro-spt.akto.com.br:8080"},
{"url":"http://velocimetro.proveinter.com.br:8080/speedtest/upload.php","lat":"-3.1000","lon":"-60.0167","distance":0,"name":"Manaus","country":"Brazil","cc":"BR","sponsor":"Proveinter","id":"33584","preferred":0,"isp_id":"113681","https_functional":1,"host":"velocimetro.proveinter.com.br:8080"},
{"url":"http://velocimetro.speednetworks.com.br:8080/speedtest/upload.php","lat":"-3.1000","lon":"-60.0167","distance":0,"name":"Manaus","country":"Brazil","cc":"BR","sponsor":"SpeedNetworks","id":"43375","preferred":0,"isp_id":"128488","https_functional":1,"host":"velocimetro.speednetworks.com.br:8080"},
{"url":"http://speedtest.inovewifi.com.br:8080/speedtest/upload.php","lat":"-7.6135","lon":"-72.9060","distance":0,"name":"Mâncio Lima","country":"Brazil","cc":"BR","sponsor":"INOVE","id":"73031","preferred":0,"isp_id":"203222","https_functional":1,"host":"speedtest.inovewifi.com.br.prod.hosts.ooklaserver.net:8080"},
{"url":"http://speedtest.connectbv8.com.br:8080/speedtest/upload.php","lat":"4.4784","lon":"-61.1483","distance":0,"name":"Pacaraima","country":"Brazil","cc":"BR","sponsor":"Connect","id":"50736","preferred":0,"isp_id":"232840","host":"speedtest.connectbv8.com.br:8080"},
{"url":"http://speedtest.pronetsuaconexao.com:8080/speedtest/upload.php","lat":"4.4784","lon":"-61.1483","distance":0,"name":"Pacaraima","country":"Brazil","cc":"BR","sponsor":"PRONET SUA CONEXAO","id":"72867","preferred":0,"isp_id":"290528","host":"speedtest.pronetsuaconexao.com:8080"},
{"url":"http://velocidade.milaninnet.com.br:8080/speedtest/upload.php","lat":"-21.4197","lon":"-50.0775","distance":0,"name":"Penápolis","country":"Brazil","cc":"BR","sponsor":"MILANINNET","id":"49776","preferred":0,"isp_id":"225564","https_functional":1,"host":"velocidade.milaninnet.com.br.prod.hosts.ooklaserver.net:8080"},
{"url":"http://urbanonet.brsserver.com.br:8080/speedtest/upload.php","lat":"-10.2810","lon":"-67.1377","distance":0,"name":"Plácido de Castro","country":"Brazil","cc":"BR","sponsor":"UrbanoNET Telecom","id":"73544","preferred":0,"isp_id":"308462","https_functional":1,"host":"urbanonet.brsserver.com.br:8080"},
{"url":"http://a-speedtest.brasildigital.net.br:8080/speedtest/upload.php","lat":"-8.7612","lon":"-63.9004","distance":0,"name":"Porto Velho","country":"Brazil","cc":"BR","sponsor":"Brasil Digital","id":"53681","preferred":0,"isp_id":"123835","https_functional":1,"host":"a-speedtest.brasildigital.net.br:8080"},
{"url":"http://souza.linknetspeedtest.net.br:8080/speedtest/upload.php","lat":"-8.7612","lon":"-63.9004","distance":0,"name":"Porto Velho","country":"Brazil","cc":"BR","sponsor":"LinkNet Telecomunicações","id":"57711","preferred":0,"isp_id":"166124","https_functional":1,"host":"souza.linknetspeedtest.net.br:8080"},
{"url":"http://spd53.claro.com.br:8080/speedtest/upload.php","lat":"-8.7612","lon":"-63.9004","distance":0,"name":"Porto Velho","country":"Brazil","cc":"BR","sponsor":"Claro Móvel - PVO2","id":"61495","preferred":0,"isp_id":"14791","https_functional":1,"host":"spd53.claro.com.br:8080"},
{"url":"https://speed.grinternett.com.br:8080/speedtest/upload.php","lat":"-8.7612","lon":"-63.9004","distance":0,"name":"Porto Velho","country":"Brazil","cc":"BR","sponsor":"GR INTERNET","id":"47891","preferred":0,"isp_id":"217983","host":"speed.grinternett.com.br:8080"},
{"url":"http://speedtest.ollatelecom.com.br:8080/speedtest/upload.php","lat":"-8.7612","lon":"-63.9004","distance":0,"name":"Porto Velho","country":"Brazil","cc":"BR","sponsor":"Ollá Telecom","id":"42223","preferred":0,"isp_id":"217983","https_functional":1,"host":"speedtest.ollatelecom.com.br.prod.hosts.ooklaserver.net:8080"},
{"url":"http://speedtest.uptelecom-ro.com.br:8080/speedtest/upload.php","lat":"-8.7612","lon":"-63.9004","distance":0,"name":"Porto Velho","country":"Brazil","cc":"BR","sponsor":"UP Telecom","id":"61254","preferred":0,"isp_id":"199906","host":"speedtest.uptelecom-ro.com.br:8080"},
{"url":"http://speedtestro.vtal.net.br:8080/speedtest/upload.php","lat":"-8.7612","lon":"-63.9004","distance":0,"name":"Porto Velho","country":"Brazil","cc":"BR","sponsor":"Vtal","id":"40765","preferred":0,"isp_id":"243067","https_functional":1,"host":"speedtestro.vtal.net.br.prod.hosts.ooklaserver.net:8080"},
{"url":"http://servidor.speedplay.com.br:8080/speedtest/upload.php","lat":"-2.0533","lon":"-60.0236","distance":0,"name":"Presidente Figueiredo","country":"Brazil","cc":"BR","sponsor":"SPEED INTERNET","id":"59870","preferred":0,"isp_id":"243067","https_functional":1,"host":"servidor.speedplay.com.br:8080"},
{"url":"https://sp01.rbfibra.net.br:8080/speedtest/upload.php","lat":"-9.9754","lon":"-67.8249","distance":0,"name":"Rio Branco","country":"Brazil","cc":"BR","sponsor":"RB Fibra","id":"59449","preferred":0,"isp_id":"262565","https_functional":1,"host":"sp01.rbfibra.net.br:8080"},
{"url":"http://sp1.contilnet.net:8080/speedtest/upload.php","lat":"-9.9754","lon":"-67.8249","distance":0,"name":"Rio Branco","country":"Brazil","cc":"BR","sponsor":"ContilNet Telecom","id":"28595","preferred":0,"isp_id":"189612","host":"sp1.contilnet.net:8080"},
{"url":"http://spd49.claro.com.br:8080/speedtest/upload.php","lat":"-9.9754","lon":"-67.8249","distance":0,"name":"Rio Branco","country":"Brazil","cc":"BR","sponsor":"Claro Móvel - RBO2","id":"61411","preferred":0,"isp_id":"14791","https_functional":1,"host":"spd49.claro.com.br:8080"},
{"url":"http://speedtestac.vtal.net.br:8080/speedtest/upload.php","lat":"-9.9754","lon":"-67.8249","distance":0,"name":"Rio Branco","country":"Brazil","cc":"BR","sponsor":"Vtal","id":"40463","preferred":0,"isp_id":"243067","https_functional":1,"host":"speedtestac.vtal.net.br.prod.hosts.ooklaserver.net:8080"},
{"url":"http://test.beamtelecom.com.br:8080/speedtest/upload.php","lat":"-9.9740","lon":"-67.8098","distance":0,"name":"Rio Branco","country":"Brazil","cc":"BR","sponsor":"BEAM TELECOM","id":"59710","preferred":0,"isp_id":"223257","https_functional":1,"host":"test.beamtelecom.com.br:8080"},
{"url":"http://velocimetro-rbo.virtua.com.br:8080/speedtest/upload.php","lat":"-9.9754","lon":"-67.8249","distance":0,"name":"Rio Branco","country":"Brazil","cc":"BR","sponsor":"Claro Net Vírtua - RBO","id":"21861","preferred":0,"isp_id":"87729","https_functional":1,"host":"velocimetro-rbo.virtua.com.br.prod.hosts.ooklaserver.net:8080"},
{"url":"http://speedtestsgc.csmtelecom.net.br:8080/speedtest/upload.php","lat":"-0.1308","lon":"-67.0877","distance":0,"name":"São Gabriel da Cachoeira","country":"Brazil","cc":"BR","sponsor":"CSM TELECOM","id":"72045","preferred":0,"isp_id":"0","https_functional":1,"host":"speedtestsgc.csmtelecom.net.br:8080"},
{"url":"http://sof.speedtest.gslnetworks.com:8080/speedtest/upload.php","lat":"42.6951","lon":"23.3250","distance":0,"name":"Sofia","country":"Bulgaria","cc":"BG","sponsor":"GSL Networks","id":"65090","preferred":0,"isp_id":"241570","https_functional":1,"host":"sof.speedtest.gslnetworks.com.prod.hosts.ooklaserver.net:8080"},
{"url":"http://speedtest3.westmancom.com:8080/speedtest/upload.php","lat":"49.8333","lon":"-99.9500","distance":0,"name":"Brandon, MB","country":"Canada","cc":"CA","sponsor":"Westman Communications Group","id":"52510","preferred":0,"isp_id":"0","https_functional":1,"host":"speedtest3.westmancom.com.prod.hosts.ooklaserver.net:8080"},
{"url":"http://speedtest.eidnet.org:8080/speedtest/upload.php","lat":"50.5657","lon":"-111.8978","distance":0,"name":"Brooks, AB","country":"Canada","cc":"CA","sponsor":"EIDNet","id":"28824","preferred":0,"isp_id":"40152","https_functional":1,"host":"speedtest.eidnet.org:8080"},
{"url":"http://calgary.speedtest.telus.com:8080/speedtest/upload.php","lat":"51.0450","lon":"-114.0572","distance":0,"name":"Calgary, AB","country":"Canada","cc":"CA","sponsor":"TELUS","id":"4392","preferred":0,"isp_id":"256720","https_functional":1,"host":"calgary.speedtest.telus.com.prod.hosts.ooklaserver.net:8080"},
{"url":"http://calgary2.speedtest.telus.com:8080/speedtest/upload.php","lat":"51.0486","lon":"-114.0708","distance":0,"name":"Calgary, AB","country":"Canada","cc":"CA","sponsor":"TELUS Mobility","id":"17555","preferred":0,"isp_id":"256720","https_functional":1,"host":"calgary2.speedtest.telus.com.prod.hosts.ooklaserver.net:8080"},
{"url":"http://clgqaspd01.srvr.bell.ca:8080/speedtest/upload.php","lat":"51.0452","lon":"-114.0630","distance":0,"name":"Calgary, AB","country":"Canada","cc":"CA","sponsor":"Bell Mobility","id":"17399","preferred":0,"isp_id":"0","https_functional":1,"host":"clgqaspd01.srvr.bell.ca.prod.hosts.ooklaserver.net:8080"},
{"url":"http://speedtest.cg.shawcable.net:8080/speedtest/upload.php","lat":"51.0450","lon":"-114.0572","distance":0,"name":"Calgary, AB","country":"Canada","cc":"CA","sponsor":"Shaw Communications","id":"4207","preferred":0,"isp_id":"164","https_functional":1,"host":"speedtest.cg.shawcable.net:8080"},
{"url":"http://speedtest.itel.com:8080/upload.php","lat":"51.0447","lon":"-114.0719","distance":0,"name":"Calgary, AB","country":"Canada","cc":"CA","sponsor":"iTel.com (iTel Networks Inc)","id":"28801","preferred":0,"isp_id":"77831","https_functional":1,"host":"speedtest.itel.com:8080"},
{"url":"http://stcalgarywireless.rogers.com:8080/speedtest/upload.php","lat":"51.0450","lon":"-114.0572","distance":0,"name":"Calgary, AB","country":"Canada","cc":"CA","sponsor":"Rogers Wireless","id":"46407","preferred":0,"isp_id":"164","https_functional":1,"host":"stcalgarywireless.rogers.com:8080"},
{"url":"http://yyc-speedtest.xplore.ca:8080/speedtest/upload.php","lat":"51.0450","lon":"-114.0572","distance":0,"name":"Calgary, AB","country":"Canada","cc":"CA","sponsor":"Xplore Inc.","id":"55080","preferred":0,"isp_id":"70988","https_functional":1,"host":"yyc-speedtest.xplore.ca.prod.hosts.ooklaserver.net:8080"},
{"url":"http://speed.mpvnetworks.com:8080/speedtest/upload.php","lat":"42.4048","lon":"-82.1910","distance":0,"name":"Chatham, ON","country":"Canada","cc":"CA","sponsor":"MPVWIFI","id":"47304","preferred":0,"isp_id":"208551","https_functional":1,"host":"speed.mpvnetworks.com.prod.hosts.ooklaserver.net:8080"},
{"url":"http://speedtest-tek.teksavvy.com:8080/speedtest/upload.php","lat":"42.4048","lon":"-82.1910","distance":0,"name":"Chatham, ON","country":"Canada","cc":"CA","sponsor":"Teksavvy Solutions Inc.","id":"47750","preferred":0,"isp_id":"2324","host":"speedtest-tek.teksavvy.com:8080"},
{"url":"http://stchathamwireless.rogers.com:8080/speedtest/upload.php","lat":"42.4048","lon":"-82.1910","distance":0,"name":"Chatham, ON","country":"Canada","cc":"CA","sponsor":"Rogers Wireless","id":"47344","preferred":0,"isp_id":"164","https_functional":1,"host":"stchathamwireless.rogers.com:8080"},
{"url":"http://speedtest.gosfieldtel.ca:8080/speedtest/upload.php","lat":"42.1330","lon":"-82.7500","distance":0,"name":"Cottam, ON","country":"Canada","cc":"CA","sponsor":"Gosfield North Communications","id":"11505","preferred":0,"isp_id":"62744","https_functional":1,"host":"speedtest.gosfieldtel.ca.prod.hosts.ooklaserver.net:8080"},
{"url":"http://sp1.basinbroadband.ca:8080/speedtest/upload.php","lat":"49.5136","lon":"-115.7686","distance":0,"name":"Cranbrook, BC","country":"Canada","cc":"CA","sponsor":"Columbia Basin Broadband Corporation","id":"4686","preferred":0,"isp_id":"97829","https_functional":1,"host":"sp1.basinbroadband.ca.prod.hosts.ooklaserver.net:8080"},
{"url":"http://speedtest.deltacable.com:8080/speedtest/upload.php","lat":"49.0902","lon":"-123.0652","distance":0,"name":"Delta, BC","country":"Canada","cc":"CA","sponsor":"Eastlink","id":"22154","preferred":0,"isp_id":"19734","https_functional":1,"host":"speedtest.deltacable.com.prod.hosts.ooklaserver.net:8080"},
{"url":"http://mobilityooklaedmonton.srvr.bell.ca:8080/speedtest/upload.php","lat":"53.5461","lon":"-113.4938","distance":0,"name":"Edmonton, AB","country":"Canada","cc":"CA","sponsor":"Bell Mobility","id":"15314","preferred":0,"isp_id":"0","https_functional":1,"host":"mobilityooklaedmonton.srvr.bell.ca.prod.hosts.ooklaserver.net:8080"},
{"url":"http://speedtest.ed.shawcable.net:8080/speedtest/upload.php","lat":"53.5472","lon":"-113.5006","distance":0,"name":"Edmonton, AB","country":"Canada","cc":"CA","sponsor":"Shaw Communications","id":"4242","preferred":0,"isp_id":"164","https_functional":1,"host":"speedtest.ed.shawcable.net:8080"},
{"url":"http://speedtest.epl.ca:8080/speedtest/upload.php","lat":"53.5444","lon":"-113.4909","distance":0,"name":"Edmonton, AB","country":"Canada","cc":"CA","sponsor":"EPL","id":"21236","preferred":0,"isp_id":"8278","https_functional":1,"host":"speedtest.epl.ca.prod.hosts.ooklaserver.net:8080"},
{"url":"http://speedtest.switch.ca:8080/speedtest/upload.php","lat":"53.5472","lon":"-113.5006","distance":0,"name":"Edmonton, AB","country":"Canada","cc":"CA","sponsor":"Switch Inc.","id":"15736","preferred":0,"isp_id":"212863","https_functional":1,"host":"speedtest.switch.ca.prod.hosts.ooklaserver.net:8080"},
{"url":"http://speedtest1.cfoc.tech:8080/speedtest/upload.php","lat":"53.5472","lon":"-113.5006","distance":0,"name":"Edmonton, AB","country":"Canada","cc":"CA","sponsor":"Canadian Fiber Optics","id":"60609","preferred":0,"isp_id":"210702","https_functional":1,"host":"speedtest1.cfoc.tech.prod.hosts.ooklaserver.net:8080"},
{"url":"http://stedmontonwireless.rogers.com:8080/speedtest/upload.php","lat":"53.5472","lon":"-113.5006","distance":0,"name":"Edmonton, AB","country":"Canada","cc":"CA","sponsor":"Rogers Wireless","id":"46411","preferred":0,"isp_id":"164","https_functional":1,"host":"stedmontonwireless.rogers.com:8080"},
{"url":"http://wirelinespeedtestwinnipeg01.srvr.bell.ca:8080/speedtest/upload.php","lat":"49.8853","lon":"-97.1291","distance":0,"name":"Fort Rouge, MB","country":"Canada","cc":"CA","sponsor":"Bell MTS","id":"59432","preferred":0,"isp_id":"207577","https_functional":1,"host":"wirelinespeedtestwinnipeg01.srvr.bell.ca.prod.hosts.ooklaserver.net:8080"},
{"url":"http://speedtest.brooketel.coop:8080/speedtest/upload.php","lat":"42.8180","lon":"-81.9825","distance":0,"name":"Inwood, ON","country":"Canada","cc":"CA","sponsor":"Brooke Telecom Co-Operative Inc.","id":"55213","preferred":0,"isp_id":"228980","https_functional":1,"host":"speedtest.brooketel.coop.prod.hosts.ooklaserver.net:8080"},
{"url":"http://kmlpbcnu-speedtest-01.telus.com:8080/speedtest/upload.php","lat":"50.6745","lon":"-120.3273","distance":0,"name":"Kamloops, BC","country":"Canada","cc":"CA","sponsor":"TELUS","id":"14016","preferred":0,"isp_id":"256720","https_functional":1,"host":"kmlpbcnu-speedtest-01.telus.com.prod.hosts.ooklaserver.net:8080"},
{"url":"http://mobilityooklakamloops.srvr.bell.ca:8080/speedtest/upload.php","lat":"50.6745","lon":"-120.3273","distance":0,"name":"Kamloops, BC","country":"Canada","cc":"CA","sponsor":"Bell Mobility","id":"57731","preferred":0,"isp_id":"0","https_functional":1,"host":"mobilityooklakamloops.srvr.bell.ca.prod.hosts.ooklaserver.net:8080"},
{"url":"http://speedtest.ok.shawcable.net:8080/speedtest/upload.php","lat":"49.8988","lon":"-119.4097","distance":0,"name":"Kelowna, BC","country":"Canada","cc":"CA","sponsor":"Shaw Communications","id":"4241","preferred":0,"isp_id":"164","https_functional":1,"host":"speedtest.ok.shawcable.net:8080"},
{"url":"http://speedtest.provisiondata.net:8080/speedtest/upload.php","lat":"49.8988","lon":"-119.4097","distance":0,"name":"Kelowna, BC","country":"Canada","cc":"CA","sponsor":"Provision Data Systems Inc","id":"34825","preferred":0,"isp_id":"106081","https_functional":1,"host":"speedtest.provisiondata.net.prod.hosts.ooklaserver.net:8080"},
{"url":"http://stkelownawireless.rogers.com:8080/speedtest/upload.php","lat":"49.8988","lon":"-119.4097","distance":0,"name":"Kelowna, BC","country":"Canada","cc":"CA","sponsor":"Rogers Wireless","id":"46408","preferred":0,"isp_id":"164","https_functional":1,"host":"stkelownawireless.rogers.com:8080"},
{"url":"http://speedtest.quadro.net:8080/speedtest/upload.php","lat":"43.3236","lon":"-81.3133","distance":0,"name":"Kirkton, ON","country":"Canada","cc":"CA","sponsor":"Quadro Communications","id":"54243","preferred":0,"isp_id":"66304","https_functional":1,"host":"speedtest.quadro.net:8080"},
{"url":"http://speedtest2.valleyfiber.ca:8080/speedtest/upload.php","lat":"49.5025","lon":"-96.8726","distance":0,"name":"Kleefeld, MB","country":"Canada","cc":"CA","sponsor":"Valley Fiber","id":"53537","preferred":0,"isp_id":"160317","https_functional":1,"host":"speedtest2.valleyfiber.ca.prod.hosts.ooklaserver.net:8080"},
{"url":"http://stleamingtonwireless.rogers.com:8080/speedtest/upload.php","lat":"42.0532","lon":"-82.5999","distance":0,"name":"Leamington, ON","country":"Canada","cc":"CA","sponsor":"Rogers Wireless","id":"47350","preferred":0,"isp_id":"164","https_functional":1,"host":"stleamingtonwireless.rogers.com:8080"},
{"url":"http://ldc01-speedtest.whipcord.com:8080/speedtest/upload.php","lat":"49.6956","lon":"-112.8451","distance":0,"name":"Lethbridge, AB","country":"Canada","cc":"CA","sponsor":"Whipcord Edge Data Centres","id":"69635","preferred":0,"isp_id":"112588","https_functional":1,"host":"ldc01-speedtest.whipcord.com.prod.hosts.ooklaserver.net:8080"},
{"url":"http://stlethbridgewireless.rogers.com:8080/speedtest/upload.php","lat":"49.6956","lon":"-112.8451","distance":0,"name":"Lethbridge, AB","country":"Canada","cc":"CA","sponsor":"Rogers Wireless","id":"46414","preferred":0,"isp_id":"164","https_functional":1,"host":"stlethbridgewireless.rogers.com:8080"},
{"url":"http://speedtest-london.start.ca:8080/speedtest/upload.php","lat":"42.9837","lon":"-81.2497","distance":0,"name":"London, ON","country":"Canada","cc":"CA","sponsor":"Start.ca","id":"24930","preferred":0,"isp_id":"16391","https_functional":1,"host":"speedtest-london.start.ca.prod.hosts.ooklaserver.net:8080"},
{"url":"http://speedtest.nftctelecom.net:8080/speedtest/upload.php","lat":"42.9849","lon":"-81.2453","distance":0,"name":"London, ON","country":"Canada","cc":"CA","sponsor":"NFTC Telecom","id":"14068","preferred":0,"isp_id":"106124","https_functional":1,"host":"speedtest.nftctelecom.net.prod.hosts.ooklaserver.net:8080"},
{"url":"http://stlondon.netcrawler.ca:8080/speedtest/upload.php","lat":"42.9849","lon":"-81.2453","distance":0,"name":"London, ON","country":"Canada","cc":"CA","sponsor":"Netcrawler.ca Internet","id":"54253","preferred":0,"isp_id":"226932","https_functional":1,"host":"stlondon.netcrawler.ca.prod.hosts.ooklaserver.net:8080"},
{"url":"http://stlondon.rogers.com:8080/speedtest/upload.php","lat":"42.9849","lon":"-81.2453","distance":0,"name":"London, ON","country":"Canada","cc":"CA","sponsor":"Rogers","id":"46149","preferred":0,"isp_id":"164","https_functional":1,"host":"stlondon.rogers.com:8080"},
{"url":"http://stlondonwireless.rogers.com:8080/speedtest/upload.php","lat":"42.9849","lon":"-81.2453","distance":0,"name":"London, ON","country":"Canada","cc":"CA","sponsor":"Rogers Wireless","id":"46137","preferred":0,"isp_id":"164","https_functional":1,"host":"stlondonwireless.rogers.com:8080"},
{"url":"http://wirelinespeedtestlondon.srvr.bell.ca:8080/speedtest/upload.php","lat":"42.9849","lon":"-81.2453","distance":0,"name":"London, ON","country":"Canada","cc":"CA","sponsor":"Bell Canada","id":"57695","preferred":0,"isp_id":"254596","https_functional":1,"host":"wirelinespeedtestlondon.srvr.bell.ca.prod.hosts.ooklaserver.net:8080"},
{"url":"http://ookla.mtt.as6453.net:8080/speedtest/upload.php","lat":"45.5019","lon":"-73.5674","distance":0,"name":"Montreal, QC","country":"Canada","cc":"CA","sponsor":"Tata Communications","id":"73620","preferred":0,"isp_id":"310556","https_functional":1,"host":"ookla.mtt.as6453.net.prod.hosts.ooklaserver.net:8080"},
{"url":"http://speedtest-mtl.beanfield.com:8080/speedtest/upload.php","lat":"45.5017","lon":"-73.5673","distance":0,"name":"Montreal, QC","country":"Canada","cc":"CA","sponsor":"Beanfield","id":"16045","preferred":0,"isp_id":"4966","https_functional":1,"host":"speedtest-mtl.beanfield.com.prod.hosts.ooklaserver.net:8080"},
{"url":"http://speedtest.cdmsfirst.com:8080/speedtest/upload.php","lat":"45.5017","lon":"-73.5673","distance":0,"name":"Montreal, QC","country":"Canada","cc":"CA","sponsor":"CDMS","id":"63155","preferred":0,"isp_id":"324987","host":"speedtest.cdmsfirst.com:8080"},
{"url":"http://speedtest.xcdtelecom.com:8080/speedtest/upload.php","lat":"45.5017","lon":"-73.5673","distance":0,"name":"Montreal, QC","country":"Canada","cc":"CA","sponsor":"XCD Télécom","id":"59219","preferred":0,"isp_id":"204334","https_functional":1,"host":"speedtest.xcdtelecom.com.prod.hosts.ooklaserver.net:8080"},
{"url":"http://stmontreal.netcrawler.ca:8080/speedtest/upload.php","lat":"45.5019","lon":"-73.5674","distance":0,"name":"Montreal, QC","country":"Canada","cc":"CA","sponsor":"Netcrawler.ca Internet","id":"64420","preferred":0,"isp_id":"226932","https_functional":1,"host":"stmontreal.netcrawler.ca.prod.hosts.ooklaserver.net:8080"},
{"url":"http://stnanaimowireless.rogers.com:8080/speedtest/upload.php","lat":"49.1659","lon":"-123.9401","distance":0,"name":"Nanaimo, BC","country":"Canada","cc":"CA","sponsor":"Rogers Wireless","id":"46413","preferred":0,"isp_id":"164","https_functional":1,"host":"stnanaimowireless.rogers.com:8080"},
{"url":"http://speedtest01.o-net.ca:8080/speedtest/upload.php","lat":"51.7920","lon":"-114.1052","distance":0,"name":"Olds, AB","country":"Canada","cc":"CA","sponsor":"O-NET","id":"31362","preferred":0,"isp_id":"99444","host":"speedtest01.o-net.ca:8080"},
{"url":"http://speedtest.pr.citywest.ca:8080/speedtest/upload.php","lat":"54.3122","lon":"-130.3272","distance":0,"name":"Prince Rupert, BC","country":"Canada","cc":"CA","sponsor":"CityWest","id":"577","preferred":0,"isp_id":"4198","https_functional":1,"host":"speedtest.pr.citywest.ca.prod.hosts.ooklaserver.net:8080"},
{"url":"http://streddeerwireless.rogers.com:8080/speedtest/upload.php","lat":"52.2690","lon":"-113.8116","distance":0,"name":"Red Deer, AB","country":"Canada","cc":"CA","sponsor":"Rogers Wireless","id":"46415","preferred":0,"isp_id":"164","https_functional":1,"host":"streddeerwireless.rogers.com:8080"},
{"url":"http://mobilityooklaregina.srvr.bell.ca:8080/speedtest/upload.php","lat":"50.4547","lon":"-104.6067","distance":0,"name":"Regina, SK","country":"Canada","cc":"CA","sponsor":"Bell Mobility","id":"52400","preferred":0,"isp_id":"0","https_functional":1,"host":"mobilityooklaregina.srvr.bell.ca.prod.hosts.ooklaserver.net:8080"},
{"url":"http://speedtest.myaccess.ca:8080/speedtest/upload.php","lat":"50.4547","lon":"-104.6067","distance":0,"name":"Regina, SK","country":"Canada","cc":"CA","sponsor":"Access Communications Ltd.","id":"20283","preferred":0,"isp_id":"42982","https_functional":1,"host":"speedtest.myaccess.ca:8080"},
{"url":"http://speedtest.wrinternet.com:8080/speedtest/upload.php","lat":"50.4547","lon":"-104.6067","distance":0,"name":"Regina, SK","country":"Canada","cc":"CA","sponsor":"Wood River Internet","id":"70571","preferred":0,"isp_id":"292846","https_functional":1,"host":"speedtest.wrinternet.com.prod.hosts.ooklaserver.net:8080"},
{"url":"http://speedtesthost.sasknet.sk.ca:8080/speedtest/upload.php","lat":"50.4547","lon":"-104.6067","distance":0,"name":"Regina, SK","country":"Canada","cc":"CA","sponsor":"SaskTel","id":"4198","preferred":0,"isp_id":"431","https_functional":1,"host":"speedtesthost.sasknet.sk.ca.prod.hosts.ooklaserver.net:8080"},
{"url":"http://speedtest2.hurontel.on.ca:8080/speedtest/upload.php","lat":"44.0688","lon":"-81.5914","distance":0,"name":"Ripley, ON","country":"Canada","cc":"CA","sponsor":"Huron Telecommuncations Co-operative Ltd","id":"55524","preferred":0,"isp_id":"37709","https_functional":1,"host":"speedtest2.hurontel.on.ca.prod.hosts.ooklaserver.net:8080"},
{"url":"http://speedtest.hytekcomputers.com:8080/speedtest/upload.php","lat":"52.3753","lon":"-114.9217","distance":0,"name":"Rocky Mountain House, AB","country":"Canada","cc":"CA","sponsor":"Hy-Tek Computers","id":"8092","preferred":0,"isp_id":"116281","https_functional":1,"host":"speedtest.hytekcomputers.com.prod.hosts.ooklaserver.net:8080"},
{"url":"http://speedtest.45networks.ca:8080/speedtest/upload.php","lat":"50.6683","lon":"-100.8109","distance":0,"name":"Rossburn, MB","country":"Canada","cc":"CA","sponsor":"45 Networks Inc.","id":"40940","preferred":0,"isp_id":"282731","https_functional":1,"host":"speedtest.45networks.ca.prod.hosts.ooklaserver.net:8080"},
{"url":"http://stsarniawireless.rogers.com:8080/speedtest/upload.php","lat":"42.9745","lon":"-82.4066","distance":0,"name":"Sarnia, ON","country":"Canada","cc":"CA","sponsor":"Rogers Wireless","id":"46128","preferred":0,"isp_id":"164","https_functional":1,"host":"stsarniawireless.rogers.com:8080"},
{"url":"http://speedtest.blacksun.ca:8080/speedtest/upload.php","lat":"52.1397","lon":"-106.6861","distance":0,"name":"Saskatoon, SK","country":"Canada","cc":"CA","sponsor":"MSP Corp.","id":"1502","preferred":0,"isp_id":"112582","https_functional":1,"host":"speedtest.blacksun.ca.prod.hosts.ooklaserver.net:8080"},
{"url":"http://speedtest.redbirdcommunications.ca:8080/speedtest/upload.php","lat":"52.1397","lon":"-106.6861","distance":0,"name":"Saskatoon, SK","country":"Canada","cc":"CA","sponsor":"FlexNetworks","id":"59276","preferred":0,"isp_id":"163636","https_functional":1,"host":"speedtest.redbirdcommunications.ca.prod.hosts.ooklaserver.net:8080"},
{"url":"http://speedtest3.sasknet.sk.ca:8080/speedtest/upload.php","lat":"52.1579","lon":"-106.6702","distance":0,"name":"Saskatoon, SK","country":"Canada","cc":"CA","sponsor":"SaskTel","id":"35521","preferred":0,"isp_id":"431","https_functional":1,"host":"speedtest3.sasknet.sk.ca.prod.hosts.ooklaserver.net:8080"},
{"url":"http://stsaultstemariewireless.rogers.com:8080/speedtest/upload.php","lat":"46.5136","lon":"-84.3358","distance":0,"name":"Sault Ste. Marie, ON","country":"Canada","cc":"CA","sponsor":"Rogers Wireless","id":"47340","preferred":0,"isp_id":"164","https_functional":1,"host":"stsaultstemariewireless.rogers.com:8080"},
{"url":"http://ststthomas.rogers.com:8080/speedtest/upload.php","lat":"42.7777","lon":"-81.1827","distance":0,"name":"St. Thomas, ON","country":"Canada","cc":"CA","sponsor":"Rogers","id":"47542","preferred":0,"isp_id":"164","https_functional":1,"host":"ststthomas.rogers.com:8080"},
{"url":"http://ststthomaswireless.rogers.com:8080/speedtest/upload.php","lat":"42.7777","lon":"-81.1827","distance":0,"name":"St. Thomas, ON","country":"Canada","cc":"CA","sponsor":"Rogers Wireless","id":"47346","preferred":0,"isp_id":"164","https_functional":1,"host":"ststthomaswireless.rogers.com:8080"},
{"url":"http://wirelinespeedteststthomas.srvr.bell.ca:8080/speedtest/upload.php","lat":"42.7777","lon":"-81.1827","distance":0,"name":"St. Thomas, ON","country":"Canada","cc":"CA","sponsor":"Bell Canada","id":"43553","preferred":0,"isp_id":"0","https_functional":1,"host":"wirelinespeedteststthomas.srvr.bell.ca.prod.hosts.ooklaserver.net:8080"},
{"url":"http://speed1.myascend.ca:8080/speedtest/upload.php","lat":"49.5303","lon":"-96.6912","distance":0,"name":"Steinbach, MB","country":"Canada","cc":"CA","sponsor":"Ascend Communications","id":"67432","preferred":0,"isp_id":"17335","https_functional":1,"host":"speed1.myascend.ca.prod.hosts.ooklaserver.net:8080"},
{"url":"http://mobilityooklasurrey.srvr.bell.ca:8080/speedtest/upload.php","lat":"49.1913","lon":"-122.8490","distance":0,"name":"Surrey, BC","country":"Canada","cc":"CA","sponsor":"Bell Mobility","id":"25627","preferred":0,"isp_id":"0","https_functional":1,"host":"mobilityooklasurrey.srvr.bell.ca.prod.hosts.ooklaserver.net:8080"},
{"url":"http://stsurreywireless.rogers.com:8080/speedtest/upload.php","lat":"49.1913","lon":"-122.8490","distance":0,"name":"Surrey, BC","country":"Canada","cc":"CA","sponsor":"Rogers Wireless","id":"46410","preferred":0,"isp_id":"164","https_functional":1,"host":"stsurreywireless.rogers.com:8080"},
{"url":"http://wirelinespeedtesttecumseh.srvr.bell.ca:8080/speedtest/upload.php","lat":"42.3118","lon":"-82.8858","distance":0,"name":"Tecumseh, ON","country":"Canada","cc":"CA","sponsor":"Bell Canada","id":"46799","preferred":0,"isp_id":"0","https_functional":1,"host":"wirelinespeedtesttecumseh.srvr.bell.ca.prod.hosts.ooklaserver.net:8080"},
{"url":"http://speedtest.te.citywest.ca:8080/speedtest/upload.php","lat":"54.5165","lon":"-128.5997","distance":0,"name":"Terrace, BC","country":"Canada","cc":"CA","sponsor":"CityWest","id":"4443","preferred":0,"isp_id":"4198","https_functional":1,"host":"speedtest.te.citywest.ca.prod.hosts.ooklaserver.net:8080"},
{"url":"http://mobilityooklathunderbay.srvr.bell.ca:8080/speedtest/upload.php","lat":"48.3809","lon":"-89.2477","distance":0,"name":"Thunder Bay, ON","country":"Canada","cc":"CA","sponsor":"Bell Mobility","id":"3905","preferred":0,"isp_id":"0","https_functional":1,"host":"mobilityooklathunderbay.srvr.bell.ca.prod.hosts.ooklaserver.net:8080"},
{"url":"http://st1.tbaytel.net:8080/speedtest/upload.php","lat":"48.3809","lon":"-89.2477","distance":0,"name":"Thunder Bay, ON","country":"Canada","cc":"CA","sponsor":"Tbaytel","id":"10300","preferred":0,"isp_id":"24255","https_functional":1,"host":"st1.tbaytel.net.prod.hosts.ooklaserver.net:8080"},
{"url":"http://stthunderbaywireless.rogers.com:8080/speedtest/upload.php","lat":"48.3809","lon":"-89.2477","distance":0,"name":"Thunder Bay, ON","country":"Canada","cc":"CA","sponsor":"Rogers Wireless","id":"47331","preferred":0,"isp_id":"164","https_functional":1,"host":"stthunderbaywireless.rogers.com:8080"},
{"url":"http://east-speedtest.frontiernetworks.ca:8080/speedtest/upload.php","lat":"43.6481","lon":"-79.4042","distance":0,"name":"Toronto, ON","country":"Canada","cc":"CA","sponsor":"Frontier Networks Inc","id":"13238","preferred":0,"isp_id":"47813","https_functional":1,"host":"east-speedtest.frontiernetworks.ca.prod.hosts.ooklaserver.net:8080"},
{"url":"http://falcon.its.utoronto.ca:8080/speedtest/upload.php","lat":"43.6481","lon":"-79.4042","distance":0,"name":"Toronto, ON","country":"Canada","cc":"CA","sponsor":"University of Toronto","id":"22138","preferred":0,"isp_id":"680","https_functional":1,"host":"falcon.its.utoronto.ca:8080"},
{"url":"http://lg-tor.fdcservers.net:8080/speedtest/upload.php","lat":"43.6481","lon":"-79.4042","distance":0,"name":"Toronto, ON","country":"Canada","cc":"CA","sponsor":"fdcservers.net","id":"9911","preferred":0,"isp_id":"27716","https_functional":1,"host":"lg-tor.fdcservers.net:8080"},
{"url":"http://spdtst.xenyth.net:8080/speedtest/upload.php","lat":"43.6481","lon":"-79.4042","distance":0,"name":"Toronto, ON","country":"Canada","cc":"CA","sponsor":"GoCodeIT Inc","id":"38242","preferred":0,"isp_id":"199478","https_functional":1,"host":"spdtst.xenyth.net.prod.hosts.ooklaserver.net:8080"},
{"url":"http://speed.toronto.telmax.ca:8080/speedtest/upload.php","lat":"43.6481","lon":"-79.4042","distance":0,"name":"Toronto, ON","country":"Canada","cc":"CA","sponsor":"telMAX","id":"74035","preferred":0,"isp_id":"174443","https_functional":1,"host":"speed.toronto.telmax.ca.prod.hosts.ooklaserver.net:8080"},
{"url":"http://speedtest-engine.primus.ca/speedtest/upload.php","lat":"43.6487","lon":"-79.3854","distance":0,"name":"Toronto, ON","country":"Canada","cc":"CA","sponsor":"Primus","id":"15038","preferred":0,"isp_id":"861","https_functional":1,"host":"speedtest-engine.primus.ca.prod.hosts.ooklaserver.net:8080"},
{"url":"http://speedtest-tor.beanfield.com:8080/speedtest/upload.php","lat":"43.6481","lon":"-79.4042","distance":0,"name":"Toronto, ON","country":"Canada","cc":"CA","sponsor":"Beanfield","id":"64882","preferred":0,"isp_id":"4966","https_functional":1,"host":"speedtest-tor.beanfield.com.prod.hosts.ooklaserver.net:8080"},
{"url":"http://speedtest.ca-tr.kamatera.com:8080/speedtest/upload.php","lat":"43.6481","lon":"-79.4042","distance":0,"name":"Toronto, ON","country":"Canada","cc":"CA","sponsor":"KamaTera, Inc.","id":"69754","preferred":0,"isp_id":"177546","https_functional":1,"host":"speedtest.ca-tr.kamatera.com.prod.hosts.ooklaserver.net:8080"},
{"url":"http://speedtest.netcrawler.ca:8080/speedtest/upload.php","lat":"43.6481","lon":"-79.4042","distance":0,"name":"Toronto, ON","country":"Canada","cc":"CA","sponsor":"Netcrawler.ca Internet","id":"46580","preferred":0,"isp_id":"226932","https_functional":1,"host":"speedtest.netcrawler.ca.prod.hosts.ooklaserver.net:8080"},
{"url":"http://speedtest.nexicom.net:8080/speedtest/upload.php","lat":"43.6481","lon":"-79.4042","distance":0,"name":"Toronto, ON","country":"Canada","cc":"CA","sponsor":"Nexicom Inc.","id":"826","preferred":0,"isp_id":"768","https_functional":1,"host":"speedtest.nexicom.net.prod.hosts.ooklaserver.net:8080"},
{"url":"http://speedtest1.innsys.ca:8080/speedtest/upload.php","lat":"43.6481","lon":"-79.4042","distance":0,"name":"Toronto, ON","country":"Canada","cc":"CA","sponsor":"InnSys Inc","id":"50317","preferred":0,"isp_id":"65417","https_functional":1,"host":"speedtest1.innsys.ca.prod.hosts.ooklaserver.net:8080"},
{"url":"http://speedtest1.xbase.com:8080/speedtest/upload.php","lat":"43.6481","lon":"-79.4042","distance":0,"name":"Toronto, ON","country":"Canada","cc":"CA","sponsor":"XBASE Technologies","id":"59322","preferred":0,"isp_id":"478","https_functional":1,"host":"speedtest1.xbase.com.prod.hosts.ooklaserver.net:8080"},
{"url":"http://speedtest2-tor.teksavvy.com:8080/speedtest/upload.php","lat":"43.6532","lon":"-79.3832","distance":0,"name":"Toronto, ON","country":"Canada","cc":"CA","sponsor":"Teksavvy Solutions Inc","id":"32632","preferred":0,"isp_id":"2324","https_functional":1,"host":"speedtest2-tor.teksavvy.com.prod.hosts.ooklaserver.net:8080"},
{"url":"http://speedtester.comwave.net:8080/speedtest/upload.php","lat":"43.6481","lon":"-79.4042","distance":0,"name":"Toronto, ON","country":"Canada","cc":"CA","sponsor":"Comwave Networks Inc","id":"31127","preferred":0,"isp_id":"81764","https_functional":1,"host":"speedtester.comwave.net.prod.hosts.ooklaserver.net:8080"},
{"url":"http://sttoronto.rogers.com:8080/speedtest/upload.php","lat":"43.6481","lon":"-79.4042","distance":0,"name":"Toronto, ON","country":"Canada","cc":"CA","sponsor":"Rogers","id":"46143","preferred":0,"isp_id":"164","https_functional":1,"host":"sttoronto.rogers.com:8080"},
{"url":"http://sttorontowireless.rogers.com:8080/speedtest/upload.php","lat":"43.6481","lon":"-79.4042","distance":0,"name":"Toronto, ON","country":"Canada","cc":"CA","sponsor":"Rogers Wireless","id":"46759","preferred":0,"isp_id":"164","https_functional":1,"host":"sttorontowireless.rogers.com:8080"},
{"url":"http:// t4y-toronto-ca-osts1.ser.tek4you.ca:8080/speedtest/upload.php","lat":"43.6481","lon":"-79.4042","distance":0,"name":"Toronto, ON","country":"Canada","cc":"CA","sponsor":"Tek4You Computer Repair & IT Services","id":"54410","preferred":0,"isp_id":"274949","https_functional":1,"host":"t4y-toronto-ca-osts1.ser.tek4you.ca.prod.hosts.ooklaserver.net:8080"},
{"url":"http://tdc01-speedtest.whipcord.com:8080/speedtest/upload.php","lat":"43.6481","lon":"-79.4042","distance":0,"name":"Toronto, ON","country":"Canada","cc":"CA","sponsor":"Whipcord Edge Data Centres","id":"69636","preferred":0,"isp_id":"112588","https_functional":1,"host":"tdc01-speedtest.whipcord.com.prod.hosts.ooklaserver.net:8080"},
{"url":"http://tor-speedtest.net.sangoma.net:8080/speedtest/upload.php","lat":"43.6481","lon":"-79.4042","distance":0,"name":"Toronto, ON","country":"Canada","cc":"CA","sponsor":"Sangoma","id":"63994","preferred":0,"isp_id":"289410","https_functional":1,"host":"tor-speedtest.net.sangoma.net.prod.hosts.ooklaserver.net:8080"},
{"url":"http://tor11speedtest01.srvr.bell.ca:8080/speedtest/upload.php","lat":"43.6481","lon":"-79.4042","distance":0,"name":"Toronto, ON","country":"Canada","cc":"CA","sponsor":"Bell Mobility","id":"16753","preferred":0,"isp_id":"0","https_functional":1,"host":"tor11speedtest01.srvr.bell.ca.prod.hosts.ooklaserver.net:8080"},
{"url":"http://toronto.speedtest.telus.com:8080/speedtest/upload.php","lat":"43.6481","lon":"-79.4042","distance":0,"name":"Toronto, ON","country":"Canada","cc":"CA","sponsor":"TELUS","id":"3575","preferred":0,"isp_id":"256720","https_functional":1,"host":"toronto.speedtest.telus.com.prod.hosts.ooklaserver.net:8080"},
{"url":"http://toronto2.speedtest.telus.com:8080/speedtest/upload.php","lat":"43.6481","lon":"-79.4042","distance":0,"name":"Toronto, ON","country":"Canada","cc":"CA","sponsor":"TELUS Mobility","id":"24698","preferred":0,"isp_id":"256720","https_functional":1,"host":"toronto2.speedtest.telus.com.prod.hosts.ooklaserver.net:8080"},
{"url":"http://trtspeedtest.altimatel.com:8080/speedtest/upload.php","lat":"43.6481","lon":"-79.4042","distance":0,"name":"Toronto, ON","country":"Canada","cc":"CA","sponsor":"Altima Telecom","id":"63649","preferred":0,"isp_id":"72038","https_functional":1,"host":"trtspeedtest.altimatel.com.prod.hosts.ooklaserver.net:8080"},
{"url":"http://wirelinespeedtesttoronto.srvr.bell.ca:8080/speedtest/upload.php","lat":"43.6481","lon":"-79.4042","distance":0,"name":"Toronto, ON","country":"Canada","cc":"CA","sponsor":"Bell Canada","id":"53393","preferred":0,"isp_id":"0","https_functional":1,"host":"wirelinespeedtesttoronto.srvr.bell.ca.prod.hosts.ooklaserver.net:8080"},
{"url":"http://yyz-speedtest.xplore.ca:8080/speedtest/upload.php","lat":"43.6481","lon":"-79.4042","distance":0,"name":"Toronto, ON","country":"Canada","cc":"CA","sponsor":"Xplore Inc","id":"53159","preferred":0,"isp_id":"70988","https_functional":1,"host":"yyz-speedtest.xplore.ca.prod.hosts.ooklaserver.net:8080"},
{"url":"http://sp3.basinbroadband.ca:8080/speedtest/upload.php","lat":"49.0950","lon":"-117.7100","distance":0,"name":"Trail, BC","country":"Canada","cc":"CA","sponsor":"Columbia Basin Broadband Corp.","id":"5200","preferred":0,"isp_id":"97829","https_functional":1,"host":"sp3.basinbroadband.ca.prod.hosts.ooklaserver.net:8080"},
{"url":"http://speedtest-6.aebc.com:8080/speedtest/upload.php","lat":"49.2505","lon":"-123.1119","distance":0,"name":"Vancouver, BC","country":"Canada","cc":"CA","sponsor":"AEBC Internet","id":"41509","preferred":0,"isp_id":"21032","https_functional":1,"host":"speedtest-6.aebc.com.prod.hosts.ooklaserver.net:8080"},
{"url":"http://speedtest-van.beanfield.com:8080/speedtest/upload.php","lat":"49.2505","lon":"-123.1119","distance":0,"name":"Vancouver, BC","country":"Canada","cc":"CA","sponsor":"Beanfield","id":"67411","preferred":0,"isp_id":"4966","https_functional":1,"host":"speedtest-van.beanfield.com.prod.hosts.ooklaserver.net:8080"},
{"url":"http://speedtest.skywaywest.net:8080/speedtest/upload.php","lat":"49.2505","lon":"-123.1119","distance":0,"name":"Vancouver, BC","country":"Canada","cc":"CA","sponsor":"Skyway West Business Internet Services","id":"3318","preferred":0,"isp_id":"54607","https_functional":1,"host":"speedtest.skywaywest.net.prod.hosts.ooklaserver.net:8080"},
{"url":"http://speedtest.ubc.ca:8080/speedtest/upload.php","lat":"49.2505","lon":"-123.1119","distance":0,"name":"Vancouver, BC","country":"Canada","cc":"CA","sponsor":"The University of British Columbia","id":"19703","preferred":0,"isp_id":"3334","https_functional":1,"host":"speedtest.ubc.ca.prod.hosts.ooklaserver.net:8080"},
{"url":"http://speedtest.vc.shawcable.net:8080/speedtest/upload.php","lat":"49.2505","lon":"-123.1119","distance":0,"name":"Vancouver, BC","country":"Canada","cc":"CA","sponsor":"Shaw Communications","id":"4243","preferred":0,"isp_id":"164","https_functional":1,"host":"speedtest.vc.shawcable.net:8080"},
{"url":"http://stvancouverwireless.rogers.com:8080/speedtest/upload.php","lat":"49.2505","lon":"-123.1119","distance":0,"name":"Vancouver, BC","country":"Canada","cc":"CA","sponsor":"Rogers Wireless","id":"46406","preferred":0,"isp_id":"164","https_functional":1,"host":"stvancouverwireless.rogers.com:8080"},
{"url":"http://vancnspd01.srvr.bell.ca:8080/speedtest/upload.php","lat":"49.2505","lon":"-123.1119","distance":0,"name":"Vancouver, BC","country":"Canada","cc":"CA","sponsor":"Bell Mobility","id":"17402","preferred":0,"isp_id":"0","https_functional":1,"host":"vancnspd01.srvr.bell.ca.prod.hosts.ooklaserver.net:8080"},
{"url":"http://vancouver.speedtest.telus.com:8080/speedtest/upload.php","lat":"49.2505","lon":"-123.1119","distance":0,"name":"Vancouver, BC","country":"Canada","cc":"CA","sponsor":"TELUS","id":"3049","preferred":0,"isp_id":"256720","https_functional":1,"host":"vancouver.speedtest.telus.com.prod.hosts.ooklaserver.net:8080"},
{"url":"http://vancouver2.speedtest.telus.com:8080/speedtest/upload.php","lat":"49.2505","lon":"-123.1119","distance":0,"name":"Vancouver, BC","country":"Canada","cc":"CA","sponsor":"TELUS Mobility","id":"16781","preferred":0,"isp_id":"256720","https_functional":1,"host":"vancouver2.speedtest.telus.com.prod.hosts.ooklaserver.net:8080"},
{"url":"http://west-speedtest.frontiernetworks.ca:8080/speedtest/upload.php","lat":"49.2505","lon":"-123.1119","distance":0,"name":"Vancouver, BC","country":"Canada","cc":"CA","sponsor":"Frontier Networks Inc","id":"17168","preferred":0,"isp_id":"47813","https_functional":1,"host":"west-speedtest.frontiernetworks.ca:8080"},
{"url":"http://hv1.juce.ca:8080/speedtest/upload.php","lat":"48.4222","lon":"-123.3657","distance":0,"name":"Victoria, BC","country":"Canada","cc":"CA","sponsor":"JUCE Communications","id":"8008","preferred":0,"isp_id":"103614","https_functional":1,"host":"hv1.juce.ca.prod.hosts.ooklaserver.net:8080"},
{"url":"http://speedtest.gv.shawcable.net:8080/speedtest/upload.php","lat":"48.4222","lon":"-123.3657","distance":0,"name":"Victoria, BC","country":"Canada","cc":"CA","sponsor":"Shaw Communications","id":"4240","preferred":0,"isp_id":"164","https_functional":1,"host":"speedtest.gv.shawcable.net:8080"},
{"url":"http://stvictoriawireless.rogers.com:8080/speedtest/upload.php","lat":"48.4222","lon":"-123.3657","distance":0,"name":"Victoria, BC","country":"Canada","cc":"CA","sponsor":"Rogers Wireless","id":"46412","preferred":0,"isp_id":"164","https_functional":1,"host":"stvictoriawireless.rogers.com:8080"},
{"url":"http://speedtest.rfnow.net:8080/speedtest/upload.php","lat":"49.8572","lon":"-100.9220","distance":0,"name":"Virden, MB","country":"Canada","cc":"CA","sponsor":"RFnow","id":"61714","preferred":0,"isp_id":"36992","https_functional":1,"host":"speedtest.rfnow.net.prod.hosts.ooklaserver.net:8080"},
{"url":"http://speedtest.wwfn.ca:8080/speedtest/upload.php","lat":"50.6709","lon":"-100.9026","distance":0,"name":"Waywayseecappo First Nation, MB","country":"Canada","cc":"CA","sponsor":"Anishinaabe Network Solutions","id":"53638","preferred":0,"isp_id":"163636","https_functional":1,"host":"speedtest.wwfn.ca.prod.hosts.ooklaserver.net:8080"},
{"url":"http://speedtest2.cfoc.tech:8080/speedtest/upload.php","lat":"55.1549","lon":"-119.1412","distance":0,"name":"Wembley, AB","country":"Canada","cc":"CA","sponsor":"Canadian Fiber Optics","id":"60610","preferred":0,"isp_id":"210702","https_functional":1,"host":"speedtest2.cfoc.tech.prod.hosts.ooklaserver.net:8080"},
{"url":"http://speedtest-west.eastlink.ca:8080/speedtest/upload.php","lat":"52.9680","lon":"-113.3661","distance":0,"name":"Wetaskiwin, AB","country":"Canada","cc":"CA","sponsor":"Eastlink","id":"11640","preferred":0,"isp_id":"19734","https_functional":1,"host":"speedtest-west.eastlink.ca.prod.hosts.ooklaserver.net:8080"},
{"url":"http://40gspeedtest.mnsi.net:8080/speedtest/upload.php","lat":"42.2833","lon":"-83.0000","distance":0,"name":"Windsor, ON","country":"Canada","cc":"CA","sponsor":"MNSi Telecom","id":"55994","preferred":0,"isp_id":"2217","https_functional":1,"host":"40gspeedtest.mnsi.net:8080"},
{"url":"http://mobilityooklawindsor.srvr.bell.ca:8080/speedtest/upload.php","lat":"42.2833","lon":"-83.0000","distance":0,"name":"Windsor, ON","country":"Canada","cc":"CA","sponsor":"Bell Mobility","id":"52350","preferred":0,"isp_id":"0","https_functional":1,"host":"mobilityooklawindsor.srvr.bell.ca.prod.hosts.ooklaserver.net:8080"},
{"url":"http://stwindsorwireless.rogers.com:8080/speedtest/upload.php","lat":"42.2833","lon":"-83.0000","distance":0,"name":"Windsor, ON","country":"Canada","cc":"CA","sponsor":"Rogers Wireless","id":"46126","preferred":0,"isp_id":"164","https_functional":1,"host":"stwindsorwireless.rogers.com:8080"},
{"url":"http://wirelinespeedtestwindsor.srvr.bell.ca:8080/speedtest/upload.php","lat":"42.2833","lon":"-83.0000","distance":0,"name":"Windsor, ON","country":"Canada","cc":"CA","sponsor":"Bell Canada","id":"46798","preferred":0,"isp_id":"0","https_functional":1,"host":"wirelinespeedtestwindsor.srvr.bell.ca.prod.hosts.ooklaserver.net:8080"},
{"url":"http://speedtest1.valleyfiber.ca:8080/speedtest/upload.php","lat":"49.1801","lon":"-97.9389","distance":0,"name":"Winkler, MB","country":"Canada","cc":"CA","sponsor":"Valley Fiber","id":"50325","preferred":0,"isp_id":"160317","https_functional":1,"host":"speedtest1.valleyfiber.ca.prod.hosts.ooklaserver.net:8080"},
{"url":"http://sp1.voyageurinternet.ca:8080/speedtest/upload.php","lat":"49.8833","lon":"-97.1500","distance":0,"name":"Winnipeg, MB","country":"Canada","cc":"CA","sponsor":"Voyageur Internet","id":"1493","preferred":0,"isp_id":"112523","https_functional":1,"host":"sp1.voyageurinternet.ca.prod.hosts.ooklaserver.net:8080"},
{"url":"http://speedtest.merlin.mb.ca:8080/speedtest/upload.php","lat":"49.8833","lon":"-97.1500","distance":0,"name":"Winnipeg, MB","country":"Canada","cc":"CA","sponsor":"MERLIN","id":"31020","preferred":0,"isp_id":"12510","https_functional":1,"host":"speedtest.merlin.mb.ca.prod.hosts.ooklaserver.net:8080"},
{"url":"http://speedtest.pimcommcorp.com:8080/speedtest/upload.php","lat":"49.8833","lon":"-97.1500","distance":0,"name":"Winnipeg, MB","country":"Canada","cc":"CA","sponsor":"PIMCOMM","id":"68368","preferred":0,"isp_id":"324691","https_functional":1,"host":"speedtest.pimcommcorp.com.prod.hosts.ooklaserver.net:8080"},
{"url":"http://speedtest.wp.shawcable.net:8080/speedtest/upload.php","lat":"49.8833","lon":"-97.1500","distance":0,"name":"Winnipeg, MB","country":"Canada","cc":"CA","sponsor":"Shaw Communications","id":"4244","preferred":0,"isp_id":"164","https_functional":1,"host":"speedtest.wp.shawcable.net:8080"},
{"url":"http://st2a.les.net:8080/speedtest/upload.php","lat":"49.8833","lon":"-97.1500","distance":0,"name":"Winnipeg, MB","country":"Canada","cc":"CA","sponsor":"LES.NET","id":"4297","preferred":0,"isp_id":"25924","https_functional":1,"host":"st2a.les.net:8080"},
{"url":"http://stwinnipegwireless.rogers.com:8080/speedtest/upload.php","lat":"49.8833","lon":"-97.1500","distance":0,"name":"Winnipeg, MB","country":"Canada","cc":"CA","sponsor":"Rogers Wireless","id":"46409","preferred":0,"isp_id":"164","https_functional":1,"host":"stwinnipegwireless.rogers.com:8080"},
{"url":"http://vanspeedtest.altimatel.com:8080/speedtest/upload.php","lat":"49.8954","lon":"-97.1385","distance":0,"name":"Winnipeg, MB","country":"Canada","cc":"CA","sponsor":"Altima Telecom","id":"63484","preferred":0,"isp_id":"72038","https_functional":1,"host":"vanspeedtest.altimatel.com.prod.hosts.ooklaserver.net:8080"},
{"url":"http://wirelinespeedtestwinnipeg02.srvr.bell.ca:8080/speedtest/upload.php","lat":"49.8833","lon":"-97.1500","distance":0,"name":"Winnipeg, MB","country":"Canada","cc":"CA","sponsor":"Bell MTS","id":"60418","preferred":0,"isp_id":"207577","https_functional":1,"host":"wirelinespeedtestwinnipeg02.srvr.bell.ca.prod.hosts.ooklaserver.net:8080"},
{"url":"http://wnpcfspd01.srvr.bell.ca:8080/speedtest/upload.php","lat":"49.8833","lon":"-97.1500","distance":0,"name":"Winnipeg, MB","country":"Canada","cc":"CA","sponsor":"Bell Mobility","id":"17395","preferred":0,"isp_id":"0","https_functional":1,"host":"wnpcfspd01.srvr.bell.ca.prod.hosts.ooklaserver.net:8080"},
{"url":"http://wnpcfspd02.srvr.bell.ca:8080/speedtest/upload.php","lat":"49.8833","lon":"-97.1500","distance":0,"name":"Winnipeg, MB","country":"Canada","cc":"CA","sponsor":"Bell Canada","id":"25266","preferred":0,"isp_id":"0","https_functional":1,"host":"wnpcfspd02.srvr.bell.ca.prod.hosts.ooklaserver.net:8080"},
{"url":"http://speedtest.hay.net:8080/speedtest/upload.php","lat":"43.4214","lon":"-81.6258","distance":0,"name":"Zurich, ON","country":"Canada","cc":"CA","sponsor":"Hay Communications","id":"5667","preferred":0,"isp_id":"173540","https_functional":1,"host":"speedtest.hay.net:8080"},
{"url":"http://sp1.biocablesur.cl:8080/speedtest/upload.php","lat":"-37.4629","lon":"-72.3612","distance":0,"name":"Los Angeles","country":"Chile","cc":"CL","sponsor":"Bio Cable Sur","id":"35519","preferred":0,"isp_id":"243901","https_functional":1,"host":"sp1.biocablesur.cl.prod.hosts.ooklaserver.net:8080"},
{"url":"http://cesu-hz.zjtelecom.com.cn:8080/speedtest/upload.php","lat":"30.2741","lon":"120.1552","distance":0,"name":"HangZhou","country":"China","cc":"CN","sponsor":"浙江电信","id":"59386","preferred":0,"isp_id":"7209","host":"cesu-hz.zjtelecom.com.cn:8080"},
{"url":"http://hk-bgp-speedtest.nearoute.io:8080/speedtest/upload.php","lat":"22.2500","lon":"114.1667","distance":0,"name":"Hong Kong","country":"China","cc":"HK","sponsor":"Nearoute Limited","id":"69574","preferred":0,"isp_id":"241265","https_functional":1,"host":"hk-bgp-speedtest.nearoute.io.prod.hosts.ooklaserver.net:8080"},
{"url":"http://speedtest.dukekunshan.edu.cn:8080/speedtest/upload.php","lat":"31.3856","lon":"120.9807","distance":0,"name":"Kunshan","country":"China","cc":"CN","sponsor":"Duke Kunshan University","id":"30852","preferred":0,"isp_id":"40054","https_functional":1,"host":"speedtest.dukekunshan.edu.cn:8080"},
{"url":"http://cesu-nb.zjtelecom.com.cn:8080/speedtest/upload.php","lat":"29.8683","lon":"121.5440","distance":0,"name":"NingBo","country":"China","cc":"CN","sponsor":"浙江电信","id":"59387","preferred":0,"isp_id":"7209","https_functional":1,"host":"cesu-nb.zjtelecom.com.cn.prod.hosts.ooklaserver.net:8080"},
{"url":"http://4gsuzhou1.speedtest.jsinfo.net:8080/speedtest/upload.php","lat":"31.2990","lon":"120.5853","distance":0,"name":"Suzhou","country":"China","cc":"CN","sponsor":"China Telecom JiangSu 5G","id":"5396","preferred":0,"isp_id":"7209","https_functional":1,"host":"4gsuzhou1.speedtest.jsinfo.net.prod.hosts.ooklaserver.net:8080"},
{"url":"http://speedtest.jsqiuying.com:8080/speedtest/upload.php","lat":"31.2983","lon":"120.5832","distance":0,"name":"Suzhou","country":"China","cc":"CN","sponsor":"JSQY","id":"16204","preferred":0,"isp_id":"88508","https_functional":1,"host":"speedtest.jsqiuying.com:8080"},
{"url":"http://5gzhenjiang.speedtest.jsinfo.net:8080/speedtest/upload.php","lat":"32.2069","lon":"119.4490","distance":0,"name":"Zhenjiang","country":"China","cc":"CN","sponsor":"China Telecom JiangSu 5G","id":"36663","preferred":0,"isp_id":"7209","https_functional":1,"host":"5gzhenjiang.speedtest.jsinfo.net.prod.hosts.ooklaserver.net:8080"},
{"url":"http://st.fratec.net:8080/speedtest/upload.php","lat":"9.9408","lon":"-84.0247","distance":0,"name":"San Jose","country":"Costa Rica","cc":"CR","sponsor":"Sistemas Fratec S.A.","id":"60075","preferred":0,"isp_id":"29035","https_functional":1,"host":"st.fratec.net.prod.hosts.ooklaserver.net:8080"},
{"url":"http://hls.speedtest.gslnetworks.com:8080/speedtest/upload.php","lat":"60.1698","lon":"24.9383","distance":0,"name":"Helsinki","country":"Finland","cc":"FI","sponsor":"GSL Networks","id":"65088","preferred":0,"isp_id":"241570","https_functional":1,"host":"hls.speedtest.gslnetworks.com.prod.hosts.ooklaserver.net:8080"},
{"url":"http://mrs2.speedtest.gslnetworks.com:8080/speedtest/upload.php","lat":"43.2964","lon":"5.3700","distance":0,"name":"Marseille","country":"France","cc":"FR","sponsor":"GSL Networks","id":"48390","preferred":0,"isp_id":"240015","https_functional":1,"host":"mrs2.speedtest.gslnetworks.com.prod.hosts.ooklaserver.net:8080"},
{"url":"http://fr5.speedtest.gslnetworks.com:8080/speedtest/upload.php","lat":"50.1109","lon":"8.6821","distance":0,"name":"Frankfurt","country":"Germany","cc":"DE","sponsor":"GSL Networks","id":"50771","preferred":0,"isp_id":"212354","https_functional":1,"host":"fr5.speedtest.gslnetworks.com.prod.hosts.ooklaserver.net:8080"},
{"url":"http://1010.hkspeedtest.com:8080/speedtest/upload.php","lat":"22.2760","lon":"114.1751","distance":0,"name":"Hong Kong","country":"Hong Kong","cc":"HK","sponsor":"1010","id":"43356","preferred":0,"isp_id":"101231","https_functional":1,"host":"1010.hkspeedtest.com.prod.hosts.ooklaserver.net:8080"},
{"url":"http://csl.hkspeedtest.com:8080/speedtest/upload.php","lat":"22.3668","lon":"114.1302","distance":0,"name":"Hong Kong","country":"Hong Kong","cc":"HK","sponsor":"CSL","id":"13538","preferred":0,"isp_id":"101231","https_functional":1,"host":"csl.hkspeedtest.com.prod.hosts.ooklaserver.net:8080"},
{"url":"http://hk-hkg12.speed.misaka.one:8080/speedtest/upload.php","lat":"22.2500","lon":"114.1667","distance":0,"name":"Hong Kong","country":"Hong Kong","cc":"HK","sponsor":"Misaka Network, Inc.","id":"44745","preferred":0,"isp_id":"118607","https_functional":1,"host":"hk-hkg12.speed.misaka.one:8080"},
{"url":"http://hk01.bigball.top:8080/speedtest/upload.php","lat":"22.2500","lon":"114.1667","distance":0,"name":"Hong Kong","country":"Hong Kong","cc":"HK","sponsor":"MistNet","id":"72331","preferred":0,"isp_id":"274961","https_functional":1,"host":"hk01.bigball.top.prod.hosts.ooklaserver.net:8080"},
{"url":"http://hk1.speedtest.gslnetworks.com:8080/speedtest/upload.php","lat":"22.2500","lon":"114.1667","distance":0,"name":"Hong Kong","country":"Hong Kong","cc":"HK","sponsor":"GSL Networks","id":"48446","preferred":0,"isp_id":"215509","https_functional":1,"host":"hk1.speedtest.gslnetworks.com.prod.hosts.ooklaserver.net:8080"},
{"url":"http://hkg.02.speedtest.kansuiun.com:8080/speedtest/upload.php","lat":"22.2500","lon":"114.1667","distance":0,"name":"Hong Kong","country":"Hong Kong","cc":"HK","sponsor":"Kansuiun Co., Ltd","id":"70128","preferred":0,"isp_id":"295279","https_functional":1,"host":"hkg.02.speedtest.kansuiun.com.prod.hosts.ooklaserver.net:8080"},
{"url":"http://hkgspeedtest.cmctelecom.vn:8080/speedtest/upload.php","lat":"22.3000","lon":"114.2000","distance":0,"name":"Hong Kong","country":"Hong Kong","cc":"HK","sponsor":"CMC Telecom","id":"57571","preferred":0,"isp_id":"46039","host":"hkgspeedtest.cmctelecom.vn:8080"},
{"url":"http://hkspeedtest.netvigator.com:8080/speedtest/upload.php","lat":"22.2864","lon":"114.1491","distance":0,"name":"Hong Kong","country":"Hong Kong","cc":"HK","sponsor":"Netvigator","id":"63143","preferred":0,"isp_id":"260668","https_functional":1,"host":"hkspeedtest.netvigator.com.prod.hosts.ooklaserver.net:8080"},
{"url":"http://hkt.hkspeedtest.com:8080/speedtest/upload.php","lat":"22.2500","lon":"114.1667","distance":0,"name":"Hong Kong","country":"Hong Kong","cc":"HK","sponsor":"Club SIM by HKT","id":"60177","preferred":0,"isp_id":"101231","https_functional":1,"host":"hkt.hkspeedtest.com.prod.hosts.ooklaserver.net:8080"},
{"url":"http://hkthspeedtest02.telstraglobal.net:8080/speedtest/upload.php","lat":"22.2500","lon":"114.1667","distance":0,"name":"Hong Kong","country":"Hong Kong","cc":"HK","sponsor":"Telstra International","id":"44340","preferred":0,"isp_id":"84702","https_functional":1,"host":"hkthspeedtest02.telstraglobal.net.prod.hosts.ooklaserver.net:8080"},
{"url":"http://hoshiyomi.ratatoskr.org:8080/speedtest/upload.php","lat":"22.2500","lon":"114.1667","distance":0,"name":"Hong Kong","country":"Hong Kong","cc":"HK","sponsor":"ラタトスク","id":"57779","preferred":0,"isp_id":"77744","https_functional":1,"host":"hoshiyomi.ratatoskr.org.prod.hosts.ooklaserver.net:8080"},
{"url":"http://kami.smartone.com:8080/speedtest/upload.php","lat":"22.2796","lon":"114.1592","distance":0,"name":"Hong Kong","country":"Hong Kong","cc":"HK","sponsor":"SmarTone","id":"35791","preferred":0,"isp_id":"2404","https_functional":1,"host":"kami.smartone.com.prod.hosts.ooklaserver.net:8080"},
{"url":"http://lg-hkg.fdcservers.net:8080/speedtest/upload.php","lat":"22.2500","lon":"114.1667","distance":0,"name":"Hong Kong","country":"Hong Kong","cc":"HK","sponsor":"fdcservers.net","id":"28912","preferred":0,"isp_id":"27716","https_functional":1,"host":"lg-hkg.fdcservers.net:8080"},
{"url":"http://ookla-speedtest-central.hgconair.hgc.com.hk:8080/speedtest/upload.php","lat":"22.2800","lon":"114.1588","distance":0,"name":"Hong Kong","country":"Hong Kong","cc":"HK","sponsor":"HGC環電","id":"37390","preferred":0,"isp_id":"51880","https_functional":1,"host":"ookla-speedtest-central.hgconair.hgc.com.hk:8080"},
{"url":"http://ookla.hk2.as6453.net:8080/speedtest/upload.php","lat":"22.3193","lon":"114.1694","distance":0,"name":"Hong Kong","country":"Hong Kong","cc":"HK","sponsor":"Tata Communications","id":"73629","preferred":0,"isp_id":"310580","https_functional":1,"host":"ookla.hk2.as6453.net.prod.hosts.ooklaserver.net:8080"},
{"url":"https://sosimhk.datapath.three.com.hk:8080/speedtest/upload.php","lat":"22.2500","lon":"114.1667","distance":0,"name":"Hong Kong","country":"Hong Kong","cc":"HK","sponsor":"SoSIM","id":"63076","preferred":0,"isp_id":"86733","host":"sosimhk.datapath.three.com.hk:8080"},
{"url":"http://speedtest-hkg.retn.net:8080/speedtest/upload.php","lat":"22.2500","lon":"114.1667","distance":0,"name":"Hong Kong","country":"Hong Kong","cc":"HK","sponsor":"RETN","id":"68983","preferred":0,"isp_id":"275610","https_functional":1,"host":"speedtest-hkg.retn.net.prod.hosts.ooklaserver.net:8080"},
{"url":"http://speedtest.hk.chinamobile.com:8080/speedtest/upload.php","lat":"22.3193","lon":"114.1694","distance":0,"name":"Hong Kong","country":"Hong Kong","cc":"HK","sponsor":"CMHK Mobile Service","id":"32155","preferred":0,"isp_id":"207318","https_functional":1,"host":"speedtest.hk.chinamobile.com:8080"},
{"url":"http://speedtest.hk210.hkg.cn.ctcsci.com:8080/speedtest/upload.php","lat":"22.2500","lon":"114.1667","distance":0,"name":"Hong Kong","country":"Hong Kong","cc":"HK","sponsor":"CTCSCI TECH LTD","id":"62193","preferred":0,"isp_id":"277245","https_functional":1,"host":"speedtest.hk210.hkg.cn.ctcsci.com.prod.hosts.ooklaserver.net:8080"},
{"url":"http://speedtest.rfchost.net:8080/speedtest/upload.php","lat":"22.2500","lon":"114.1667","distance":0,"name":"Hong Kong","country":"Hong Kong","cc":"HK","sponsor":"RFCHOST","id":"69119","preferred":0,"isp_id":"0","https_functional":1,"host":"speedtest.rfchost.net.prod.hosts.ooklaserver.net:8080"},
{"url":"http://speedtest.three.com.hk:8080/speedtest/upload.php","lat":"22.3193","lon":"114.1694","distance":0,"name":"Hong Kong","country":"Hong Kong","cc":"HK","sponsor":"Hutchison HK","id":"33414","preferred":0,"isp_id":"86733","https_functional":1,"host":"speedtest.three.com.hk:8080"},
{"url":"http://speedtest1c.hkix.net:8080/speedtest/upload.php","lat":"22.2500","lon":"114.1667","distance":0,"name":"Hong Kong","country":"Hong Kong","cc":"HK","sponsor":"HKIX","id":"61296","preferred":0,"isp_id":"148719","https_functional":1,"host":"speedtest1c.hkix.net.prod.hosts.ooklaserver.net:8080"},
{"url":"http://speedtest21.hkbn.net:8080/speedtest/upload.php","lat":"22.2500","lon":"114.1667","distance":0,"name":"Hong Kong","country":"Hong Kong","cc":"HK","sponsor":"HKBN","id":"65463","preferred":0,"isp_id":"77744","https_functional":1,"host":"speedtest21.hkbn.net.prod.hosts.ooklaserver.net:8080"},
{"url":"http://speedtestbb.hk.chinamobile.com:8080/speedtest/upload.php","lat":"22.3193","lon":"114.1694","distance":0,"name":"Hong Kong","country":"Hong Kong","cc":"HK","sponsor":"CMHK Broadband","id":"37639","preferred":0,"isp_id":"207318","https_functional":1,"host":"speedtestbb.hk.chinamobile.com:8080"},
{"url":"http://speedtesthkg.fpt.vn:8080/speedtest/upload.php","lat":"22.3193","lon":"114.1694","distance":0,"name":"Hong Kong","country":"Hong Kong","cc":"HK","sponsor":"FPT Telecom","id":"67826","preferred":0,"isp_id":"43723","https_functional":1,"host":"speedtesthkg.fpt.vn.prod.hosts.ooklaserver.net:8080"},
{"url":"http://sunmobile.hkspeedtest.com:8080/speedtest/upload.php","lat":"22.2500","lon":"114.1667","distance":0,"name":"Hong Kong","country":"Hong Kong","cc":"HK","sponsor":"Sun Mobile","id":"60178","preferred":0,"isp_id":"101231","https_functional":1,"host":"sunmobile.hkspeedtest.com.prod.hosts.ooklaserver.net:8080"},
{"url":"http://suntechspeedtest.com:8080/speedtest/upload.php","lat":"22.2500","lon":"114.1667","distance":0,"name":"Hong Kong","country":"Hong Kong","cc":"HK","sponsor":"STC","id":"1536","preferred":0,"isp_id":"260668","https_functional":1,"host":"suntechspeedtest.com.prod.hosts.ooklaserver.net:8080"},
{"url":"http://sp1.angelbroadband.com:8080/speedtest/upload.php","lat":"30.1453","lon":"74.1993","distance":0,"name":"Abohar","country":"India","cc":"IN","sponsor":"ANGEL BROADBAND","id":"20419","preferred":0,"isp_id":"330188","https_functional":1,"host":"sp1.angelbroadband.com.prod.hosts.ooklaserver.net:8080"},
{"url":"http://shhdooklaspeed1.jioconnect.com:8080/speedtest/upload.php","lat":"30.3557","lon":"76.8019","distance":0,"name":"Ambala","country":"India","cc":"IN","sponsor":"Jio","id":"15276","preferred":0,"isp_id":"137615","https_functional":1,"host":"shhdooklaspeed1.jioconnect.com.prod.hosts.ooklaserver.net:8080"},
{"url":"http://speedtest.sgbroadband.in:8080/speedtest/upload.php","lat":"29.5201","lon":"76.6142","distance":0,"name":"Assandh","country":"India","cc":"IN","sponsor":"SG BROADBAND","id":"49570","preferred":0,"isp_id":"191928","https_functional":1,"host":"speedtest.sgbroadband.in.prod.hosts.ooklaserver.net:8080"},
{"url":"http://speed.airwavesinternet.com:8080/speedtest/upload.php","lat":"30.9578","lon":"76.7914","distance":0,"name":"Baddi","country":"India","cc":"IN","sponsor":"AIRWAVES INTERNET PVT LTD","id":"44714","preferred":0,"isp_id":"106591","https_functional":1,"host":"speed.airwavesinternet.com.prod.hosts.ooklaserver.net:8080"},
{"url":"http://speedtest4.fivenetwork.in:8080/speedtest/upload.php","lat":"30.2110","lon":"74.9455","distance":0,"name":"Bathinda","country":"India","cc":"IN","sponsor":"Five Network","id":"55053","preferred":0,"isp_id":"333215","https_functional":1,"host":"speedtest4.fivenetwork.in.prod.hosts.ooklaserver.net:8080"},
{"url":"http://speedtestbti.angelbroadband.com:8080/speedtest/upload.php","lat":"30.2110","lon":"74.9455","distance":0,"name":"Bathinda","country":"India","cc":"IN","sponsor":"ANGEL BROADBAND","id":"60728","preferred":0,"isp_id":"330188","https_functional":1,"host":"speedtestbti.angelbroadband.com.prod.hosts.ooklaserver.net:8080"},
{"url":"http://speedtestbir.airjaldi.net:8080/speedtest/upload.php","lat":"32.0456","lon":"76.7236","distance":0,"name":"Bir","country":"India","cc":"IN","sponsor":"AirJaldi Networks","id":"52367","preferred":0,"isp_id":"330182","https_functional":1,"host":"speedtestbir.airjaldi.net.prod.hosts.ooklaserver.net:8080"},
{"url":"http://speedtestbirpara.meghbelabroadband.in:8080/speedtest/upload.php","lat":"26.7038","lon":"89.1430","distance":0,"name":"Birpara","country":"India","cc":"IN","sponsor":"Meghbela Cable & Broadband Services Pvt Ltd","id":"14314","preferred":0,"isp_id":"54233","https_functional":1,"host":"speedtestbirpara.meghbelabroadband.in.prod.hosts.ooklaserver.net:8080"},
{"url":"http://speedtest.csfibernet.in:8080/speedtest/upload.php","lat":"26.5030","lon":"90.5536","distance":0,"name":"Bongaigaon","country":"India","cc":"IN","sponsor":"CS FiberNet Pvt Ltd","id":"60120","preferred":0,"isp_id":"214270","https_functional":1,"host":"speedtest.csfibernet.in.prod.hosts.ooklaserver.net:8080"},
{"url":"http://stladhuka.clicknconnect.co.in:8080/speedtest/upload.php","lat":"30.5988","lon":"74.2480","distance":0,"name":"Chak SingheWala","country":"India","cc":"IN","sponsor":"cNc Broadband","id":"69532","preferred":0,"isp_id":"300774","https_functional":1,"host":"stladhuka.clicknconnect.co.in.prod.hosts.ooklaserver.net:8080"},
{"url":"http://bsnlooklachd.mywire.org:8080/speedtest/upload.php","lat":"30.7333","lon":"76.7794","distance":0,"name":"Chandigarh","country":"India","cc":"IN","sponsor":"BHARAT SANCHAR NIGAM LTD","id":"61708","preferred":0,"isp_id":"73461","https_functional":1,"host":"bsnlooklachd.mywire.org.prod.hosts.ooklaserver.net:8080"},
{"url":"http://sgmlooklaspeed1.jioconnect.com:8080/speedtest/upload.php","lat":"30.7333","lon":"76.7794","distance":0,"name":"Chandigarh","country":"India","cc":"IN","sponsor":"Jio","id":"15261","preferred":0,"isp_id":"137615","https_functional":1,"host":"sgmlooklaspeed1.jioconnect.com.prod.hosts.ooklaserver.net:8080"},
{"url":"http://speedtest.chd.gispl.net:8080/speedtest/upload.php","lat":"30.7333","lon":"76.7794","distance":0,"name":"Chandigarh","country":"India","cc":"IN","sponsor":"Gigantic Internet Service Pvt Ltd","id":"72673","preferred":0,"isp_id":"330799","https_functional":1,"host":"speedtest.chd.gispl.net.prod.hosts.ooklaserver.net:8080"},
{"url":"http://speedtest.foxcell.net:8080/speedtest/upload.php","lat":"30.7333","lon":"76.7794","distance":0,"name":"Chandigarh","country":"India","cc":"IN","sponsor":"Foxcell Communication Pvt Ltd","id":"31507","preferred":0,"isp_id":"121076","https_functional":1,"host":"speedtest.foxcell.net.prod.hosts.ooklaserver.net:8080"},
{"url":"http://speedtestchd.netplus.co.in:8080/speedtest/upload.php","lat":"30.7333","lon":"76.7794","distance":0,"name":"Chandigarh","country":"India","cc":"IN","sponsor":"Netplus Broadband Services Pvt Ltd","id":"41294","preferred":0,"isp_id":"111480","https_functional":1,"host":"speedtestchd.netplus.co.in.prod.hosts.ooklaserver.net:8080"},
{"url":"http://speedtestversatile.meghbelabroadband.in:8080/speedtest/upload.php","lat":"27.0410","lon":"88.2663","distance":0,"name":"Darjeeling","country":"India","cc":"IN","sponsor":"Meghbela Cable & Broadband Services Pvt Ltd","id":"55370","preferred":0,"isp_id":"54233","https_functional":1,"host":"speedtestversatile.meghbelabroadband.in.prod.hosts.ooklaserver.net:8080"},
{"url":"http://speedtest.stgscloud.com:8080/speedtest/upload.php","lat":"30.3275","lon":"78.0325","distance":0,"name":"Dehradun","country":"India","cc":"IN","sponsor":"STGS Cloud","id":"63046","preferred":0,"isp_id":"0","https_functional":1,"host":"speed.stgscloud.com.prod.hosts.ooklaserver.net:8080"},
{"url":"http://speedtest.e-net.net.in:8080/speedtest/upload.php","lat":"30.3165","lon":"78.0322","distance":0,"name":"Dehradun","country":"India","cc":"IN","sponsor":"E Net Solutions Pvt Ltd","id":"68043","preferred":0,"isp_id":"103690","https_functional":1,"host":"speedtest.e-net.net.in.prod.hosts.ooklaserver.net:8080"},
{"url":"http://speedtest.megahertz.net.in:8080/speedtest/upload.php","lat":"30.3220","lon":"78.0300","distance":0,"name":"Dehradun","country":"India","cc":"IN","sponsor":"Megahertz Internet Network PVT Ltd","id":"28322","preferred":0,"isp_id":"135142","https_functional":1,"host":"speedtest.megahertz.net.in:8080"},
{"url":"http://speedtest02.radinet.in:8080/speedtest/upload.php","lat":"30.3165","lon":"78.0322","distance":0,"name":"Dehradun","country":"India","cc":"IN","sponsor":"RADINET Info. Solutions Pvt Ltd","id":"54709","preferred":0,"isp_id":"181091","https_functional":1,"host":"speedtest02.radinet.in.prod.hosts.ooklaserver.net:8080"},
{"url":"http://delhi.speedtest.railtel.in:8080/speedtest/upload.php","lat":"28.6100","lon":"77.2300","distance":0,"name":"Delhi","country":"India","cc":"IN","sponsor":"RailTel Corporation of India Ltd","id":"34104","preferred":0,"isp_id":"96146","https_functional":1,"host":"delhi.speedtest.railtel.in.prod.hosts.ooklaserver.net:8080"},
{"url":"http://dlhiooklaspeed1.jioconnect.com:8080/speedtest/upload.php","lat":"28.7041","lon":"77.1025","distance":0,"name":"Delhi","country":"India","cc":"IN","sponsor":"Jio","id":"9809","preferred":0,"isp_id":"137615","https_functional":1,"host":"dlhiooklaspeed1.jioconnect.com.prod.hosts.ooklaserver.net:8080"},
{"url":"http://ooklaserver1-del1.skymaxbroadband.com:8080/speedtest/upload.php","lat":"28.6139","lon":"77.2090","distance":0,"name":"Delhi","country":"India","cc":"IN","sponsor":"Skymax Broadband Services Pvt Ltd","id":"38375","preferred":0,"isp_id":"329966","https_functional":1,"host":"ooklaserver1-del1.skymaxbroadband.com.prod.hosts.ooklaserver.net:8080"},
{"url":"http://sp.yakshtel.com:8080/speedtest/upload.php","lat":"28.7041","lon":"77.1025","distance":0,"name":"Delhi","country":"India","cc":"IN","sponsor":"Vista Network","id":"58707","preferred":0,"isp_id":"209688","https_functional":1,"host":"sp.yakshtel.com.prod.hosts.ooklaserver.net:8080"},
{"url":"http://sp1.adnbroadband.com:8080/speedtest/upload.php","lat":"28.6100","lon":"77.2300","distance":0,"name":"Delhi","country":"India","cc":"IN","sponsor":"ADN Broadband","id":"32091","preferred":0,"isp_id":"199475","https_functional":1,"host":"sp1.adnbroadband.com:8080"},
{"url":"http://sp1.omnetbroadband.com:8080/speedtest/upload.php","lat":"28.6100","lon":"77.2300","distance":0,"name":"Delhi","country":"India","cc":"IN","sponsor":"OMNET Broadband","id":"38315","preferred":0,"isp_id":"330408","https_functional":1,"host":"sp1.omnetbroadband.com.prod.hosts.ooklaserver.net:8080"},
{"url":"http://sp1.snsinternet.com:8080/speedtest/upload.php","lat":"28.7041","lon":"77.1025","distance":0,"name":"Delhi","country":"India","cc":"IN","sponsor":"SNS INTERNET","id":"52320","preferred":0,"isp_id":"167133","https_functional":1,"host":"sp1.snsinternet.com.prod.hosts.ooklaserver.net:8080"},
{"url":"http://sp1.worldfibernet.com:8080/speedtest/upload.php","lat":"28.7041","lon":"77.1025","distance":0,"name":"Delhi","country":"India","cc":"IN","sponsor":"World Fibernet","id":"51746","preferred":0,"isp_id":"241107","https_functional":1,"host":"sp1.worldfibernet.com.prod.hosts.ooklaserver.net:8080"},
{"url":"http://speed.mylink.co.in:8080/speedtest/upload.php","lat":"28.7041","lon":"77.1025","distance":0,"name":"Delhi","country":"India","cc":"IN","sponsor":"Mylink Services Pvt Ltd","id":"61955","preferred":0,"isp_id":"173909","https_functional":1,"host":"speed.mylink.co.in.prod.hosts.ooklaserver.net:8080"},
{"url":"http://speedtest.bakcom.in:8080/speedtest/upload.php","lat":"28.7041","lon":"77.1025","distance":0,"name":"Delhi","country":"India","cc":"IN","sponsor":"Bakcom Networks","id":"68950","preferred":0,"isp_id":"99653","https_functional":1,"host":"speedtest.bakcom.in:8080"},
{"url":"http://speedtest.dl.gtel.in:8080/speedtest/upload.php","lat":"28.7106","lon":"77.1779","distance":0,"name":"Delhi","country":"India","cc":"IN","sponsor":"Gigantic Infotel Pvt Ltd","id":"42113","preferred":0,"isp_id":"329963","https_functional":1,"host":"speedtest.dl.gtel.in.prod.hosts.ooklaserver.net:8080"},
{"url":"http://speedtest.maxnetdigital.in:8080/speedtest/upload.php","lat":"28.7041","lon":"77.1025","distance":0,"name":"Delhi","country":"India","cc":"IN","sponsor":"Maxnet Digital","id":"69744","preferred":0,"isp_id":"221068","host":"speedtest.maxnetdigital.in:8080"},
{"url":"http://speedtest.nikhilnetworksolution.in:8080/speedtest/upload.php","lat":"28.6100","lon":"77.2300","distance":0,"name":"Delhi","country":"India","cc":"IN","sponsor":"NIKHIL NETWORK SOLUTION","id":"33379","preferred":0,"isp_id":"191353","https_functional":1,"host":"speedtest.nikhilnetworksolution.in.prod.hosts.ooklaserver.net:8080"},
{"url":"http://speedtest.skyplay.app:8080/speedtest/upload.php","lat":"28.7041","lon":"77.1025","distance":0,"name":"Delhi","country":"India","cc":"IN","sponsor":"SKYPLAY IPTV SERVICES","id":"72137","preferred":0,"isp_id":"155636","https_functional":1,"host":"speedtest.skyplay.app.prod.hosts.ooklaserver.net:8080"},
{"url":"http://speedtest.worldphone.in:8080/speedtest/upload.php","lat":"28.7041","lon":"77.1025","distance":0,"name":"Delhi","country":"India","cc":"IN","sponsor":"World Phone Internet","id":"51120","preferred":0,"isp_id":"99535","https_functional":1,"host":"speedtest.worldphone.in:8080"},
{"url":"http://speedtest01.qualitynet.in:8080/speedtest/upload.php","lat":"28.7041","lon":"77.1025","distance":0,"name":"Delhi","country":"India","cc":"IN","sponsor":"Quality Broadband","id":"58083","preferred":0,"isp_id":"330315","https_functional":1,"host":"speedtest01.qualitynet.in.prod.hosts.ooklaserver.net:8080"},
{"url":"http://speedtest2.mywnz.com:8080/speedtest/upload.php","lat":"28.7041","lon":"77.1025","distance":0,"name":"Delhi","country":"India","cc":"IN","sponsor":"Wireless Net Zone","id":"72621","preferred":0,"isp_id":"0","https_functional":1,"host":"speedtest2.mywnz.com.prod.hosts.ooklaserver.net:8080"},
{"url":"http://speedtestdelhi.digiwaynet.com:8080/speedtest/upload.php","lat":"28.7041","lon":"77.1025","distance":0,"name":"Delhi","country":"India","cc":"IN","sponsor":"DIGIWAYNET PVT LTD","id":"51805","preferred":0,"isp_id":"329987","https_functional":1,"host":"speedtestdelhi.digiwaynet.com.prod.hosts.ooklaserver.net:8080"},
{"url":"http://speedtestdelhi.ultranet.co.in:8080/speedtest/upload.php","lat":"28.7041","lon":"77.1025","distance":0,"name":"Delhi","country":"India","cc":"IN","sponsor":"Ultranet","id":"17181","preferred":0,"isp_id":"106866","https_functional":1,"host":"speedtestdelhi.ultranet.co.in.prod.hosts.ooklaserver.net:8080"},
{"url":"http://speedtestdelhi.uvfiber.com:8080/speedtest/upload.php","lat":"28.7041","lon":"77.1025","distance":0,"name":"Delhi","country":"India","cc":"IN","sponsor":"UV Fiber","id":"69323","preferred":0,"isp_id":"256894","https_functional":1,"host":"speedtestdelhi.uvfiber.com.prod.hosts.ooklaserver.net:8080"},
{"url":"http://st1.anonet.in:8080/speedtest/upload.php","lat":"28.7041","lon":"77.1025","distance":0,"name":"Delhi","country":"India","cc":"IN","sponsor":"Anonet Communication Pvt Ltd","id":"55593","preferred":0,"isp_id":"73672","https_functional":1,"host":"st1.anonet.in.prod.hosts.ooklaserver.net:8080"},
{"url":"http://stdel.blazencr.com:8080/speedtest/upload.php","lat":"28.7041","lon":"77.1025","distance":0,"name":"Delhi","country":"India","cc":"IN","sponsor":"BlazeNet Ltd.","id":"59727","preferred":0,"isp_id":"3418","https_functional":1,"host":"stdel.blazencr.com.prod.hosts.ooklaserver.net:8080"},