[
{"url":"http://colocity.speedtest.gslnetworks.com:8080/speedtest/upload.php","lat":"-34.9290","lon":"138.6010","distance":0,"name":"Adelaide","country":"Australia","cc":"AU","sponsor":"GSL Networks","id":"48362","preferred":0,"isp_id":"274339","https_functional":1,"host":"colocity.speedtest.gslnetworks.com.prod.hosts.ooklaserver.net:8080"},
{"url":"http://speedtest-blacktown.optusnet.com.au:8080/speedtest/upload.php","lat":"-33.7447","lon":"150.8842","distance":0,"name":"Blacktown","country":"Australia","cc":"AU","sponsor":"Optus","id":"8777","preferred":0,"isp_id":"71769","https_functional":1,"host":"speedtest-blacktown.optusnet.com.au:8080"},
{"url":"http://b2.speedtest.gslnetworks.com:8080/speedtest/upload.php","lat":"-27.4728","lon":"153.0278","distance":0,"name":"Brisbane","country":"Australia","cc":"AU","sponsor":"GSL Networks","id":"48346","preferred":0,"isp_id":"274339","https_functional":1,"host":"b2.speedtest.gslnetworks.com.prod.hosts.ooklaserver.net:8080"},
{"url":"http://brindb2speed1.wireline.com.au:8080/speedtest/upload.php","lat":"-27.4728","lon":"153.0278","distance":0,"name":"Brisbane","country":"Australia","cc":"AU","sponsor":"Wireline Group","id":"16514","preferred":0,"isp_id":"99929","https_functional":1,"host":"brindb2speed1.wireline.com.au.prod.hosts.ooklaserver.net:8080"},
{"url":"http://brs1.speedtest.telstra.net:8080/speedtest/upload.php","lat":"-27.4728","lon":"153.0278","distance":0,"name":"Brisbane","country":"Australia","cc":"AU","sponsor":"Telstra","id":"12493","preferred":0,"isp_id":"39","https_functional":1,"host":"brs1.speedtest.telstra.net:8080"},
{"url":"http://ookla.b2.neptune.net.au:8080/speedtest/upload.php","lat":"-27.4728","lon":"153.0278","distance":0,"name":"Brisbane","country":"Australia","cc":"AU","sponsor":"Neptune Internet","id":"70823","preferred":0,"isp_id":"299995","https_functional":1,"host":"ookla.b2.neptune.net.au.prod.hosts.ooklaserver.net:8080"},
{"url":"http://qld-gdpt-st1.speedtest.aarnet.net.au:8080/speedtest/upload.php","lat":"-27.4728","lon":"153.0278","distance":0,"name":"Brisbane","country":"Australia","cc":"AU","sponsor":"AARNet","id":"6119","preferred":0,"isp_id":"10195","https_functional":1,"host":"qld-gdpt-st1.speedtest.aarnet.net.au:8080"},
{"url":"http://qld.speedtest.exetel.com.au:8080/speedtest/upload.php","lat":"-27.4698","lon":"153.0251","distance":0,"name":"Brisbane","country":"Australia","cc":"AU","sponsor":"Exetel","id":"13276","preferred":0,"isp_id":"908","https_functional":1,"host":"qld.speedtest.exetel.com.au.prod.hosts.ooklaserver.net:8080"},
{"url":"http://qld.speedtest.leaptel.com.au:8080/speedtest/upload.php","lat":"-27.4728","lon":"153.0278","distance":0,"name":"Brisbane","country":"Australia","cc":"AU","sponsor":"Leaptel","id":"32880","preferred":0,"isp_id":"152580","https_functional":1,"host":"qld.speedtest.leaptel.com.au.prod.hosts.ooklaserver.net:8080"},
{"url":"http://spd01-bne.au.superloop.com:8080/speedtest/upload.php","lat":"-27.4728","lon":"153.0278","distance":0,"name":"Brisbane","country":"Australia","cc":"AU","sponsor":"Superloop Australia Pty Ltd","id":"54994","preferred":0,"isp_id":"150616","https_functional":1,"host":"spd01-bne.au.superloop.com.prod.hosts.ooklaserver.net:8080"},
{"url":"http://speed-br2.gigacomm.net.au:8080/speedtest/upload.php","lat":"-27.4728","lon":"153.0278","distance":0,"name":"Brisbane","country":"Australia","cc":"AU","sponsor":"GigaComm Pty Ltd","id":"70701","preferred":0,"isp_id":"192184","https_functional":1,"host":"speed-br2.gigacomm.net.au.prod.hosts.ooklaserver.net:8080"},
{"url":"http://speed.bne.aussiebroadband.com.au:8080/speedtest/upload.php","lat":"-27.4698","lon":"153.0251","distance":0,"name":"Brisbane","country":"Australia","cc":"AU","sponsor":"Aussie Broadband","id":"15134","preferred":0,"isp_id":"7219","https_functional":1,"host":"speed.bne.aussiebroadband.com.au.prod.hosts.ooklaserver.net:8080"},
{"url":"http://speedtest-bne-dn1.empower.net.au:8080/speedtest/upload.php","lat":"-27.4728","lon":"153.0278","distance":0,"name":"Brisbane","country":"Australia","cc":"AU","sponsor":"blueAPACHE","id":"39589","preferred":0,"isp_id":"90205","https_functional":1,"host":"speedtest-bne-dn1.empower.net.au.prod.hosts.ooklaserver.net:8080"},
{"url":"http://speedtest-bne.vocus.net:8080/speedtest/upload.php","lat":"-27.4728","lon":"153.0278","distance":0,"name":"Brisbane","country":"Australia","cc":"AU","sponsor":"Vocus Communications","id":"18248","preferred":0,"isp_id":"27711","https_functional":1,"host":"speedtest-bne.vocus.net.prod.hosts.ooklaserver.net:8080"},
{"url":"http://speedtest-brisbane.macquarietelecom.com:8080/speedtest/upload.php","lat":"-27.4728","lon":"153.0278","distance":0,"name":"Brisbane","country":"Australia","cc":"AU","sponsor":"Macquarie Telecom","id":"45056","preferred":0,"isp_id":"292368","https_functional":1,"host":"speedtest-brisbane.macquarietelecom.com.prod.hosts.ooklaserver.net:8080"},
{"url":"http://speedtest-brisbane.optusnet.com.au:8080/speedtest/upload.php","lat":"-27.4728","lon":"153.0278","distance":0,"name":"Brisbane","country":"Australia","cc":"AU","sponsor":"Optus","id":"1594","preferred":0,"isp_id":"71769","https_functional":1,"host":"speedtest-brisbane.optusnet.com.au:8080"},
{"url":"http://speedtest.b2.mhn.cloud:8080/speedtest/upload.php","lat":"-27.4728","lon":"153.0278","distance":0,"name":"Brisbane","country":"Australia","cc":"AU","sponsor":"Hosted Network","id":"60952","preferred":0,"isp_id":"94872","https_functional":1,"host":"speedtest.b2.mhn.cloud.prod.hosts.ooklaserver.net:8080"},
{"url":"http://speedtest.bri01.launtel.net.au:8080/speedtest/upload.php","lat":"-27.4728","lon":"153.0278","distance":0,"name":"Brisbane","country":"Australia","cc":"AU","sponsor":"Launtel","id":"64079","preferred":0,"isp_id":"137873","https_functional":1,"host":"speedtest.bri01.launtel.net.au.prod.hosts.ooklaserver.net:8080"},
{"url":"http://speedtest.capti.com.au:8080/speedtest/upload.php","lat":"-27.4698","lon":"153.0251","distance":0,"name":"Brisbane","country":"Australia","cc":"AU","sponsor":"Capti","id":"46575","preferred":0,"isp_id":"224931","https_functional":1,"host":"speedtest.capti.com.au.prod.hosts.ooklaserver.net:8080"},
{"url":"http://speedtest.qld.edgeix.net.au:8080/speedtest/upload.php","lat":"-27.4728","lon":"153.0278","distance":0,"name":"Brisbane","country":"Australia","cc":"AU","sponsor":"EdgeIX","id":"60977","preferred":0,"isp_id":"275202","https_functional":1,"host":"speedtest.qld.edgeix.net.au.prod.hosts.ooklaserver.net:8080"},
{"url":"http://speedtest01.bne1.spintel.net.au:8080/speedtest/upload.php","lat":"-27.4705","lon":"153.0260","distance":0,"name":"Brisbane","country":"Australia","cc":"AU","sponsor":"Spintel","id":"72855","preferred":0,"isp_id":"71839","https_functional":1,"host":"speedtest01.bne1.spintel.net.au.prod.hosts.ooklaserver.net:8080"},
{"url":"http://speedtest1.gigafy.com.au:8080/speedtest/upload.php","lat":"-27.4728","lon":"153.0278","distance":0,"name":"Brisbane","country":"Australia","cc":"AU","sponsor":"Gigafy","id":"35757","preferred":0,"isp_id":"171701","https_functional":1,"host":"speedtest1.gigafy.com.au.prod.hosts.ooklaserver.net:8080"},
{"url":"http://act-dksn-st1.speedtest.aarnet.net.au:8080/speedtest/upload.php","lat":"-35.3075","lon":"149.1244","distance":0,"name":"Canberra","country":"Australia","cc":"AU","sponsor":"AARNet","id":"52906","preferred":0,"isp_id":"10195","https_functional":1,"host":"act-dksn-st1.speedtest.aarnet.net.au:8080"},
{"url":"http://cbr1.speedtest.telstra.net:8080/speedtest/upload.php","lat":"-35.2809","lon":"149.1300","distance":0,"name":"Canberra","country":"Australia","cc":"AU","sponsor":"Telstra","id":"18711","preferred":0,"isp_id":"39","https_functional":1,"host":"cbr1.speedtest.telstra.net:8080"},
{"url":"http://speedtest-cbr.cdn.on.net:8080/speedtest/upload.php","lat":"-35.3075","lon":"149.1244","distance":0,"name":"Canberra","country":"Australia","cc":"AU","sponsor":"Internode","id":"2166","preferred":0,"isp_id":"32","https_functional":1,"host":"speedtest-cbr.cdn.on.net.prod.hosts.ooklaserver.net:8080"},
{"url":"http://cha1.speedtest.telstra.net:8080/speedtest/upload.php","lat":"-33.8008","lon":"151.1796","distance":0,"name":"Chatswood","country":"Australia","cc":"AU","sponsor":"Telstra","id":"18713","preferred":0,"isp_id":"39","https_functional":1,"host":"cha1.speedtest.telstra.net:8080"},
{"url":"http://drw1.speedtest.telstra.net:8080/speedtest/upload.php","lat":"-12.4634","lon":"130.8456","distance":0,"name":"Darwin","country":"Australia","cc":"AU","sponsor":"Telstra","id":"22036","preferred":0,"isp_id":"39","https_functional":1,"host":"drw1.speedtest.telstra.net:8080"},
{"url":"http://nt-drwn-st1.speedtest.aarnet.net.au:8080/speedtest/upload.php","lat":"-12.4500","lon":"130.8333","distance":0,"name":"Darwin","country":"Australia","cc":"AU","sponsor":"AARNet","id":"6757","preferred":0,"isp_id":"10195","https_functional":1,"host":"nt-drwn-st1.speedtest.aarnet.net.au:8080"},
{"url":"http://speedtest-darwin.optusnet.com.au:8080/speedtest/upload.php","lat":"-12.4500","lon":"130.8333","distance":0,"name":"Darwin","country":"Australia","cc":"AU","sponsor":"Optus","id":"10438","preferred":0,"isp_id":"71769","https_functional":1,"host":"speedtest-darwin.optusnet.com.au:8080"},
{"url":"https://speedtest-eastburwood.optusnet.com.au:8080/speedtest/upload.php","lat":"-37.8136","lon":"144.9631","distance":0,"name":"East Burwood","country":"Australia","cc":"AU","sponsor":"Optus","id":"9108","preferred":0,"isp_id":"71769","https_functional":1,"host":"speedtest-eastburwood.optusnet.com.au:8080"},
{"url":"http://speedtest.thryve.com.au:8080/speedtest/upload.php","lat":"-33.7960","lon":"151.2770","distance":0,"name":"Fairlight","country":"Australia","cc":"AU","sponsor":"Thryve Group - Thryve Broadband","id":"37994","preferred":0,"isp_id":"201122","https_functional":1,"host":"speedtest.thryve.com.au.prod.hosts.ooklaserver.net:8080"},
{"url":"http://speedtest.yless4u.com.au:8080/speedtest/upload.php","lat":"-35.3290","lon":"149.1740","distance":0,"name":"Fyshwick","country":"Australia","cc":"AU","sponsor":"YLess4U","id":"37133","preferred":0,"isp_id":"79311","https_functional":1,"host":"speedtest.yless4u.com.au.prod.hosts.ooklaserver.net:8080"},
{"url":"http://speedtest-geelong.optusnet.com.au:8080/speedtest/upload.php","lat":"-38.1499","lon":"144.3617","distance":0,"name":"Geelong","country":"Australia","cc":"AU","sponsor":"Optus","id":"10612","preferred":0,"isp_id":"71769","https_functional":1,"host":"speedtest-geelong.optusnet.com.au:8080"},
{"url":"http://ool1.speedtest.telstra.net:8080/speedtest/upload.php","lat":"-28.0160","lon":"153.0167","distance":0,"name":"Gold Coast","country":"Australia","cc":"AU","sponsor":"Telstra","id":"16329","preferred":0,"isp_id":"39","https_functional":1,"host":"ool1.speedtest.telstra.net:8080"},
{"url":"http://speedtest-goldcoast.optusnet.com.au:8080/speedtest/upload.php","lat":"-28.0160","lon":"153.0167","distance":0,"name":"Gold Coast","country":"Australia","cc":"AU","sponsor":"Optus","id":"10441","preferred":0,"isp_id":"71769","https_functional":1,"host":"speedtest-goldcoast.optusnet.com.au:8080"},
{"url":"http://hob1.speedtest.telstra.net:8080/speedtest/upload.php","lat":"-42.8821","lon":"147.3272","distance":0,"name":"Hobart","country":"Australia","cc":"AU","sponsor":"Telstra","id":"18712","preferred":0,"isp_id":"39","https_functional":1,"host":"hob1.speedtest.telstra.net:8080"},
{"url":"http://speedtest-hob.launtel.net.au:8080/speedtest/upload.php","lat":"-42.8806","lon":"147.3250","distance":0,"name":"Hobart","country":"Australia","cc":"AU","sponsor":"Launtel","id":"48679","preferred":0,"isp_id":"137873","https_functional":1,"host":"speedtest-hob.launtel.net.au.prod.hosts.ooklaserver.net:8080"},
{"url":"http://speedtest-hobart.optusnet.com.au:8080/speedtest/upload.php","lat":"-42.8806","lon":"147.3250","distance":0,"name":"Hobart","country":"Australia","cc":"AU","sponsor":"Optus","id":"8976","preferred":0,"isp_id":"71769","https_functional":1,"host":"speedtest-hobart.optusnet.com.au:8080"},
{"url":"http://tas-dwpk-st1.speedtest.aarnet.net.au:8080/speedtest/upload.php","lat":"-42.8806","lon":"147.3250","distance":0,"name":"Hobart","country":"Australia","cc":"AU","sponsor":"AARNet","id":"6369","preferred":0,"isp_id":"10195","https_functional":1,"host":"tas-dwpk-st1.speedtest.aarnet.net.au:8080"},
{"url":"http://speedtest.micron21.com:8080/speedtest/upload.php","lat":"-37.8020","lon":"145.3160","distance":0,"name":"Kilsyth","country":"Australia","cc":"AU","sponsor":"Micron21 Datacentre Pty Ltd","id":"25708","preferred":0,"isp_id":"274791","https_functional":1,"host":"speedtest.micron21.com.prod.hosts.ooklaserver.net:8080"},
{"url":"http://knx.speedtest.optitel.com.au:8080/speedtest/upload.php","lat":"-15.7783","lon":"128.7439","distance":0,"name":"Kununurra","country":"Australia","cc":"AU","sponsor":"OptiTel","id":"48114","preferred":0,"isp_id":"204344","https_functional":1,"host":"knx.speedtest.optitel.com.au.prod.hosts.ooklaserver.net:8080"},
{"url":"http://speedtest-lton.launtel.net.au:8080/speedtest/upload.php","lat":"-41.4391","lon":"147.1358","distance":0,"name":"Launceston","country":"Australia","cc":"AU","sponsor":"Launtel","id":"48503","preferred":0,"isp_id":"137873","https_functional":1,"host":"speedtest-lton.launtel.net.au.prod.hosts.ooklaserver.net:8080"},
{"url":"https://speedtest-limestonecoast.optusnet.com.au:8080/speedtest/upload.php","lat":"-37.8284","lon":"140.7804","distance":0,"name":"Limestone Coast","country":"Australia","cc":"AU","sponsor":"Optus","id":"10439","preferred":0,"isp_id":"71769","https_functional":1,"host":"speedtest-limestonecoast.optusnet.com.au:8080"},
{"url":"http://me1.speedtest.gslnetworks.com.au:8080/speedtest/upload.php","lat":"-37.8136","lon":"144.9631","distance":0,"name":"Melbourne","country":"Australia","cc":"AU","sponsor":"GSL Networks","id":"46114","preferred":0,"isp_id":"274339","https_functional":1,"host":"me1.speedtest.gslnetworks.com.au.prod.hosts.ooklaserver.net:8080"},
{"url":"http://mel1.speedtest.telstra.net:8080/speedtest/upload.php","lat":"-37.8136","lon":"144.9631","distance":0,"name":"Melbourne","country":"Australia","cc":"AU","sponsor":"Telstra","id":"12491","preferred":0,"isp_id":"39","https_functional":1,"host":"mel1.speedtest.telstra.net:8080"},
{"url":"http://melndm1speed1.wireline.com.au:8080/speedtest/upload.php","lat":"-37.8136","lon":"144.9631","distance":0,"name":"Melbourne","country":"Australia","cc":"AU","sponsor":"Wireline Group","id":"29826","preferred":0,"isp_id":"99929","https_functional":1,"host":"melndm1speed1.wireline.com.au.prod.hosts.ooklaserver.net:8080"},
{"url":"http://ookla.me1.neptune.net.au:8080/speedtest/upload.php","lat":"-37.8136","lon":"144.9631","distance":0,"name":"Melbourne","country":"Australia","cc":"AU","sponsor":"Neptune Internet","id":"68925","preferred":0,"isp_id":"299995","https_functional":1,"host":"ookla.me1.neptune.net.au.prod.hosts.ooklaserver.net:8080"},
{"url":"http://spd01-mel.au.superloop.com:8080/speedtest/upload.php","lat":"-37.8136","lon":"144.9631","distance":0,"name":"Melbourne","country":"Australia","cc":"AU","sponsor":"Superloop Australia Pty Ltd","id":"55297","preferred":0,"isp_id":"150616","https_functional":1,"host":"spd01-mel.au.superloop.com.prod.hosts.ooklaserver.net:8080"},
{"url":"http://speed-mel.gigacomm.net.au:8080/speedtest/upload.php","lat":"-37.8136","lon":"144.9631","distance":0,"name":"Melbourne","country":"Australia","cc":"AU","sponsor":"GigaComm Pty Ltd","id":"36100","preferred":0,"isp_id":"192184","https_functional":1,"host":"speed-mel.gigacomm.net.au.prod.hosts.ooklaserver.net:8080"},
{"url":"http://speed.mel.aussiebroadband.com.au:8080/speedtest/upload.php","lat":"-37.8136","lon":"144.9631","distance":0,"name":"Melbourne","country":"Australia","cc":"AU","sponsor":"Aussie Broadband","id":"14670","preferred":0,"isp_id":"7219","https_functional":1,"host":"speed.mel.aussiebroadband.com.au.prod.hosts.ooklaserver.net:8080"},
{"url":"http://speedtest-aus.chainlinkhosting.com:8080/speedtest/upload.php","lat":"-37.8136","lon":"144.9631","distance":0,"name":"Melbourne","country":"Australia","cc":"AU","sponsor":"ChainLinkHosting | ChainLinkNetworks","id":"65167","preferred":0,"isp_id":"174612","https_functional":1,"host":"speedtest-aus.chainlinkhosting.com.prod.hosts.ooklaserver.net:8080"},
{"url":"http://speedtest-mel-dn1.empower.net.au:8080/speedtest/upload.php","lat":"-37.8136","lon":"144.9631","distance":0,"name":"Melbourne","country":"Australia","cc":"AU","sponsor":"blueAPACHE","id":"39561","preferred":0,"isp_id":"90205","https_functional":1,"host":"speedtest-mel-dn1.empower.net.au.prod.hosts.ooklaserver.net:8080"},
{"url":"http://speedtest-mel.vic.au.hostuniversal.com.au:8080/speedtest/upload.php","lat":"-37.8136","lon":"144.9631","distance":0,"name":"Melbourne","country":"Australia","cc":"AU","sponsor":"Host Universal","id":"69525","preferred":0,"isp_id":"136098","https_functional":1,"host":"speedtest-mel.vic.au.hostuniversal.com.au.prod.hosts.ooklaserver.net:8080"},
{"url":"http://speedtest-mel.vocus.net:8080/speedtest/upload.php","lat":"-37.8136","lon":"144.9631","distance":0,"name":"Melbourne","country":"Australia","cc":"AU","sponsor":"Vocus Communications","id":"16207","preferred":0,"isp_id":"27711","https_functional":1,"host":"speedtest-mel.vocus.net.prod.hosts.ooklaserver.net:8080"},
{"url":"http://speedtest-melbourne.macquarietelecom.com:8080/speedtest/upload.php","lat":"-37.8136","lon":"144.9631","distance":0,"name":"Melbourne","country":"Australia","cc":"AU","sponsor":"Macquarie Telecom","id":"45057","preferred":0,"isp_id":"292368","https_functional":1,"host":"speedtest-melbourne.macquarietelecom.com.prod.hosts.ooklaserver.net:8080"},
{"url":"http://speedtest-melbourne.optusnet.com.au:8080/speedtest/upload.php","lat":"-37.8136","lon":"144.9631","distance":0,"name":"Melbourne","country":"Australia","cc":"AU","sponsor":"Optus","id":"30932","preferred":0,"isp_id":"71769","https_functional":1,"host":"speedtest-melbourne.optusnet.com.au:8080"},
{"url":"http://speedtest.mel.mhn.cloud:8080/speedtest/upload.php","lat":"-37.8136","lon":"144.9631","distance":0,"name":"Melbourne","country":"Australia","cc":"AU","sponsor":"Hosted Network","id":"60949","preferred":0,"isp_id":"94872","https_functional":1,"host":"speedtest.mel.mhn.cloud.prod.hosts.ooklaserver.net:8080"},
{"url":"http://speedtest.mel01.launtel.net.au:8080/speedtest/upload.php","lat":"-37.8136","lon":"144.9631","distance":0,"name":"Melbourne","country":"Australia","cc":"AU","sponsor":"Launtel","id":"61764","preferred":0,"isp_id":"137873","https_functional":1,"host":"speedtest.mel01.launtel.net.au.prod.hosts.ooklaserver.net:8080"},
{"url":"http://speedtest.net360.cloud:8080/speedtest/upload.php","lat":"-37.8136","lon":"144.9631","distance":0,"name":"Melbourne","country":"Australia","cc":"AU","sponsor":"NET360","id":"55588","preferred":0,"isp_id":"123385","https_functional":1,"host":"speedtest.net360.cloud.prod.hosts.ooklaserver.net:8080"},
{"url":"http://speedtest01.mel1.spintel.net.au:8080/speedtest/upload.php","lat":"-37.8136","lon":"144.9631","distance":0,"name":"Melbourne","country":"Australia","cc":"AU","sponsor":"Spintel","id":"72276","preferred":0,"isp_id":"71839","https_functional":1,"host":"speedtest01.mel1.spintel.net.au.prod.hosts.ooklaserver.net:8080"},
{"url":"http://vic-pmla-st1.speedtest.aarnet.net.au:8080/speedtest/upload.php","lat":"-37.8136","lon":"144.9631","distance":0,"name":"Melbourne","country":"Australia","cc":"AU","sponsor":"AARNet","id":"60412","preferred":0,"isp_id":"10195","https_functional":1,"host":"vic-pmla-st1.speedtest.aarnet.net.au:8080"},
{"url":"http://vic.speedtest.exetel.com.au:8080/speedtest/upload.php","lat":"-37.8136","lon":"144.9631","distance":0,"name":"Melbourne","country":"Australia","cc":"AU","sponsor":"Exetel","id":"13275","preferred":0,"isp_id":"908","https_functional":1,"host":"vic.speedtest.exetel.com.au.prod.hosts.ooklaserver.net:8080"},
{"url":"http://vic.speedtest.leaptel.com.au:8080/speedtest/upload.php","lat":"-37.8136","lon":"144.9631","distance":0,"name":"Melbourne","country":"Australia","cc":"AU","sponsor":"Leaptel","id":"25134","preferred":0,"isp_id":"170214","https_functional":1,"host":"vic.speedtest.leaptel.com.au.prod.hosts.ooklaserver.net:8080"},
{"url":"http://speedtest-moorooka.optusnet.com.au:8080/speedtest/upload.php","lat":"-27.5350","lon":"153.0260","distance":0,"name":"Moorooka","country":"Australia","cc":"AU","sponsor":"Optus","id":"31137","preferred":0,"isp_id":"71769","https_functional":1,"host":"speedtest-moorooka.optusnet.com.au:8080"},
{"url":"http://speedtest-newcastle.optusnet.com.au:8080/speedtest/upload.php","lat":"-32.9283","lon":"151.7817","distance":0,"name":"Newcastle","country":"Australia","cc":"AU","sponsor":"Optus","id":"10440","preferred":0,"isp_id":"71769","https_functional":1,"host":"speedtest-newcastle.optusnet.com.au:8080"},
{"url":"http://pe2.speedtest.gslnetworks.com:8080/speedtest/upload.php","lat":"-31.9554","lon":"115.8585","distance":0,"name":"Perth","country":"Australia","cc":"AU","sponsor":"GSL Networks","id":"50848","preferred":0,"isp_id":"274339","https_functional":1,"host":"pe2.speedtest.gslnetworks.com.prod.hosts.ooklaserver.net:8080"},
{"url":"http://speedtest-sunshinecoast.optusnet.com.au:8080/speedtest/upload.php","lat":"-25.8833","lon":"152.5500","distance":0,"name":"Sunshine","country":"Australia","cc":"AU","sponsor":"Optus","id":"10443","preferred":0,"isp_id":"71769","https_functional":1,"host":"speedtest-sunshinecoast.optusnet.com.au:8080"},
{"url":"http://mcy1.speedtest.telstra.net:8080/speedtest/upload.php","lat":"-25.8833","lon":"152.5500","distance":0,"name":"Sunshine Coast","country":"Australia","cc":"AU","sponsor":"Telstra","id":"17702","preferred":0,"isp_id":"39","https_functional":1,"host":"mcy1.speedtest.telstra.net:8080"},
{"url":"http://au.st.spacecore.pro:8080/speedtest/upload.php","lat":"-33.8600","lon":"151.2111","distance":0,"name":"Sydney","country":"Australia","cc":"AU","sponsor":"SpaceCore.pro | Premium VPS Hosting","id":"69765","preferred":0,"isp_id":"200476","https_functional":1,"host":"au.st.spacecore.pro.prod.hosts.ooklaserver.net:8080"},
{"url":"http://au1.ocean.host:8080/speedtest/upload.php","lat":"-33.8600","lon":"151.2111","distance":0,"name":"Sydney","country":"Australia","cc":"AU","sponsor":"OceanHost","id":"74128","preferred":0,"isp_id":"301370","https_functional":1,"host":"au1.ocean.host:8080"},
{"url":"http://aus-nperf.verizon.net:8080/speedtest/upload.php","lat":"-33.8600","lon":"151.2111","distance":0,"name":"Sydney","country":"Australia","cc":"AU","sponsor":"Verizon","id":"50441","preferred":0,"isp_id":"8041","https_functional":1,"host":"aus-nperf.verizon.net.prod.hosts.ooklaserver.net:8080"},
{"url":"http://ipl3pt.syd.ops.aspac.uu.net:8080/speedtest/upload.php","lat":"-33.8600","lon":"151.2111","distance":0,"name":"Sydney","country":"Australia","cc":"AU","sponsor":"Verizon.com","id":"53599","preferred":0,"isp_id":"8041","https_functional":1,"host":"ipl3pt.syd.ops.aspac.uu.net:8080"},
{"url":"http://nsw-brwy-st1.speedtest.aarnet.net.au:8080/speedtest/upload.php","lat":"-33.8600","lon":"151.2111","distance":0,"name":"Sydney","country":"Australia","cc":"AU","sponsor":"AARNet","id":"6355","preferred":0,"isp_id":"10195","https_functional":1,"host":"nsw-brwy-st1.speedtest.aarnet.net.au:8080"},
{"url":"http://nsw.speedtest.exetel.com.au:8080/speedtest/upload.php","lat":"-33.8600","lon":"151.2111","distance":0,"name":"Sydney","country":"Australia","cc":"AU","sponsor":"Exetel","id":"13279","preferred":0,"isp_id":"908","https_functional":1,"host":"nsw.speedtest.exetel.com.au.prod.hosts.ooklaserver.net:8080"},
{"url":"http://nsw.speedtest.leaptel.com.au:8080/speedtest/upload.php","lat":"-33.8600","lon":"151.2111","distance":0,"name":"Sydney","country":"Australia","cc":"AU","sponsor":"Leaptel","id":"34967","preferred":0,"isp_id":"170214","https_functional":1,"host":"nsw.speedtest.leaptel.com.au.prod.hosts.ooklaserver.net:8080"},
{"url":"http://ookla.m3h.as6453.net:8080/speedtest/upload.php","lat":"-33.8623","lon":"151.2077","distance":0,"name":"Sydney","country":"Australia","cc":"AU","sponsor":"Tata Communications","id":"73631","preferred":0,"isp_id":"153522","https_functional":1,"host":"ookla.m3h.as6453.net.prod.hosts.ooklaserver.net:8080"},
{"url":"http://ookla.sy1.neptune.net.au:8080/speedtest/upload.php","lat":"-33.8600","lon":"151.2111","distance":0,"name":"Sydney","country":"Australia","cc":"AU","sponsor":"Neptune Internet","id":"68924","preferred":0,"isp_id":"299995","https_functional":1,"host":"ookla.sy1.neptune.net.au.prod.hosts.ooklaserver.net:8080"},
{"url":"http://pauseq4vost1.datamossa.cloud:8080/speedtest/upload.php","lat":"-33.8600","lon":"151.2111","distance":0,"name":"Sydney","country":"Australia","cc":"AU","sponsor":"DataMossa","id":"27582","preferred":0,"isp_id":"331390","https_functional":1,"host":"pauseq4vost1.datamossa.cloud.prod.hosts.ooklaserver.net:8080"},
{"url":"http://spd03-syd.au.superloop.com:8080/speedtest/upload.php","lat":"-33.8600","lon":"151.2111","distance":0,"name":"Sydney","country":"Australia","cc":"AU","sponsor":"Superloop Australia Pty Ltd","id":"65184","preferred":0,"isp_id":"150616","https_functional":1,"host":"spd03-syd.au.superloop.com.prod.hosts.ooklaserver.net:8080"},
{"url":"http://speed-syd.gigacomm.net.au:8080/speedtest/upload.php","lat":"-33.8600","lon":"151.2111","distance":0,"name":"Sydney","country":"Australia","cc":"AU","sponsor":"GigaComm Pty Ltd","id":"36157","preferred":0,"isp_id":"192184","https_functional":1,"host":"speed-syd.gigacomm.net.au.prod.hosts.ooklaserver.net:8080"},
{"url":"http://speed.syd.aussiebroadband.com.au:8080/speedtest/upload.php","lat":"-33.8688","lon":"151.2093","distance":0,"name":"Sydney","country":"Australia","cc":"AU","sponsor":"Aussie Broadband","id":"15132","preferred":0,"isp_id":"7219","https_functional":1,"host":"speed.syd.aussiebroadband.com.au.prod.hosts.ooklaserver.net:8080"},
{"url":"http://speed4.snap.net.nz:8080/speedtest/upload.php","lat":"-33.8600","lon":"151.2111","distance":0,"name":"Sydney","country":"Australia","cc":"AU","sponsor":"2degrees","id":"18392","preferred":0,"isp_id":"114594","https_functional":1,"host":"speed4.snap.net.nz.prod.hosts.ooklaserver.net:8080"},
{"url":"http://speedtest-syd-dn1.empower.net.au:8080/speedtest/upload.php","lat":"-33.8600","lon":"151.2111","distance":0,"name":"Sydney","country":"Australia","cc":"AU","sponsor":"blueAPACHE","id":"39585","preferred":0,"isp_id":"90205","https_functional":1,"host":"speedtest-syd-dn1.empower.net.au.prod.hosts.ooklaserver.net:8080"},
{"url":"http://speedtest-syd.nsw.au.hostuniversal.com.au:8080/speedtest/upload.php","lat":"-33.8600","lon":"151.2111","distance":0,"name":"Sydney","country":"Australia","cc":"AU","sponsor":"Host Universal","id":"68241","preferred":0,"isp_id":"136098","https_functional":1,"host":"speedtest-syd.nsw.au.hostuniversal.com.au.prod.hosts.ooklaserver.net:8080"},
{"url":"http://speedtest-syd.thecore.net.au:8080/speedtest/upload.php","lat":"-33.8600","lon":"151.2111","distance":0,"name":"Sydney","country":"Australia","cc":"AU","sponsor":"Real World","id":"63404","preferred":0,"isp_id":"73511","https_functional":1,"host":"speedtest-syd.thecore.net.au.prod.hosts.ooklaserver.net:8080"},
{"url":"http://speedtest-syd.vocus.net:8080/speedtest/upload.php","lat":"-33.8600","lon":"151.2111","distance":0,"name":"Sydney","country":"Australia","cc":"AU","sponsor":"Vocus Communications","id":"17618","preferred":0,"isp_id":"27711","https_functional":1,"host":"speedtest-syd.vocus.net.prod.hosts.ooklaserver.net:8080"},
{"url":"http://speedtest-syd0.encoo.com.au:8080/speedtest/upload.php","lat":"-33.8600","lon":"151.2111","distance":0,"name":"Sydney","country":"Australia","cc":"AU","sponsor":"Encoo","id":"54213","preferred":0,"isp_id":"112532","https_functional":1,"host":"speedtest-syd0.encoo.com.au.prod.hosts.ooklaserver.net:8080"},
{"url":"http://speedtest-sydney.macquarietelecom.com:8080/speedtest/upload.php","lat":"-33.8600","lon":"151.2111","distance":0,"name":"Sydney","country":"Australia","cc":"AU","sponsor":"Macquarie Telecom","id":"45033","preferred":0,"isp_id":"292368","https_functional":1,"host":"speedtest-sydney.macquarietelecom.com.prod.hosts.ooklaserver.net:8080"},
{"url":"http://speedtest-sydney.optusnet.com.au:8080/speedtest/upload.php","lat":"-33.8600","lon":"151.2111","distance":0,"name":"Sydney","country":"Australia","cc":"AU","sponsor":"Optus","id":"1267","preferred":0,"isp_id":"71769","https_functional":1,"host":"speedtest-sydney.optusnet.com.au:8080"},
{"url":"http://speedtest.mirror.digitalpacific.com.au:8080/speedtest/upload.php","lat":"-33.8600","lon":"151.2111","distance":0,"name":"Sydney","country":"Australia","cc":"AU","sponsor":"Digital Pacific","id":"5744","preferred":0,"isp_id":"275078","https_functional":1,"host":"speedtest.mirror.digitalpacific.com.au.prod.hosts.ooklaserver.net:8080"},
{"url":"http://speedtest.mirror.serversaustralia.com.au:8080/speedtest/upload.php","lat":"-33.8600","lon":"151.2111","distance":0,"name":"Sydney","country":"Australia","cc":"AU","sponsor":"Servers Australia","id":"39108","preferred":0,"isp_id":"45372","https_functional":1,"host":"speedtest.mirror.serversaustralia.com.au.prod.hosts.ooklaserver.net:8080"},
{"url":"http://speedtest.syd.mhn.cloud:8080/speedtest/upload.php","lat":"-33.8600","lon":"151.2111","distance":0,"name":"Sydney","country":"Australia","cc":"AU","sponsor":"Hosted Network","id":"44473","preferred":0,"isp_id":"94872","https_functional":1,"host":"speedtest.syd.mhn.cloud.prod.hosts.ooklaserver.net:8080"},
{"url":"http://speedtest.syd01.launtel.net.au:8080/speedtest/upload.php","lat":"-33.8600","lon":"151.2111","distance":0,"name":"Sydney","country":"Australia","cc":"AU","sponsor":"Launtel","id":"61743","preferred":0,"isp_id":"137873","https_functional":1,"host":"speedtest.syd01.launtel.net.au.prod.hosts.ooklaserver.net:8080"},
{"url":"http://speedtest01.syd1.spintel.net.au:8080/speedtest/upload.php","lat":"-33.8600","lon":"151.2111","distance":0,"name":"Sydney","country":"Australia","cc":"AU","sponsor":"Spintel","id":"58437","preferred":0,"isp_id":"71839","https_functional":1,"host":"speedtest01.syd1.spintel.net.au.prod.hosts.ooklaserver.net:8080"},
{"url":"http://sy5.test.gslnetworks.com.au:8080/speedtest/upload.php","lat":"-33.8600","lon":"151.2111","distance":0,"name":"Sydney","country":"Australia","cc":"AU","sponsor":"GSL Networks","id":"44735","preferred":0,"isp_id":"274339","https_functional":1,"host":"sy5.test.gslnetworks.com.au.prod.hosts.ooklaserver.net:8080"},
{"url":"http://syd.speedtest.contabo.net:8080/speedtest/upload.php","lat":"-33.8600","lon":"151.2111","distance":0,"name":"Sydney","country":"Australia","cc":"AU","sponsor":"Contabo","id":"54360","preferred":0,"isp_id":"247516","https_functional":1,"host":"syd.speedtest.contabo.net:8080"},
{"url":"http://syd1.speedtest.telstra.net:8080/speedtest/upload.php","lat":"-33.8600","lon":"151.2111","distance":0,"name":"Sydney","country":"Australia","cc":"AU","sponsor":"Telstra","id":"12492","preferred":0,"isp_id":"39","https_functional":1,"host":"syd1.speedtest.telstra.net:8080"},
{"url":"http://sydgs2speed4.wireline.com.au:8080/speedtest/upload.php","lat":"-33.8600","lon":"151.2111","distance":0,"name":"Sydney","country":"Australia","cc":"AU","sponsor":"Wireline Group","id":"54817","preferred":0,"isp_id":"99929","https_functional":1,"host":"sydgs2speed4.wireline.com.au.prod.hosts.ooklaserver.net:8080"},
{"url":"http://sydspeedtest.rackdog.com:8080/speedtest/upload.php","lat":"-33.8600","lon":"151.2111","distance":0,"name":"Sydney","country":"Australia","cc":"AU","sponsor":"Rackdog","id":"46372","preferred":0,"isp_id":"275281","https_functional":1,"host":"sydspeedtest.rackdog.com.prod.hosts.ooklaserver.net:8080"},
{"url":"http://sydspeedtest.solitary.net.au:8080/speedtest/upload.php","lat":"-33.8600","lon":"151.2111","distance":0,"name":"Sydney","country":"Australia","cc":"AU","sponsor":"Solitary Technology","id":"73770","preferred":0,"isp_id":"295992","https_functional":1,"host":"sydspeedtest.solitary.net.au.prod.hosts.ooklaserver.net:8080"},
{"url":"http://speedtest-townsville.optusnet.com.au:8080/speedtest/upload.php","lat":"-19.2590","lon":"146.8169","distance":0,"name":"Townsville","country":"Australia","cc":"AU","sponsor":"Optus","id":"10442","preferred":0,"isp_id":"71769","https_functional":1,"host":"speedtest-townsville.optusnet.com.au:8080"},
{"url":"http://win1.speedtest.telstra.net:8080/speedtest/upload.php","lat":"-37.8540","lon":"144.9880","distance":0,"name":"Windsor","country":"Australia","cc":"AU","sponsor":"Telstra","id":"18714","preferred":0,"isp_id":"39","https_functional":1,"host":"win1.speedtest.telstra.net:8080"},
{"url":"http://at.blackhost.network:8080/speedtest/upload.php","lat":"48.2088","lon":"16.3726","distance":0,"name":"Vienna","country":"Austria","cc":"AT","sponsor":"BlackHOST Ltd.","id":"46058","preferred":0,"isp_id":"478","https_functional":1,"host":"at.blackhost.network.prod.hosts.ooklaserver.net:8080"},
{"url":"https://lg-vie.fdcservers.net:8080/speedtest/upload.php","lat":"48.2088","lon":"16.3726","distance":0,"name":"Vienna","country":"Austria","cc":"AT","sponsor":"fdcservers.net","id":"6070","preferred":0,"isp_id":"27716","host":"lg-vie.fdcservers.net:8080"},
{"url":"http://ookla.evolushost.com:8080/speedtest/upload.php","lat":"48.2088","lon":"16.3726","distance":0,"name":"Vienna","country":"Austria","cc":"AT","sponsor":"Evolushost","id":"70748","preferred":0,"isp_id":"295287","https_functional":1,"host":"ookla.evolushost.com.prod.hosts.ooklaserver.net:8080"},
{"url":"http://speedtest-sa.magenta.at:8080/speedtest/upload.php","lat":"48.2088","lon":"16.3726","distance":0,"name":"Vienna","country":"Austria","cc":"AT","sponsor":"Magenta Telekom","id":"69855","preferred":0,"isp_id":"195567","https_functional":1,"host":"speedtest-sa.magenta.at.prod.hosts.ooklaserver.net:8080"},
{"url":"http://speedtest-vix.cosys.cc:8080/speedtest/upload.php","lat":"48.2088","lon":"16.3726","distance":0,"name":"Vienna","country":"Austria","cc":"AT","sponsor":"COSYS DATA GmbH","id":"16161","preferred":0,"isp_id":"162617","https_functional":1,"host":"speedtest-vix.cosys.cc.prod.hosts.ooklaserver.net:8080"},
{"url":"http://speedtest.alwyzon.net:8080/speedtest/upload.php","lat":"48.2082","lon":"16.3738","distance":0,"name":"Vienna","country":"Austria","cc":"AT","sponsor":"Alwyzon","id":"51547","preferred":0,"isp_id":"213979","https_functional":1,"host":"speedtest.alwyzon.net.prod.hosts.ooklaserver.net:8080"},
{"url":"http://speedtest.ama-networx.net:8080/speedtest/upload.php","lat":"48.2088","lon":"16.3726","distance":0,"name":"Vienna","country":"Austria","cc":"AT","sponsor":"AMA netwoRX GmbH","id":"16472","preferred":0,"isp_id":"154865","https_functional":1,"host":"speedtest.ama-networx.net:8080"},
{"url":"http://speedtest.blizznet.at:8080/speedtest/upload.php","lat":"48.2088","lon":"16.3726","distance":0,"name":"Vienna","country":"Austria","cc":"AT","sponsor":"Wien Energie Business","id":"62623","preferred":0,"isp_id":"64803","host":"speedtest.blizznet.at:8080"},
{"url":"http://speedtest.drei.at:8080/speedtest/upload.php","lat":"48.2088","lon":"16.3726","distance":0,"name":"Vienna","country":"Austria","cc":"AT","sponsor":"Hutchison Drei Austria GmbH","id":"1738","preferred":0,"isp_id":"17566","https_functional":1,"host":"speedtest.drei.at.prod.hosts.ooklaserver.net:8080"},
{"url":"http://speedtest.fonira.at:8080/speedtest/upload.php","lat":"48.2082","lon":"16.3738","distance":0,"name":"Vienna","country":"Austria","cc":"AT","sponsor":"fonira Telekom GmbH","id":"15152","preferred":0,"isp_id":"167019","https_functional":1,"host":"speedtest.fonira.at.prod.hosts.ooklaserver.net:8080"},
{"url":"http://speedtest.ftth.wien:8080/speedtest/upload.php","lat":"48.2088","lon":"16.3726","distance":0,"name":"Vienna","country":"Austria","cc":"AT","sponsor":"Wien Energie Superschnell","id":"63719","preferred":0,"isp_id":"64803","https_functional":1,"host":"speedtest.ftth.wien:8080"},
{"url":"http://speedtest.kapper.net:8080/speedtest/upload.php","lat":"48.2088","lon":"16.3726","distance":0,"name":"Vienna","country":"Austria","cc":"AT","sponsor":"kapper.net","id":"7412","preferred":0,"isp_id":"30793","https_functional":1,"host":"speedtest.kapper.net.prod.hosts.ooklaserver.net:8080"},
{"url":"http://speedtest.kraftcom.at:8080/speedtest/upload.php","lat":"48.2088","lon":"16.3726","distance":0,"name":"Vienna","country":"Austria","cc":"AT","sponsor":"KraftCom Service GmbH","id":"15904","preferred":0,"isp_id":"84371","https_functional":1,"host":"speedtest.kraftcom.at.prod.hosts.ooklaserver.net:8080"},
{"url":"http://speedtest.nessus.at:8080/speedtest/upload.php","lat":"48.2088","lon":"16.3726","distance":0,"name":"Vienna","country":"Austria","cc":"AT","sponsor":"Nessus GmbH (10G Uplink)","id":"3744","preferred":0,"isp_id":"87949","https_functional":1,"host":"speedtest.nessus.at.prod.hosts.ooklaserver.net:8080"},
{"url":"http://speedtest.netcup.at:8080/speedtest/upload.php","lat":"48.2088","lon":"16.3726","distance":0,"name":"Vienna","country":"Austria","cc":"AT","sponsor":"netcup GmbH","id":"60470","preferred":0,"isp_id":"267444","https_functional":1,"host":"speedtest.netcup.at:8080"},
{"url":"http://speedtest.nextlayer.at:8080/speedtest/upload.php","lat":"48.2088","lon":"16.3726","distance":0,"name":"Vienna","country":"Austria","cc":"AT","sponsor":"NEXT LAYER GmbH","id":"3199","preferred":0,"isp_id":"17566","https_functional":1,"host":"speedtest.nextlayer.at:8080"},
{"url":"http://speedtest.telematica.at:8080/speedtest/upload.php","lat":"48.2088","lon":"16.3726","distance":0,"name":"Vienna","country":"Austria","cc":"AT","sponsor":"Telematica","id":"53528","preferred":0,"isp_id":"320882","https_functional":1,"host":"speedtest.telematica.at:8080"},
{"url":"http://speedtest03.timewarp.at:8080/speedtest/upload.php","lat":"48.2081","lon":"16.3713","distance":0,"name":"Vienna","country":"Austria","cc":"AT","sponsor":"Timewarp IT Consulting GmbH","id":"45732","preferred":0,"isp_id":"96205","https_functional":1,"host":"speedtest03.timewarp.at.prod.hosts.ooklaserver.net:8080"},
{"url":"http://speedtest0401.anexia-it.com:8080/speedtest/upload.php","lat":"48.2088","lon":"16.3726","distance":0,"name":"Vienna","country":"Austria","cc":"AT","sponsor":"Anexia","id":"12777","preferred":0,"isp_id":"320882","https_functional":1,"host":"speedtest0401.anexia-it.com:8080"},
{"url":"http://speedtest.link.bm:8080/speedtest/upload.php","lat":"32.3134","lon":"-64.7311","distance":0,"name":"Smith's Parish","country":"Bermuda","cc":"BM","sponsor":"LinkBermuda Ltd.","id":"9337","preferred":0,"isp_id":"94761","https_functional":1,"host":"speedtest.link.bm.prod.hosts.ooklaserver.net:8080"},
{"url":"http://speedtest-cam1.cyberlink.net.br:8080/speedtest/upload.php","lat":"-12.7002","lon":"-38.3253","distance":0,"name":"Camaçari","country":"Brazil","cc":"BR","sponsor":"Cyberlink","id":"71810","preferred":0,"isp_id":"185806","https_functional":1,"host":"speedtest-cam1.cyberlink.net.br:8080"},
{"url":"http://speedtest.cyberline.com.br:8080/speedtest/upload.php","lat":"-16.6667","lon":"-49.2667","distance":0,"name":"Goiânia","country":"Brazil","cc":"BR","sponsor":"CYBERLINE FIBRA","id":"27442","preferred":0,"isp_id":"201855","https_functional":1,"host":"speedtest.cyberline.com.br:8080"},
{"url":"http://speedtest.japanettelecom.com.br:8080/speedtest/upload.php","lat":"-23.4849","lon":"-46.3495","distance":0,"name":"Itaquaquecetuba","country":"Brazil","cc":"BR","sponsor":"JAPANET TELECOM","id":"56562","preferred":0,"isp_id":"223300","https_functional":1,"host":"speedtest.japanettelecom.com.br:8080"},
{"url":"http://inova.net.gegnet.com.br:8080/speedtest/upload.php","lat":"-26.6776","lon":"-53.3190","distance":0,"name":"Romelândia","country":"Brazil","cc":"BR","sponsor":"Clic Internet","id":"51268","preferred":0,"isp_id":"77826","host":"inova.net.gegnet.com.br:8080"},
{"url":"http://speed.fyberlink.com.br:8080/speedtest/upload.php","lat":"-1.2270","lon":"-48.2960","distance":0,"name":"Santa Barbara do Pará","country":"Brazil","cc":"BR","sponsor":"Fyberlink","id":"71241","preferred":0,"isp_id":"290410","https_functional":1,"host":"speed.fyberlink.com.br.prod.hosts.ooklaserver.net:8080"},
{"url":"http://sof.speedtest.gslnetworks.com:8080/speedtest/upload.php","lat":"42.6951","lon":"23.3250","distance":0,"name":"Sofia","country":"Bulgaria","cc":"BG","sponsor":"GSL Networks","id":"65090","preferred":0,"isp_id":"241570","https_functional":1,"host":"sof.speedtest.gslnetworks.com.prod.hosts.ooklaserver.net:8080"},
{"url":"http://speedtest.systemlifeline.com:8080/speedtest/upload.php","lat":"43.7315","lon":"-79.7624","distance":0,"name":"Brampton, ON","country":"Canada","cc":"CA","sponsor":"System Lifeline Inc.","id":"23625","preferred":0,"isp_id":"212871","https_functional":1,"host":"speedtest.systemlifeline.com.prod.hosts.ooklaserver.net:8080"},
{"url":"http://stbrampton.netcrawler.ca:8080/speedtest/upload.php","lat":"43.7315","lon":"-79.7624","distance":0,"name":"Brampton, ON","country":"Canada","cc":"CA","sponsor":"Netcrawler.ca Internet","id":"51020","preferred":0,"isp_id":"226932","https_functional":1,"host":"stbrampton.netcrawler.ca.prod.hosts.ooklaserver.net:8080"},
{"url":"http://stbrampton.rogers.com:8080/speedtest/upload.php","lat":"43.7315","lon":"-79.7624","distance":0,"name":"Brampton, ON","country":"Canada","cc":"CA","sponsor":"Rogers","id":"46148","preferred":0,"isp_id":"164","https_functional":1,"host":"stbrampton.rogers.com:8080"},
{"url":"http://wirelinespeedtestbrampton.srvr.bell.ca:8080/speedtest/upload.php","lat":"43.7315","lon":"-79.7624","distance":0,"name":"Brampton, ON","country":"Canada","cc":"CA","sponsor":"Bell Canada","id":"53395","preferred":0,"isp_id":"0","https_functional":1,"host":"wirelinespeedtestbrampton.srvr.bell.ca.prod.hosts.ooklaserver.net:8080"},
{"url":"http://stbrantford.rogers.com:8080/speedtest/upload.php","lat":"43.1394","lon":"-80.2644","distance":0,"name":"Brantford, ON","country":"Canada","cc":"CA","sponsor":"Rogers","id":"47541","preferred":0,"isp_id":"164","https_functional":1,"host":"stbrantford.rogers.com:8080"},
{"url":"http://stbrantfordwireless.rogers.com:8080/speedtest/upload.php","lat":"43.1394","lon":"-80.2644","distance":0,"name":"Brantford, ON","country":"Canada","cc":"CA","sponsor":"Rogers Wireless","id":"46139","preferred":0,"isp_id":"164","https_functional":1,"host":"stbrantfordwireless.rogers.com:8080"},
{"url":"http://speedtest.cogeco.ca:8080/speedtest/upload.php","lat":"43.3255","lon":"-79.7990","distance":0,"name":"Burlington, ON","country":"Canada","cc":"CA","sponsor":"Cogeco Connexion Inc.","id":"17341","preferred":0,"isp_id":"282","https_functional":1,"host":"speedtest.cogeco.ca:8080"},
{"url":"http://wirelinespeedtestburlington.srvr.bell.ca:8080/speedtest/upload.php","lat":"43.3255","lon":"-79.7990","distance":0,"name":"Burlington, ON","country":"Canada","cc":"CA","sponsor":"Bell Canada","id":"46797","preferred":0,"isp_id":"0","https_functional":1,"host":"wirelinespeedtestburlington.srvr.bell.ca.prod.hosts.ooklaserver.net:8080"},
{"url":"http://speed.mpvnetworks.com:8080/speedtest/upload.php","lat":"42.4048","lon":"-82.1910","distance":0,"name":"Chatham, ON","country":"Canada","cc":"CA","sponsor":"MPVWIFI","id":"47304","preferred":0,"isp_id":"208551","https_functional":1,"host":"speed.mpvnetworks.com.prod.hosts.ooklaserver.net:8080"},
{"url":"http://speedtest-tek.teksavvy.com:8080/speedtest/upload.php","lat":"42.4048","lon":"-82.1910","distance":0,"name":"Chatham, ON","country":"Canada","cc":"CA","sponsor":"Teksavvy Solutions Inc.","id":"47750","preferred":0,"isp_id":"2324","host":"speedtest-tek.teksavvy.com:8080"},
{"url":"http://stchathamwireless.rogers.com:8080/speedtest/upload.php","lat":"42.4048","lon":"-82.1910","distance":0,"name":"Chatham, ON","country":"Canada","cc":"CA","sponsor":"Rogers Wireless","id":"47344","preferred":0,"isp_id":"164","https_functional":1,"host":"stchathamwireless.rogers.com:8080"},
{"url":"http://speedtest.gosfieldtel.ca:8080/speedtest/upload.php","lat":"42.1330","lon":"-82.7500","distance":0,"name":"Cottam, ON","country":"Canada","cc":"CA","sponsor":"Gosfield North Communications","id":"11505","preferred":0,"isp_id":"62744","https_functional":1,"host":"speedtest.gosfieldtel.ca.prod.hosts.ooklaserver.net:8080"},
{"url":"http://stetobicoke.netcrawler.ca:8080/speedtest/upload.php","lat":"43.6205","lon":"-79.5132","distance":0,"name":"Etobicoke, ON","country":"Canada","cc":"CA","sponsor":"Netcrawler.ca Internet","id":"51046","preferred":0,"isp_id":"226932","https_functional":1,"host":"stetobicoke.netcrawler.ca.prod.hosts.ooklaserver.net:8080"},
{"url":"http://stetobicoke.rogers.com:8080/speedtest/upload.php","lat":"43.6205","lon":"-79.5132","distance":0,"name":"Etobicoke, ON","country":"Canada","cc":"CA","sponsor":"Rogers","id":"46144","preferred":0,"isp_id":"164","https_functional":1,"host":"stetobicoke.rogers.com:8080"},
{"url":"http://383-2speedtest.wightman.ca:8080/speedtest/upload.php","lat":"43.7060","lon":"-80.3778","distance":0,"name":"Fergus, ON","country":"Canada","cc":"CA","sponsor":"Wightman","id":"54168","preferred":0,"isp_id":"7261","https_functional":1,"host":"383-2speedtest.wightman.ca.prod.hosts.ooklaserver.net:8080"},
{"url":"http://stgeorgetownwireless.rogers.com:8080/speedtest/upload.php","lat":"43.6502","lon":"-79.9036","distance":0,"name":"Georgetown, ON","country":"Canada","cc":"CA","sponsor":"Rogers Wireless","id":"47345","preferred":0,"isp_id":"164","https_functional":1,"host":"stgeorgetownwireless.rogers.com:8080"},
{"url":"http://stguelph.netcrawler.ca:8080/speedtest/upload.php","lat":"43.5448","lon":"-80.2482","distance":0,"name":"Guelph, ON","country":"Canada","cc":"CA","sponsor":"Netcrawler.ca Internet","id":"54122","preferred":0,"isp_id":"226932","https_functional":1,"host":"stguelph.netcrawler.ca.prod.hosts.ooklaserver.net:8080"},
{"url":"http://stguelph.rogers.com:8080/speedtest/upload.php","lat":"43.5448","lon":"-80.2482","distance":0,"name":"Guelph, ON","country":"Canada","cc":"CA","sponsor":"Rogers","id":"46435","preferred":0,"isp_id":"164","https_functional":1,"host":"stguelph.rogers.com:8080"},
{"url":"http://stguelphwireless.rogers.com:8080/speedtest/upload.php","lat":"43.5448","lon":"-80.2482","distance":0,"name":"Guelph, ON","country":"Canada","cc":"CA","sponsor":"Rogers Wireless","id":"47328","preferred":0,"isp_id":"164","https_functional":1,"host":"stguelphwireless.rogers.com:8080"},
{"url":"http://wirelinespeedtestcambridge.srvr.bell.ca:8080/speedtest/upload.php","lat":"43.5448","lon":"-80.2482","distance":0,"name":"Guelph, ON","country":"Canada","cc":"CA","sponsor":"Bell Canada","id":"46805","preferred":0,"isp_id":"0","https_functional":1,"host":"wirelinespeedtestcambridge.srvr.bell.ca.prod.hosts.ooklaserver.net:8080"},
{"url":"http://mobilityooklahamilton.srvr.bell.ca:8080/speedtest/upload.php","lat":"43.2565","lon":"-79.8675","distance":0,"name":"Hamilton, ON","country":"Canada","cc":"CA","sponsor":"Bell Mobility","id":"52347","preferred":0,"isp_id":"0","https_functional":1,"host":"mobilityooklahamilton.srvr.bell.ca.prod.hosts.ooklaserver.net:8080"},
{"url":"http://sp1.hcetelecom.com:8080/speedtest/upload.php","lat":"43.2565","lon":"-79.8675","distance":0,"name":"Hamilton, ON","country":"Canada","cc":"CA","sponsor":"Hamilton Community Enterprises","id":"21275","preferred":0,"isp_id":"245329","host":"sp1.hcetelecom.com:8080"},
{"url":"http://sthamilton.netcrawler.ca:8080/speedtest/upload.php","lat":"43.2565","lon":"-79.8675","distance":0,"name":"Hamilton, ON","country":"Canada","cc":"CA","sponsor":"Netcrawler.ca Internet","id":"54123","preferred":0,"isp_id":"226932","https_functional":1,"host":"sthamilton.netcrawler.ca.prod.hosts.ooklaserver.net:8080"},
{"url":"http://sthamilton.rogers.com:8080/speedtest/upload.php","lat":"43.2565","lon":"-79.8675","distance":0,"name":"Hamilton, ON","country":"Canada","cc":"CA","sponsor":"Rogers","id":"46432","preferred":0,"isp_id":"164","https_functional":1,"host":"sthamilton.rogers.com:8080"},
{"url":"http://sthamiltonwireless.rogers.com:8080/speedtest/upload.php","lat":"43.2565","lon":"-79.8675","distance":0,"name":"Hamilton, ON","country":"Canada","cc":"CA","sponsor":"Rogers Wireless","id":"47326","preferred":0,"isp_id":"164","https_functional":1,"host":"sthamiltonwireless.rogers.com:8080"},
{"url":"http://wirelinespeedtesthamilton.srvr.bell.ca:8080/speedtest/upload.php","lat":"43.2565","lon":"-79.8675","distance":0,"name":"Hamilton, ON","country":"Canada","cc":"CA","sponsor":"Bell Canada","id":"46796","preferred":0,"isp_id":"0","https_functional":1,"host":"wirelinespeedtesthamilton.srvr.bell.ca.prod.hosts.ooklaserver.net:8080"},
{"url":"http://speedtest.brooketel.coop:8080/speedtest/upload.php","lat":"42.8180","lon":"-81.9825","distance":0,"name":"Inwood, ON","country":"Canada","cc":"CA","sponsor":"Brooke Telecom Co-Operative Inc.","id":"55213","preferred":0,"isp_id":"228980","https_functional":1,"host":"speedtest.brooketel.coop.prod.hosts.ooklaserver.net:8080"},
{"url":"http://stkingcity.netcrawler.ca:8080/speedtest/upload.php","lat":"43.9287","lon":"-79.5281","distance":0,"name":"King City, ON","country":"Canada","cc":"CA","sponsor":"Netcrawler.ca Internet","id":"49004","preferred":0,"isp_id":"226932","https_functional":1,"host":"stkingcity.netcrawler.ca.prod.hosts.ooklaserver.net:8080"},
{"url":"http://stkingcity.rogers.com:8080/speedtest/upload.php","lat":"43.9287","lon":"-79.5281","distance":0,"name":"King City, ON","country":"Canada","cc":"CA","sponsor":"Rogers","id":"46434","preferred":0,"isp_id":"164","https_functional":1,"host":"stkingcity.rogers.com:8080"},
{"url":"http://speedtest.quadro.net:8080/speedtest/upload.php","lat":"43.3236","lon":"-81.3133","distance":0,"name":"Kirkton, ON","country":"Canada","cc":"CA","sponsor":"Quadro Communications","id":"54243","preferred":0,"isp_id":"66304","https_functional":1,"host":"speedtest.quadro.net:8080"},
{"url":"http://speed-oak.systemlifeline.com:8080/speedtest/upload.php","lat":"43.4675","lon":"-79.6877","distance":0,"name":"Kitchener, ON","country":"Canada","cc":"CA","sponsor":"SimplyNet Canada Inc.","id":"57872","preferred":0,"isp_id":"212871","https_functional":1,"host":"speed-oak.systemlifeline.com.prod.hosts.ooklaserver.net:8080"},
{"url":"http://speedtest.cloudwifi.ca:8080/speedtest/upload.php","lat":"43.4500","lon":"-80.4833","distance":0,"name":"Kitchener, ON","country":"Canada","cc":"CA","sponsor":"Cloudwifi","id":"16046","preferred":0,"isp_id":"122678","https_functional":1,"host":"speedtest.cloudwifi.ca.prod.hosts.ooklaserver.net:8080"},
{"url":"http://speedtest.netflash.net:8080/speedtest/upload.php","lat":"43.4500","lon":"-80.4833","distance":0,"name":"Kitchener, ON","country":"Canada","cc":"CA","sponsor":"Netflash Internet","id":"1061","preferred":0,"isp_id":"29017","https_functional":1,"host":"speedtest.netflash.net:8080"},
{"url":"http://stkitchener.rogers.com:8080/speedtest/upload.php","lat":"43.4500","lon":"-80.4833","distance":0,"name":"Kitchener, ON","country":"Canada","cc":"CA","sponsor":"Rogers","id":"46809","preferred":0,"isp_id":"164","https_functional":1,"host":"stkitchener.rogers.com:8080"},
{"url":"http://stkitchenerwireless.rogers.com:8080/speedtest/upload.php","lat":"43.4500","lon":"-80.4833","distance":0,"name":"Kitchener, ON","country":"Canada","cc":"CA","sponsor":"Rogers Wireless","id":"46125","preferred":0,"isp_id":"164","https_functional":1,"host":"stkitchenerwireless.rogers.com:8080"},
{"url":"http://wirelinespeedtestkitchener.srvr.bell.ca:8080/speedtest/upload.php","lat":"43.4500","lon":"-80.4833","distance":0,"name":"Kitchener, ON","country":"Canada","cc":"CA","sponsor":"Bell Canada","id":"46804","preferred":0,"isp_id":"0","https_functional":1,"host":"wirelinespeedtestkitchener.srvr.bell.ca.prod.hosts.ooklaserver.net:8080"},
{"url":"http://stleamingtonwireless.rogers.com:8080/speedtest/upload.php","lat":"42.0532","lon":"-82.5999","distance":0,"name":"Leamington, ON","country":"Canada","cc":"CA","sponsor":"Rogers Wireless","id":"47350","preferred":0,"isp_id":"164","https_functional":1,"host":"stleamingtonwireless.rogers.com:8080"},
{"url":"http://speedtest-london.start.ca:8080/speedtest/upload.php","lat":"42.9837","lon":"-81.2497","distance":0,"name":"London, ON","country":"Canada","cc":"CA","sponsor":"Start.ca","id":"24930","preferred":0,"isp_id":"16391","https_functional":1,"host":"speedtest-london.start.ca.prod.hosts.ooklaserver.net:8080"},
{"url":"http://speedtest.nftctelecom.net:8080/speedtest/upload.php","lat":"42.9849","lon":"-81.2453","distance":0,"name":"London, ON","country":"Canada","cc":"CA","sponsor":"NFTC Telecom","id":"14068","preferred":0,"isp_id":"106124","https_functional":1,"host":"speedtest.nftctelecom.net.prod.hosts.ooklaserver.net:8080"},
{"url":"http://stlondon.netcrawler.ca:8080/speedtest/upload.php","lat":"42.9849","lon":"-81.2453","distance":0,"name":"London, ON","country":"Canada","cc":"CA","sponsor":"Netcrawler.ca Internet","id":"54253","preferred":0,"isp_id":"226932","https_functional":1,"host":"stlondon.netcrawler.ca.prod.hosts.ooklaserver.net:8080"},
{"url":"http://stlondon.rogers.com:8080/speedtest/upload.php","lat":"42.9849","lon":"-81.2453","distance":0,"name":"London, ON","country":"Canada","cc":"CA","sponsor":"Rogers","id":"46149","preferred":0,"isp_id":"164","https_functional":1,"host":"stlondon.rogers.com:8080"},
{"url":"http://stlondonwireless.rogers.com:8080/speedtest/upload.php","lat":"42.9849","lon":"-81.2453","distance":0,"name":"London, ON","country":"Canada","cc":"CA","sponsor":"Rogers Wireless","id":"46137","preferred":0,"isp_id":"164","https_functional":1,"host":"stlondonwireless.rogers.com:8080"},
{"url":"http://wirelinespeedtestlondon.srvr.bell.ca:8080/speedtest/upload.php","lat":"42.9849","lon":"-81.2453","distance":0,"name":"London, ON","country":"Canada","cc":"CA","sponsor":"Bell Canada","id":"57695","preferred":0,"isp_id":"254596","https_functional":1,"host":"wirelinespeedtestlondon.srvr.bell.ca.prod.hosts.ooklaserver.net:8080"},
{"url":"http://clg-105-sptest.ncri.com:8080/speedtest/upload.php","lat":"43.6481","lon":"-79.4042","distance":0,"name":"Markham, ON","country":"Canada","cc":"CA","sponsor":"NCRi","id":"59812","preferred":0,"isp_id":"256720","https_functional":1,"host":"clg-105-sptest.ncri.com.prod.hosts.ooklaserver.net:8080"},
{"url":"http://wirelinespeedtestmarkham.srvr.bell.ca:8080/speedtest/upload.php","lat":"43.6481","lon":"-79.4042","distance":0,"name":"Markham, ON","country":"Canada","cc":"CA","sponsor":"Bell Canada","id":"17394","preferred":0,"isp_id":"0","https_functional":1,"host":"wirelinespeedtestmarkham.srvr.bell.ca.prod.hosts.ooklaserver.net:8080"},
{"url":"http://stmilton.rogers.com:8080/speedtest/upload.php","lat":"43.5183","lon":"-79.8774","distance":0,"name":"Milton, ON","country":"Canada","cc":"CA","sponsor":"Rogers","id":"47540","preferred":0,"isp_id":"164","https_functional":1,"host":"stmilton.rogers.com:8080"},
{"url":"http://stmiltonwireless.rogers.com:8080/speedtest/upload.php","lat":"43.5183","lon":"-79.8774","distance":0,"name":"Milton, ON","country":"Canada","cc":"CA","sponsor":"Rogers Wireless","id":"47330","preferred":0,"isp_id":"164","https_functional":1,"host":"stmiltonwireless.rogers.com:8080"},
{"url":"http://speedtest.mornington.ca:8080/speedtest/upload.php","lat":"43.5658","lon":"-80.9222","distance":0,"name":"Milverton, ON","country":"Canada","cc":"CA","sponsor":"Mornington Communications Ltd","id":"10727","preferred":0,"isp_id":"10270","https_functional":1,"host":"speedtest.mornington.ca.prod.hosts.ooklaserver.net:8080"},
{"url":"http://speed-miss.systemlifeline.com:8080/speedtest/upload.php","lat":"43.6000","lon":"-79.6500","distance":0,"name":"Mississauga, ON","country":"Canada","cc":"CA","sponsor":"System Lifeline Inc.","id":"57871","preferred":0,"isp_id":"212871","https_functional":1,"host":"speed-miss.systemlifeline.com.prod.hosts.ooklaserver.net:8080"},
{"url":"http://stmississauga.netcrawler.ca:8080/speedtest/upload.php","lat":"43.6000","lon":"-79.6500","distance":0,"name":"Mississauga, ON","country":"Canada","cc":"CA","sponsor":"Netcrawler.ca Internet","id":"48976","preferred":0,"isp_id":"226932","https_functional":1,"host":"stmississauga.netcrawler.ca.prod.hosts.ooklaserver.net:8080"},
{"url":"http://stmississauga.rogers.com:8080/speedtest/upload.php","lat":"43.6000","lon":"-79.6500","distance":0,"name":"Mississauga, ON","country":"Canada","cc":"CA","sponsor":"Rogers","id":"46147","preferred":0,"isp_id":"164","https_functional":1,"host":"stmississauga.rogers.com:8080"},
{"url":"http://stmississaugawireless.rogers.com:8080/speedtest/upload.php","lat":"43.6000","lon":"-79.6500","distance":0,"name":"Mississauga, ON","country":"Canada","cc":"CA","sponsor":"Rogers Wireless","id":"46123","preferred":0,"isp_id":"164","https_functional":1,"host":"stmississaugawireless.rogers.com:8080"},
{"url":"http://wirelinespeedtestmississauga.srvr.bell.ca:8080/speedtest/upload.php","lat":"43.6000","lon":"-79.6500","distance":0,"name":"Mississauga, ON","country":"Canada","cc":"CA","sponsor":"Bell Canada","id":"56780","preferred":0,"isp_id":"254596","https_functional":1,"host":"wirelinespeedtestmississauga.srvr.bell.ca.prod.hosts.ooklaserver.net:8080"},
{"url":"http://ookla.mtt.as6453.net:8080/speedtest/upload.php","lat":"45.5019","lon":"-73.5674","distance":0,"name":"Montreal, QC","country":"Canada","cc":"CA","sponsor":"Tata Communications","id":"73620","preferred":0,"isp_id":"310556","https_functional":1,"host":"ookla.mtt.as6453.net.prod.hosts.ooklaserver.net:8080"},
{"url":"http://speedtest-mtl.beanfield.com:8080/speedtest/upload.php","lat":"45.5017","lon":"-73.5673","distance":0,"name":"Montreal, QC","country":"Canada","cc":"CA","sponsor":"Beanfield","id":"16045","preferred":0,"isp_id":"4966","https_functional":1,"host":"speedtest-mtl.beanfield.com.prod.hosts.ooklaserver.net:8080"},
{"url":"http://speedtest.cdmsfirst.com:8080/speedtest/upload.php","lat":"45.5017","lon":"-73.5673","distance":0,"name":"Montreal, QC","country":"Canada","cc":"CA","sponsor":"CDMS","id":"63155","preferred":0,"isp_id":"324987","host":"speedtest.cdmsfirst.com:8080"},
{"url":"http://speedtest.xcdtelecom.com:8080/speedtest/upload.php","lat":"45.5017","lon":"-73.5673","distance":0,"name":"Montreal, QC","country":"Canada","cc":"CA","sponsor":"XCD Télécom","id":"59219","preferred":0,"isp_id":"204334","https_functional":1,"host":"speedtest.xcdtelecom.com.prod.hosts.ooklaserver.net:8080"},
{"url":"http://stmontreal.netcrawler.ca:8080/speedtest/upload.php","lat":"45.5019","lon":"-73.5674","distance":0,"name":"Montreal, QC","country":"Canada","cc":"CA","sponsor":"Netcrawler.ca Internet","id":"64420","preferred":0,"isp_id":"226932","https_functional":1,"host":"stmontreal.netcrawler.ca.prod.hosts.ooklaserver.net:8080"},
{"url":"http://stoakville.rogers.com:8080/speedtest/upload.php","lat":"43.4675","lon":"-79.6877","distance":0,"name":"Oakville, ON","country":"Canada","cc":"CA","sponsor":"Rogers","id":"46763","preferred":0,"isp_id":"164","https_functional":1,"host":"stoakville.rogers.com:8080"},
{"url":"http://storangeville.rogers.com:8080/speedtest/upload.php","lat":"43.9200","lon":"-80.0943","distance":0,"name":"Orangeville, ON","country":"Canada","cc":"CA","sponsor":"Rogers","id":"47548","preferred":0,"isp_id":"164","https_functional":1,"host":"storangeville.rogers.com:8080"},
{"url":"http://storangevillewireless.rogers.com:8080/speedtest/upload.php","lat":"43.9200","lon":"-80.0943","distance":0,"name":"Orangeville, ON","country":"Canada","cc":"CA","sponsor":"Rogers Wireless","id":"47354","preferred":0,"isp_id":"164","https_functional":1,"host":"storangevillewireless.rogers.com:8080"},
{"url":"http://speedtest2.hurontel.on.ca:8080/speedtest/upload.php","lat":"44.0688","lon":"-81.5914","distance":0,"name":"Ripley, ON","country":"Canada","cc":"CA","sponsor":"Huron Telecommuncations Co-operative Ltd","id":"55524","preferred":0,"isp_id":"37709","https_functional":1,"host":"speedtest2.hurontel.on.ca.prod.hosts.ooklaserver.net:8080"},
{"url":"http://stsarniawireless.rogers.com:8080/speedtest/upload.php","lat":"42.9745","lon":"-82.4066","distance":0,"name":"Sarnia, ON","country":"Canada","cc":"CA","sponsor":"Rogers Wireless","id":"46128","preferred":0,"isp_id":"164","https_functional":1,"host":"stsarniawireless.rogers.com:8080"},
{"url":"http://stsaultstemariewireless.rogers.com:8080/speedtest/upload.php","lat":"46.5136","lon":"-84.3358","distance":0,"name":"Sault Ste. Marie, ON","country":"Canada","cc":"CA","sponsor":"Rogers Wireless","id":"47340","preferred":0,"isp_id":"164","https_functional":1,"host":"stsaultstemariewireless.rogers.com:8080"},
{"url":"http://speedtest01.ehtel.ca:8080/speedtest/upload.php","lat":"44.0791","lon":"-80.2012","distance":0,"name":"Shelburne, ON","country":"Canada","cc":"CA","sponsor":"EH!tel Networks","id":"53634","preferred":0,"isp_id":"168980","https_functional":1,"host":"speedtest01.ehtel.ca.prod.hosts.ooklaserver.net:8080"},
{"url":"http://ststthomas.rogers.com:8080/speedtest/upload.php","lat":"42.7777","lon":"-81.1827","distance":0,"name":"St. Thomas, ON","country":"Canada","cc":"CA","sponsor":"Rogers","id":"47542","preferred":0,"isp_id":"164","https_functional":1,"host":"ststthomas.rogers.com:8080"},
{"url":"http://ststthomaswireless.rogers.com:8080/speedtest/upload.php","lat":"42.7777","lon":"-81.1827","distance":0,"name":"St. Thomas, ON","country":"Canada","cc":"CA","sponsor":"Rogers Wireless","id":"47346","preferred":0,"isp_id":"164","https_functional":1,"host":"ststthomaswireless.rogers.com:8080"},
{"url":"http://wirelinespeedteststthomas.srvr.bell.ca:8080/speedtest/upload.php","lat":"42.7777","lon":"-81.1827","distance":0,"name":"St. Thomas, ON","country":"Canada","cc":"CA","sponsor":"Bell Canada","id":"43553","preferred":0,"isp_id":"0","https_functional":1,"host":"wirelinespeedteststthomas.srvr.bell.ca.prod.hosts.ooklaserver.net:8080"},
{"url":"http://ststratford.rogers.com:8080/speedtest/upload.php","lat":"43.3700","lon":"-80.9822","distance":0,"name":"Stratford, ON","country":"Canada","cc":"CA","sponsor":"Rogers","id":"47547","preferred":0,"isp_id":"164","https_functional":1,"host":"ststratford.rogers.com:8080"},
{"url":"http://ststratfordwireless.rogers.com:8080/speedtest/upload.php","lat":"43.3700","lon":"-80.9822","distance":0,"name":"Stratford, ON","country":"Canada","cc":"CA","sponsor":"Rogers Wireless","id":"47353","preferred":0,"isp_id":"164","https_functional":1,"host":"ststratfordwireless.rogers.com:8080"},
{"url":"http://speedtest.seaside.ns.ca:8080/speedtest/upload.php","lat":"46.1378","lon":"-60.1829","distance":0,"name":"Sydney, NS","country":"Canada","cc":"CA","sponsor":"Seaside Communications","id":"1245","preferred":0,"isp_id":"29067","https_functional":1,"host":"speedtest.seaside.ns.ca.prod.hosts.ooklaserver.net:8080"},
{"url":"http://wirelinespeedtestsydney.srvr.bell.ca:8080/speedtest/upload.php","lat":"46.1378","lon":"-60.1829","distance":0,"name":"Sydney, NS","country":"Canada","cc":"CA","sponsor":"Bell Canada","id":"55031","preferred":0,"isp_id":"254596","https_functional":1,"host":"wirelinespeedtestsydney.srvr.bell.ca.prod.hosts.ooklaserver.net:8080"},
{"url":"http://wirelinespeedtesttecumseh.srvr.bell.ca:8080/speedtest/upload.php","lat":"42.3118","lon":"-82.8858","distance":0,"name":"Tecumseh, ON","country":"Canada","cc":"CA","sponsor":"Bell Canada","id":"46799","preferred":0,"isp_id":"0","https_functional":1,"host":"wirelinespeedtesttecumseh.srvr.bell.ca.prod.hosts.ooklaserver.net:8080"},
{"url":"http://east-speedtest.frontiernetworks.ca:8080/speedtest/upload.php","lat":"43.6481","lon":"-79.4042","distance":0,"name":"Toronto, ON","country":"Canada","cc":"CA","sponsor":"Frontier Networks Inc","id":"13238","preferred":0,"isp_id":"47813","https_functional":1,"host":"east-speedtest.frontiernetworks.ca.prod.hosts.ooklaserver.net:8080"},
{"url":"http://falcon.its.utoronto.ca:8080/speedtest/upload.php","lat":"43.6481","lon":"-79.4042","distance":0,"name":"Toronto, ON","country":"Canada","cc":"CA","sponsor":"University of Toronto","id":"22138","preferred":0,"isp_id":"680","https_functional":1,"host":"falcon.its.utoronto.ca:8080"},
{"url":"http://lg-tor.fdcservers.net:8080/speedtest/upload.php","lat":"43.6481","lon":"-79.4042","distance":0,"name":"Toronto, ON","country":"Canada","cc":"CA","sponsor":"fdcservers.net","id":"9911","preferred":0,"isp_id":"27716","host":"lg-tor.fdcservers.net:8080"},
{"url":"http://spdtst.xenyth.net:8080/speedtest/upload.php","lat":"43.6481","lon":"-79.4042","distance":0,"name":"Toronto, ON","country":"Canada","cc":"CA","sponsor":"GoCodeIT Inc","id":"38242","preferred":0,"isp_id":"199478","https_functional":1,"host":"spdtst.xenyth.net.prod.hosts.ooklaserver.net:8080"},
{"url":"http://speed.toronto.telmax.ca:8080/speedtest/upload.php","lat":"43.6481","lon":"-79.4042","distance":0,"name":"Toronto, ON","country":"Canada","cc":"CA","sponsor":"telMAX","id":"74035","preferred":0,"isp_id":"174443","https_functional":1,"host":"speed.toronto.telmax.ca.prod.hosts.ooklaserver.net:8080"},
{"url":"http://speedtest-engine.primus.ca/speedtest/upload.php","lat":"43.6487","lon":"-79.3854","distance":0,"name":"Toronto, ON","country":"Canada","cc":"CA","sponsor":"Primus","id":"15038","preferred":0,"isp_id":"861","https_functional":1,"host":"speedtest-engine.primus.ca.prod.hosts.ooklaserver.net:8080"},
{"url":"http://speedtest-tor.beanfield.com:8080/speedtest/upload.php","lat":"43.6481","lon":"-79.4042","distance":0,"name":"Toronto, ON","country":"Canada","cc":"CA","sponsor":"Beanfield","id":"64882","preferred":0,"isp_id":"4966","https_functional":1,"host":"speedtest-tor.beanfield.com.prod.hosts.ooklaserver.net:8080"},
{"url":"http://speedtest.ca-tr.kamatera.com:8080/speedtest/upload.php","lat":"43.6481","lon":"-79.4042","distance":0,"name":"Toronto, ON","country":"Canada","cc":"CA","sponsor":"KamaTera, Inc.","id":"69754","preferred":0,"isp_id":"177546","https_functional":1,"host":"speedtest.ca-tr.kamatera.com.prod.hosts.ooklaserver.net:8080"},
{"url":"http://speedtest.netcrawler.ca:8080/speedtest/upload.php","lat":"43.6481","lon":"-79.4042","distance":0,"name":"Toronto, ON","country":"Canada","cc":"CA","sponsor":"Netcrawler.ca Internet","id":"46580","preferred":0,"isp_id":"226932","https_functional":1,"host":"speedtest.netcrawler.ca.prod.hosts.ooklaserver.net:8080"},
{"url":"http://speedtest.nexicom.net:8080/speedtest/upload.php","lat":"43.6481","lon":"-79.4042","distance":0,"name":"Toronto, ON","country":"Canada","cc":"CA","sponsor":"Nexicom Inc.","id":"826","preferred":0,"isp_id":"768","https_functional":1,"host":"speedtest.nexicom.net.prod.hosts.ooklaserver.net:8080"},
{"url":"http://speedtest1.innsys.ca:8080/speedtest/upload.php","lat":"43.6481","lon":"-79.4042","distance":0,"name":"Toronto, ON","country":"Canada","cc":"CA","sponsor":"InnSys Inc","id":"50317","preferred":0,"isp_id":"65417","https_functional":1,"host":"speedtest1.innsys.ca.prod.hosts.ooklaserver.net:8080"},
{"url":"http://speedtest1.xbase.com:8080/speedtest/upload.php","lat":"43.6481","lon":"-79.4042","distance":0,"name":"Toronto, ON","country":"Canada","cc":"CA","sponsor":"XBASE Technologies","id":"59322","preferred":0,"isp_id":"478","https_functional":1,"host":"speedtest1.xbase.com.prod.hosts.ooklaserver.net:8080"},
{"url":"http://speedtest2-tor.teksavvy.com:8080/speedtest/upload.php","lat":"43.6532","lon":"-79.3832","distance":0,"name":"Toronto, ON","country":"Canada","cc":"CA","sponsor":"Teksavvy Solutions Inc","id":"32632","preferred":0,"isp_id":"2324","https_functional":1,"host":"speedtest2-tor.teksavvy.com.prod.hosts.ooklaserver.net:8080"},
{"url":"http://speedtester.comwave.net:8080/speedtest/upload.php","lat":"43.6481","lon":"-79.4042","distance":0,"name":"Toronto, ON","country":"Canada","cc":"CA","sponsor":"Comwave Networks Inc","id":"31127","preferred":0,"isp_id":"81764","https_functional":1,"host":"speedtester.comwave.net.prod.hosts.ooklaserver.net:8080"},
{"url":"http://sttoronto.rogers.com:8080/speedtest/upload.php","lat":"43.6481","lon":"-79.4042","distance":0,"name":"Toronto, ON","country":"Canada","cc":"CA","sponsor":"Rogers","id":"46143","preferred":0,"isp_id":"164","https_functional":1,"host":"sttoronto.rogers.com:8080"},
{"url":"http://sttorontowireless.rogers.com:8080/speedtest/upload.php","lat":"43.6481","lon":"-79.4042","distance":0,"name":"Toronto, ON","country":"Canada","cc":"CA","sponsor":"Rogers Wireless","id":"46759","preferred":0,"isp_id":"164","https_functional":1,"host":"sttorontowireless.rogers.com:8080"},
{"url":"http:// t4y-toronto-ca-osts1.ser.tek4you.ca:8080/speedtest/upload.php","lat":"43.6481","lon":"-79.4042","distance":0,"name":"Toronto, ON","country":"Canada","cc":"CA","sponsor":"Tek4You Computer Repair & IT Services","id":"54410","preferred":0,"isp_id":"274949","https_functional":1,"host":"t4y-toronto-ca-osts1.ser.tek4you.ca.prod.hosts.ooklaserver.net:8080"},
{"url":"http://tdc01-speedtest.whipcord.com:8080/speedtest/upload.php","lat":"43.6481","lon":"-79.4042","distance":0,"name":"Toronto, ON","country":"Canada","cc":"CA","sponsor":"Whipcord Edge Data Centres","id":"69636","preferred":0,"isp_id":"112588","https_functional":1,"host":"tdc01-speedtest.whipcord.com.prod.hosts.ooklaserver.net:8080"},
{"url":"http://tor-speedtest.net.sangoma.net:8080/speedtest/upload.php","lat":"43.6481","lon":"-79.4042","distance":0,"name":"Toronto, ON","country":"Canada","cc":"CA","sponsor":"Sangoma","id":"63994","preferred":0,"isp_id":"289410","https_functional":1,"host":"tor-speedtest.net.sangoma.net.prod.hosts.ooklaserver.net:8080"},
{"url":"http://tor11speedtest01.srvr.bell.ca:8080/speedtest/upload.php","lat":"43.6481","lon":"-79.4042","distance":0,"name":"Toronto, ON","country":"Canada","cc":"CA","sponsor":"Bell Mobility","id":"16753","preferred":0,"isp_id":"0","https_functional":1,"host":"tor11speedtest01.srvr.bell.ca.prod.hosts.ooklaserver.net:8080"},
{"url":"http://toronto.speedtest.telus.com:8080/speedtest/upload.php","lat":"43.6481","lon":"-79.4042","distance":0,"name":"Toronto, ON","country":"Canada","cc":"CA","sponsor":"TELUS","id":"3575","preferred":0,"isp_id":"256720","https_functional":1,"host":"toronto.speedtest.telus.com.prod.hosts.ooklaserver.net:8080"},
{"url":"http://toronto2.speedtest.telus.com:8080/speedtest/upload.php","lat":"43.6481","lon":"-79.4042","distance":0,"name":"Toronto, ON","country":"Canada","cc":"CA","sponsor":"TELUS Mobility","id":"24698","preferred":0,"isp_id":"256720","https_functional":1,"host":"toronto2.speedtest.telus.com.prod.hosts.ooklaserver.net:8080"},
{"url":"http://trtspeedtest.altimatel.com:8080/speedtest/upload.php","lat":"43.6481","lon":"-79.4042","distance":0,"name":"Toronto, ON","country":"Canada","cc":"CA","sponsor":"Altima Telecom","id":"63649","preferred":0,"isp_id":"72038","https_functional":1,"host":"trtspeedtest.altimatel.com.prod.hosts.ooklaserver.net:8080"},
{"url":"http://wirelinespeedtesttoronto.srvr.bell.ca:8080/speedtest/upload.php","lat":"43.6481","lon":"-79.4042","distance":0,"name":"Toronto, ON","country":"Canada","cc":"CA","sponsor":"Bell Canada","id":"53393","preferred":0,"isp_id":"0","https_functional":1,"host":"wirelinespeedtesttoronto.srvr.bell.ca.prod.hosts.ooklaserver.net:8080"},
{"url":"http://yyz-speedtest.xplore.ca:8080/speedtest/upload.php","lat":"43.6481","lon":"-79.4042","distance":0,"name":"Toronto, ON","country":"Canada","cc":"CA","sponsor":"Xplore Inc","id":"53159","preferred":0,"isp_id":"70988","https_functional":1,"host":"yyz-speedtest.xplore.ca.prod.hosts.ooklaserver.net:8080"},
{"url":"http://speedtest-6.aebc.com:8080/speedtest/upload.php","lat":"49.2505","lon":"-123.1119","distance":0,"name":"Vancouver, BC","country":"Canada","cc":"CA","sponsor":"AEBC Internet","id":"41509","preferred":0,"isp_id":"21032","https_functional":1,"host":"speedtest-6.aebc.com.prod.hosts.ooklaserver.net:8080"},
{"url":"http://speedtest-van.beanfield.com:8080/speedtest/upload.php","lat":"49.2505","lon":"-123.1119","distance":0,"name":"Vancouver, BC","country":"Canada","cc":"CA","sponsor":"Beanfield","id":"67411","preferred":0,"isp_id":"4966","https_functional":1,"host":"speedtest-van.beanfield.com.prod.hosts.ooklaserver.net:8080"},
{"url":"http://speedtest.skywaywest.net:8080/speedtest/upload.php","lat":"49.2505","lon":"-123.1119","distance":0,"name":"Vancouver, BC","country":"Canada","cc":"CA","sponsor":"Skyway West Business Internet Services","id":"3318","preferred":0,"isp_id":"54607","https_functional":1,"host":"speedtest.skywaywest.net.prod.hosts.ooklaserver.net:8080"},
{"url":"http://speedtest.ubc.ca:8080/speedtest/upload.php","lat":"49.2505","lon":"-123.1119","distance":0,"name":"Vancouver, BC","country":"Canada","cc":"CA","sponsor":"The University of British Columbia","id":"19703","preferred":0,"isp_id":"3334","https_functional":1,"host":"speedtest.ubc.ca.prod.hosts.ooklaserver.net:8080"},
{"url":"http://speedtest.vc.shawcable.net:8080/speedtest/upload.php","lat":"49.2505","lon":"-123.1119","distance":0,"name":"Vancouver, BC","country":"Canada","cc":"CA","sponsor":"Shaw Communications","id":"4243","preferred":0,"isp_id":"164","https_functional":1,"host":"speedtest.vc.shawcable.net:8080"},
{"url":"http://stvancouverwireless.rogers.com:8080/speedtest/upload.php","lat":"49.2505","lon":"-123.1119","distance":0,"name":"Vancouver, BC","country":"Canada","cc":"CA","sponsor":"Rogers Wireless","id":"46406","preferred":0,"isp_id":"164","https_functional":1,"host":"stvancouverwireless.rogers.com:8080"},
{"url":"http://vancnspd01.srvr.bell.ca:8080/speedtest/upload.php","lat":"49.2505","lon":"-123.1119","distance":0,"name":"Vancouver, BC","country":"Canada","cc":"CA","sponsor":"Bell Mobility","id":"17402","preferred":0,"isp_id":"0","https_functional":1,"host":"vancnspd01.srvr.bell.ca.prod.hosts.ooklaserver.net:8080"},
{"url":"http://vancouver.speedtest.telus.com:8080/speedtest/upload.php","lat":"49.2505","lon":"-123.1119","distance":0,"name":"Vancouver, BC","country":"Canada","cc":"CA","sponsor":"TELUS","id":"3049","preferred":0,"isp_id":"256720","https_functional":1,"host":"vancouver.speedtest.telus.com.prod.hosts.ooklaserver.net:8080"},
{"url":"http://vancouver2.speedtest.telus.com:8080/speedtest/upload.php","lat":"49.2505","lon":"-123.1119","distance":0,"name":"Vancouver, BC","country":"Canada","cc":"CA","sponsor":"TELUS Mobility","id":"16781","preferred":0,"isp_id":"256720","https_functional":1,"host":"vancouver2.speedtest.telus.com.prod.hosts.ooklaserver.net:8080"},
{"url":"http://west-speedtest.frontiernetworks.ca:8080/speedtest/upload.php","lat":"49.2505","lon":"-123.1119","distance":0,"name":"Vancouver, BC","country":"Canada","cc":"CA","sponsor":"Frontier Networks Inc","id":"17168","preferred":0,"isp_id":"47813","https_functional":1,"host":"west-speedtest.frontiernetworks.ca:8080"},
{"url":"http://stvaughan.netcrawler.ca:8080/speedtest/upload.php","lat":"43.8563","lon":"-79.5085","distance":0,"name":"Vaughan, ON","country":"Canada","cc":"CA","sponsor":"Netcrawler.ca Internet","id":"49003","preferred":0,"isp_id":"226932","https_functional":1,"host":"stvaughan.netcrawler.ca.prod.hosts.ooklaserver.net:8080"},
{"url":"http://stvaughan.rogers.com:8080/speedtest/upload.php","lat":"43.8563","lon":"-79.5085","distance":0,"name":"Vaughan, ON","country":"Canada","cc":"CA","sponsor":"Rogers","id":"46764","preferred":0,"isp_id":"164","https_functional":1,"host":"stvaughan.rogers.com:8080"},
{"url":"http://speedtest.packetworks.net:8080/speedtest/upload.php","lat":"43.4667","lon":"-80.5167","distance":0,"name":"Waterloo, ON","country":"Canada","cc":"CA","sponsor":"Packetworks","id":"22208","preferred":0,"isp_id":"3694","https_functional":1,"host":"speedtest.packetworks.net:8080"},
{"url":"http://stwaterloo.netcrawler.ca:8080/speedtest/upload.php","lat":"43.4667","lon":"-80.5167","distance":0,"name":"Waterloo, ON","country":"Canada","cc":"CA","sponsor":"Netcrawler.ca Internet","id":"54207","preferred":0,"isp_id":"226932","https_functional":1,"host":"stwaterloo.netcrawler.ca.prod.hosts.ooklaserver.net:8080"},
{"url":"http://stwaterloo.rogers.com:8080/speedtest/upload.php","lat":"43.4667","lon":"-80.5167","distance":0,"name":"Waterloo, ON","country":"Canada","cc":"CA","sponsor":"Rogers","id":"46765","preferred":0,"isp_id":"164","https_functional":1,"host":"stwaterloo.rogers.com:8080"},
{"url":"http://tor63spd02.srvr.bell.ca:8080/speedtest/upload.php","lat":"43.4667","lon":"-80.5167","distance":0,"name":"Waterloo, ON","country":"Canada","cc":"CA","sponsor":"Bell Mobility","id":"46914","preferred":0,"isp_id":"0","https_functional":1,"host":"tor63spd02.srvr.bell.ca.prod.hosts.ooklaserver.net:8080"},
{"url":"http://stwellandpelhamwireless.rogers.com:8080/speedtest/upload.php","lat":"42.9922","lon":"-79.2483","distance":0,"name":"Welland–Pelham, ON","country":"Canada","cc":"CA","sponsor":"Rogers Wireless","id":"47341","preferred":0,"isp_id":"164","https_functional":1,"host":"stwellandpelhamwireless.rogers.com:8080"},
{"url":"http://speedtest.fibernetics.ca:8080/speedtest/upload.php","lat":"43.4500","lon":"-80.4833","distance":0,"name":"Whitby, ON","country":"Canada","cc":"CA","sponsor":"Fibernetics Corporation","id":"68661","preferred":0,"isp_id":"76203","https_functional":1,"host":"speedtest.fibernetics.ca:8080"},
{"url":"http://40gspeedtest.mnsi.net:8080/speedtest/upload.php","lat":"42.2833","lon":"-83.0000","distance":0,"name":"Windsor, ON","country":"Canada","cc":"CA","sponsor":"MNSi Telecom","id":"55994","preferred":0,"isp_id":"2217","https_functional":1,"host":"40gspeedtest.mnsi.net:8080"},
{"url":"http://mobilityooklawindsor.srvr.bell.ca:8080/speedtest/upload.php","lat":"42.2833","lon":"-83.0000","distance":0,"name":"Windsor, ON","country":"Canada","cc":"CA","sponsor":"Bell Mobility","id":"52350","preferred":0,"isp_id":"0","https_functional":1,"host":"mobilityooklawindsor.srvr.bell.ca.prod.hosts.ooklaserver.net:8080"},
{"url":"http://stwindsorwireless.rogers.com:8080/speedtest/upload.php","lat":"42.2833","lon":"-83.0000","distance":0,"name":"Windsor, ON","country":"Canada","cc":"CA","sponsor":"Rogers Wireless","id":"46126","preferred":0,"isp_id":"164","https_functional":1,"host":"stwindsorwireless.rogers.com:8080"},
{"url":"http://wirelinespeedtestwindsor.srvr.bell.ca:8080/speedtest/upload.php","lat":"42.2833","lon":"-83.0000","distance":0,"name":"Windsor, ON","country":"Canada","cc":"CA","sponsor":"Bell Canada","id":"46798","preferred":0,"isp_id":"0","https_functional":1,"host":"wirelinespeedtestwindsor.srvr.bell.ca.prod.hosts.ooklaserver.net:8080"},
{"url":"http://speedtest.execulink.ca:8080/speedtest/upload.php","lat":"43.1315","lon":"-80.7472","distance":0,"name":"Woodstock, ON","country":"Canada","cc":"CA","sponsor":"Execulink Telecom Inc","id":"16447","preferred":0,"isp_id":"47737","host":"speedtest.execulink.ca:8080"},
{"url":"http://stwoodstock.rogers.com:8080/speedtest/upload.php","lat":"43.1315","lon":"-80.7472","distance":0,"name":"Woodstock, ON","country":"Canada","cc":"CA","sponsor":"Rogers","id":"47543","preferred":0,"isp_id":"164","https_functional":1,"host":"stwoodstock.rogers.com:8080"},
{"url":"http://stwoodstockwireless.rogers.com:8080/speedtest/upload.php","lat":"43.1315","lon":"-80.7472","distance":0,"name":"Woodstock, ON","country":"Canada","cc":"CA","sponsor":"Rogers Wireless","id":"47348","preferred":0,"isp_id":"164","https_functional":1,"host":"stwoodstockwireless.rogers.com:8080"},
{"url":"http://mobilityooklanorthyork.srvr.bell.ca:8080/speedtest/upload.php","lat":"43.6957","lon":"-79.4504","distance":0,"name":"York, ON","country":"Canada","cc":"CA","sponsor":"Bell Mobility","id":"52346","preferred":0,"isp_id":"0","https_functional":1,"host":"mobilityooklanorthyork.srvr.bell.ca.prod.hosts.ooklaserver.net:8080"},
{"url":"http://speedtest.hay.net:8080/speedtest/upload.php","lat":"43.4214","lon":"-81.6258","distance":0,"name":"Zurich, ON","country":"Canada","cc":"CA","sponsor":"Hay Communications","id":"5667","preferred":0,"isp_id":"173540","https_functional":1,"host":"speedtest.hay.net:8080"},
{"url":"http://speedtest.telbo.net:8080/speedtest/upload.php","lat":"12.1507","lon":"-68.2767","distance":0,"name":"Kralendijk","country":"Caribbean Netherlands","cc":"BQ","sponsor":"Telbo NV","id":"35081","preferred":0,"isp_id":"75115","https_functional":1,"host":"speedtest.telbo.net.prod.hosts.ooklaserver.net:8080"},
{"url":"http://sp1.biocablesur.cl:8080/speedtest/upload.php","lat":"-37.4629","lon":"-72.3612","distance":0,"name":"Los Angeles","country":"Chile","cc":"CL","sponsor":"Bio Cable Sur","id":"35519","preferred":0,"isp_id":"243901","https_functional":1,"host":"sp1.biocablesur.cl.prod.hosts.ooklaserver.net:8080"},
{"url":"http://cesu-hz.zjtelecom.com.cn:8080/speedtest/upload.php","lat":"30.2741","lon":"120.1552","distance":0,"name":"HangZhou","country":"China","cc":"CN","sponsor":"浙江电信","id":"59386","preferred":0,"isp_id":"7209","host":"cesu-hz.zjtelecom.com.cn:8080"},
{"url":"http://hk-bgp-speedtest.nearoute.io:8080/speedtest/upload.php","lat":"22.2500","lon":"114.1667","distance":0,"name":"Hong Kong","country":"China","cc":"HK","sponsor":"Nearoute Limited","id":"69574","preferred":0,"isp_id":"241265","https_functional":1,"host":"hk-bgp-speedtest.nearoute.io.prod.hosts.ooklaserver.net:8080"},
{"url":"http://speedtest.dukekunshan.edu.cn:8080/speedtest/upload.php","lat":"31.3856","lon":"120.9807","distance":0,"name":"Kunshan","country":"China","cc":"CN","sponsor":"Duke Kunshan University","id":"30852","preferred":0,"isp_id":"40054","https_functional":1,"host":"speedtest.dukekunshan.edu.cn:8080"},
{"url":"http://cesu-nb.zjtelecom.com.cn:8080/speedtest/upload.php","lat":"29.8683","lon":"121.5440","distance":0,"name":"NingBo","country":"China","cc":"CN","sponsor":"浙江电信","id":"59387","preferred":0,"isp_id":"7209","https_functional":1,"host":"cesu-nb.zjtelecom.com.cn.prod.hosts.ooklaserver.net:8080"},
{"url":"http://mobile.shunicomtest.com:8080/speedtest/upload.php","lat":"31.2000","lon":"121.5000","distance":0,"name":"Shanghai","country":"China","cc":"CN","sponsor":"China Unicom 5G","id":"24447","preferred":0,"isp_id":"101940","host":"mobile.shunicomtest.com:8080"},
{"url":"http://4gsuzhou1.speedtest.jsinfo.net:8080/speedtest/upload.php","lat":"31.2990","lon":"120.5853","distance":0,"name":"Suzhou","country":"China","cc":"CN","sponsor":"China Telecom JiangSu 5G","id":"5396","preferred":0,"isp_id":"7209","https_functional":1,"host":"4gsuzhou1.speedtest.jsinfo.net.prod.hosts.ooklaserver.net:8080"},
{"url":"http://speedtest.jsqiuying.com:8080/speedtest/upload.php","lat":"31.2983","lon":"120.5832","distance":0,"name":"Suzhou","country":"China","cc":"CN","sponsor":"JSQY","id":"16204","preferred":0,"isp_id":"88508","https_functional":1,"host":"speedtest.jsqiuying.com:8080"},
{"url":"http://5gzhenjiang.speedtest.jsinfo.net:8080/speedtest/upload.php","lat":"32.2069","lon":"119.4490","distance":0,"name":"Zhenjiang","country":"China","cc":"CN","sponsor":"China Telecom JiangSu 5G","id":"36663","preferred":0,"isp_id":"7209","https_functional":1,"host":"5gzhenjiang.speedtest.jsinfo.net.prod.hosts.ooklaserver.net:8080"},
{"url":"http://st.fratec.net:8080/speedtest/upload.php","lat":"9.9408","lon":"-84.0247","distance":0,"name":"San Jose","country":"Costa Rica","cc":"CR","sponsor":"Sistemas Fratec S.A.","id":"60075","preferred":0,"isp_id":"29035","https_functional":1,"host":"st.fratec.net.prod.hosts.ooklaserver.net:8080"},
{"url":"http://hls.speedtest.gslnetworks.com:8080/speedtest/upload.php","lat":"60.1698","lon":"24.9383","distance":0,"name":"Helsinki","country":"Finland","cc":"FI","sponsor":"GSL Networks","id":"65088","preferred":0,"isp_id":"241570","https_functional":1,"host":"hls.speedtest.gslnetworks.com.prod.hosts.ooklaserver.net:8080"},
{"url":"http://ooklaserver.aryk.fr:8080/speedtest/upload.php","lat":"49.8941","lon":"2.2958","distance":0,"name":"Amiens","country":"France","cc":"FR","sponsor":"Aryk","id":"69573","preferred":0,"isp_id":"311306","https_functional":1,"host":"ooklaserver.aryk.fr.prod.hosts.ooklaserver.net:8080"},
{"url":"http://debit.psrv.ch:8080/speedtest/upload.php","lat":"45.9192","lon":"6.1419","distance":0,"name":"Annecy-le-Vieux","country":"France","cc":"FR","sponsor":"Pressynou","id":"73882","preferred":0,"isp_id":"0","https_functional":1,"host":"debit.psrv.ch.prod.hosts.ooklaserver.net:8080"},
{"url":"http://bass.fc-net.fr:8080/speedtest/upload.php","lat":"47.2378","lon":"6.0241","distance":0,"name":"Besançon","country":"France","cc":"FR","sponsor":"fcnet","id":"70682","preferred":0,"isp_id":"253648","https_functional":1,"host":"bass.fc-net.fr.prod.hosts.ooklaserver.net:8080"},
{"url":"http://testdebit.tubeo.fr:8080/speedtest/upload.php","lat":"49.0504","lon":"7.4273","distance":0,"name":"Bitche","country":"France","cc":"FR","sponsor":"Tubeo","id":"31083","preferred":0,"isp_id":"187674","https_functional":1,"host":"testdebit.tubeo.fr.prod.hosts.ooklaserver.net:8080"},
{"url":"http://testdebit.sitevo.fr:8080/speedtest/upload.php","lat":"49.2662","lon":"6.0894","distance":0,"name":"Clouange","country":"France","cc":"FR","sponsor":"Sitevo","id":"51790","preferred":0,"isp_id":"172348","https_functional":1,"host":"testdebit.sitevo.fr.prod.hosts.ooklaserver.net:8080"},
{"url":"http://testdebitpublic.vialis.net:8080/speedtest/upload.php","lat":"48.0794","lon":"7.3585","distance":0,"name":"Colmar","country":"France","cc":"FR","sponsor":"Vialis","id":"24059","preferred":0,"isp_id":"172348","https_functional":1,"host":"testdebitpublic.vialis.net.prod.hosts.ooklaserver.net:8080"},
{"url":"http://77.testdebit.info:8080/speedtest/upload.php","lat":"48.8279","lon":"2.6594","distance":0,"name":"Croissy-Beaubourg","country":"France","cc":"FR","sponsor":"Appliwave","id":"45202","preferred":0,"isp_id":"264958","https_functional":1,"host":"77.testdebit.info:8080"},
{"url":"http://speedtest.oopaya.com:8080/speedtest/upload.php","lat":"48.8118","lon":"2.6220","distance":0,"name":"Émerainville","country":"France","cc":"FR","sponsor":"OOPAYA SAS","id":"38334","preferred":0,"isp_id":"264958","https_functional":1,"host":"speedtest.oopaya.com:8080"},
{"url":"http://testdebit.fibragglo.fr:8080/speedtest/upload.php","lat":"49.1865","lon":"6.8953","distance":0,"name":"Forbach","country":"France","cc":"FR","sponsor":"Fibragglo","id":"16232","preferred":0,"isp_id":"172348","https_functional":1,"host":"testdebit.fibragglo.fr.prod.hosts.ooklaserver.net:8080"},
{"url":"http://speedtest.gravelines.valtrix.org:8080/speedtest/upload.php","lat":"50.9871","lon":"2.1255","distance":0,"name":"Gravelines","country":"France","cc":"FR","sponsor":"Valtrix Worldwide LLC","id":"72329","preferred":0,"isp_id":"301293","https_functional":1,"host":"speedtest.gravelines.valtrix.org.prod.hosts.ooklaserver.net:8080"},
{"url":"http://gre.bbr.ookla.bytel.fr:8080/speedtest/upload.php","lat":"45.1885","lon":"5.7245","distance":0,"name":"Grenoble","country":"France","cc":"FR","sponsor":"BOUYGUES TELECOM BBR","id":"58158","preferred":0,"isp_id":"12170","https_functional":1,"host":"gre.bbr.ookla.bytel.fr.prod.hosts.ooklaserver.net:8080"},
{"url":"http://testdebithom.enes.fr:8080/speedtest/upload.php","lat":"49.1252","lon":"6.7756","distance":0,"name":"Hombourg-Haut","country":"France","cc":"FR","sponsor":"Enes","id":"21268","preferred":0,"isp_id":"172348","https_functional":1,"host":"testdebithom.enes.fr.prod.hosts.ooklaserver.net:8080"},
{"url":"http://ivry.testdebit.info:8080/speedtest/upload.php","lat":"48.8131","lon":"2.3882","distance":0,"name":"Ivry-sur-Seine","country":"France","cc":"FR","sponsor":"Hivane NetWork Cubic","id":"49781","preferred":0,"isp_id":"290016","https_functional":1,"host":"ivry.testdebit.info.prod.hosts.ooklaserver.net:8080"},
{"url":"http://ltg.speedtest.contabo.net:8080/speedtest/upload.php","lat":"48.9748","lon":"8.1768","distance":0,"name":"Lauterbourg","country":"France","cc":"FR","sponsor":"Contabo","id":"18496","preferred":0,"isp_id":"85018","https_functional":1,"host":"ltg.speedtest.contabo.net.prod.hosts.ooklaserver.net:8080"},
{"url":"http://lens.bbr.ookla.bytel.fr:8080/speedtest/upload.php","lat":"50.4289","lon":"2.8318","distance":0,"name":"Lens","country":"France","cc":"FR","sponsor":"BOUYGUES TELECOM BBR","id":"58130","preferred":0,"isp_id":"12170","https_functional":1,"host":"lens.bbr.ookla.bytel.fr.prod.hosts.ooklaserver.net:8080"},
{"url":"http://lil.cubic.ookla.bytel.fr:8080/speedtest/upload.php","lat":"50.6292","lon":"3.0573","distance":0,"name":"Lille","country":"France","cc":"FR","sponsor":"BOUYGUES TELECOM CUBIC","id":"58129","preferred":0,"isp_id":"12170","https_functional":1,"host":"lil.cubic.ookla.bytel.fr.prod.hosts.ooklaserver.net:8080"},
{"url":"http://lil2.speedtest.mire.sfr.net:8080/speedtest/upload.php","lat":"50.6292","lon":"3.0573","distance":0,"name":"Lille","country":"France","cc":"FR","sponsor":"SFR","id":"58768","preferred":0,"isp_id":"17894","https_functional":1,"host":"lil2.speedtest.mire.sfr.net.prod.hosts.ooklaserver.net:8080"},
{"url":"http://lille3.d2m.c2d.liveservices.fr:8080/speedtest/upload.php","lat":"50.6292","lon":"3.0573","distance":0,"name":"Lille","country":"France","cc":"FR","sponsor":"ORANGE FRANCE","id":"61025","preferred":0,"isp_id":"48496","https_functional":1,"host":"lille3.d2m.c2d.liveservices.fr.prod.hosts.ooklaserver.net:8080"},
{"url":"http://speedtest-lil.one-elephant.org:8080/speedtest/upload.php","lat":"50.6292","lon":"3.0573","distance":0,"name":"Lille","country":"France","cc":"FR","sponsor":"Eurofiber France","id":"63102","preferred":0,"isp_id":"264958","https_functional":1,"host":"speedtest-lil.one-elephant.org.prod.hosts.ooklaserver.net:8080"},
{"url":"http://lyo.cubic.ookla.bytel.fr:8080/speedtest/upload.php","lat":"45.7640","lon":"4.8357","distance":0,"name":"Lyon","country":"France","cc":"FR","sponsor":"BOUYGUES TELECOM CUBIC","id":"51781","preferred":0,"isp_id":"12170","https_functional":1,"host":"lyo.cubic.ookla.bytel.fr.prod.hosts.ooklaserver.net:8080"},
{"url":"http://lyon3.d2m.c2d.liveservices.fr:8080/speedtest/upload.php","lat":"45.7669","lon":"4.8342","distance":0,"name":"Lyon","country":"France","cc":"FR","sponsor":"ORANGE FRANCE","id":"58915","preferred":0,"isp_id":"48496","https_functional":1,"host":"lyon3.d2m.c2d.liveservices.fr.prod.hosts.ooklaserver.net:8080"},
{"url":"http://speed01.lasotel.net:8080/speedtest/upload.php","lat":"45.7669","lon":"4.8342","distance":0,"name":"Lyon","country":"France","cc":"FR","sponsor":"LASOTEL","id":"42393","preferred":0,"isp_id":"156227","host":"speed01.lasotel.net:8080"},
{"url":"http://fr-mrs01.speed.misaka.one:8080/speedtest/upload.php","lat":"43.3026","lon":"5.3691","distance":0,"name":"Marseille","country":"France","cc":"FR","sponsor":"Misaka Network, Inc.","id":"73556","preferred":0,"isp_id":"118607","https_functional":1,"host":"fr-mrs01.speed.misaka.one:8080"},
{"url":"http://marseille3.d2m.c2d.liveservices.fr:8080/speedtest/upload.php","lat":"43.2964","lon":"5.3700","distance":0,"name":"Marseille","country":"France","cc":"FR","sponsor":"ORANGE FRANCE","id":"61301","preferred":0,"isp_id":"48496","https_functional":1,"host":"marseille3.d2m.c2d.liveservices.fr.prod.hosts.ooklaserver.net:8080"},
{"url":"http://mrs.cubic.ookla.bytel.fr:8080/speedtest/upload.php","lat":"43.2964","lon":"5.3700","distance":0,"name":"Marseille","country":"France","cc":"FR","sponsor":"BOUYGUES TELECOM CUBIC","id":"59243","preferred":0,"isp_id":"12170","https_functional":1,"host":"mrs.cubic.ookla.bytel.fr.prod.hosts.ooklaserver.net:8080"},
{"url":"http://mrs2.speedtest.gslnetworks.com:8080/speedtest/upload.php","lat":"43.2964","lon":"5.3700","distance":0,"name":"Marseille","country":"France","cc":"FR","sponsor":"GSL Networks","id":"48390","preferred":0,"isp_id":"240015","https_functional":1,"host":"mrs2.speedtest.gslnetworks.com.prod.hosts.ooklaserver.net:8080"},
{"url":"http://idf.bbr.ookla.bytel.fr:8080/speedtest/upload.php","lat":"48.8130","lon":"2.2385","distance":0,"name":"Meudon","country":"France","cc":"FR","sponsor":"BOUYGUES TELECOM BBR","id":"47318","preferred":0,"isp_id":"12170","https_functional":1,"host":"idf.bbr.ookla.bytel.fr.prod.hosts.ooklaserver.net:8080"},
{"url":"http://mit1.speedtest.mire.sfr.net:8080/speedtest/upload.php","lat":"48.9854","lon":"2.6192","distance":0,"name":"Mitry","country":"France","cc":"FR","sponsor":"SFR","id":"27984","preferred":0,"isp_id":"17894","https_functional":1,"host":"mit1.speedtest.mire.sfr.net.prod.hosts.ooklaserver.net:8080"},
{"url":"http://nancy.bbr.ookla.bytel.fr:8080/speedtest/upload.php","lat":"48.6921","lon":"6.1844","distance":0,"name":"Nancy","country":"France","cc":"FR","sponsor":"BOUYGUES TELECOM BBR","id":"58161","preferred":0,"isp_id":"12170","https_functional":1,"host":"nancy.bbr.ookla.bytel.fr.prod.hosts.ooklaserver.net:8080"},
{"url":"http://ooklaspeedtest.as198053.net:8080/speedtest/upload.php","lat":"48.8924","lon":"2.2153","distance":0,"name":"Nanterre","country":"France","cc":"FR","sponsor":"Green Data","id":"59771","preferred":0,"isp_id":"261889","https_functional":1,"host":"ooklaspeedtest.as198053.net.prod.hosts.ooklaserver.net:8080"},
{"url":"http://nic2.speedtest.mire.sfr.net:8080/speedtest/upload.php","lat":"43.7028","lon":"7.2692","distance":0,"name":"Nice","country":"France","cc":"FR","sponsor":"SFR","id":"74238","preferred":0,"isp_id":"17894","https_functional":1,"host":"nic2.speedtest.mire.sfr.net.prod.hosts.ooklaserver.net:8080"},
{"url":"http://nice.bbr.ookla.bytel.fr:8080/speedtest/upload.php","lat":"43.7028","lon":"7.2692","distance":0,"name":"Nice","country":"France","cc":"FR","sponsor":"BOUYGUES TELECOM CUBIC","id":"59242","preferred":0,"isp_id":"12170","https_functional":1,"host":"nice.bbr.ookla.bytel.fr.prod.hosts.ooklaserver.net:8080"},
{"url":"http://speedtest-ookla-nce.as62000.net:8080/speedtest/upload.php","lat":"43.7028","lon":"7.2692","distance":0,"name":"Nice","country":"France","cc":"FR","sponsor":"SERVERD","id":"48616","preferred":0,"isp_id":"237405","https_functional":1,"host":"speedtest-ookla-nce.as62000.net.prod.hosts.ooklaserver.net:8080"},
{"url":"http://testdebit.regivision.fr:8080/speedtest/upload.php","lat":"49.3422","lon":"6.0499","distance":0,"name":"Nilvange","country":"France","cc":"FR","sponsor":"Regivision","id":"31082","preferred":0,"isp_id":"172348","https_functional":1,"host":"testdebit.regivision.fr.prod.hosts.ooklaserver.net:8080"},
{"url":"http://lg-pa10.fdcservers.net:8080/speedtest/upload.php","lat":"48.8742","lon":"2.3470","distance":0,"name":"Paris","country":"France","cc":"FR","sponsor":"fdcservers.net","id":"6027","preferred":0,"isp_id":"27716","https_functional":1,"host":"lg-pa10.fdcservers.net:8080"},
{"url":"http://montsouris3.d2m.c2d.liveservices.fr:8080/speedtest/upload.php","lat":"48.8742","lon":"2.3470","distance":0,"name":"Paris","country":"France","cc":"FR","sponsor":"ORANGE FRANCE","id":"62493","preferred":0,"isp_id":"48496","https_functional":1,"host":"montsouris3.d2m.c2d.liveservices.fr.prod.hosts.ooklaserver.net:8080"},
{"url":"http://ookla.moji.fr:8080/speedtest/upload.php","lat":"48.8742","lon":"2.3470","distance":0,"name":"Paris","country":"France","cc":"FR","sponsor":"moji","id":"62035","preferred":0,"isp_id":"112577","https_functional":1,"host":"ookla.moji.fr.prod.hosts.ooklaserver.net:8080"},
{"url":"http://ookla.pye.as6453.net:8080/speedtest/upload.php","lat":"48.8742","lon":"2.3470","distance":0,"name":"Paris","country":"France","cc":"FR","sponsor":"Tata Communications","id":"73625","preferred":0,"isp_id":"153357","https_functional":1,"host":"ookla.pye.as6453.net.prod.hosts.ooklaserver.net:8080"},
{"url":"http://par1speedtest01.skylogic.com:8080/speedtest/upload.php","lat":"48.8566","lon":"2.3522","distance":0,"name":"Paris","country":"France","cc":"FR","sponsor":"EUTELSAT COMMUNICATIONS SA","id":"63829","preferred":0,"isp_id":"266685","https_functional":1,"host":"par1speedtest01.skylogic.com:8080"},
{"url":"http://perf.keyyo.net:8080/speedtest/upload.php","lat":"48.8742","lon":"2.3470","distance":0,"name":"Paris","country":"France","cc":"FR","sponsor":"KEYYO","id":"27961","preferred":0,"isp_id":"129920","https_functional":1,"host":"perf.keyyo.net:8080"},
{"url":"http://speedperf.axione.fr:8080/speedtest/upload.php","lat":"48.8742","lon":"2.3470","distance":0,"name":"Paris","country":"France","cc":"FR","sponsor":"Axione","id":"28308","preferred":0,"isp_id":"3935","https_functional":1,"host":"speedperf.axione.fr.prod.hosts.ooklaserver.net:8080"},
{"url":"http://speedtest-ookla-par.as62000.net:8080/speedtest/upload.php","lat":"48.8742","lon":"2.3470","distance":0,"name":"Paris","country":"France","cc":"FR","sponsor":"SERVERD","id":"49027","preferred":0,"isp_id":"237405","https_functional":1,"host":"speedtest-ookla-par.as62000.net.prod.hosts.ooklaserver.net:8080"},
{"url":"http://speedtest-prs.vts.bf:8080/speedtest/upload.php","lat":"48.8742","lon":"2.3470","distance":0,"name":"Paris","country":"France","cc":"FR","sponsor":"Virtual Technologies and Solutions","id":"52534","preferred":0,"isp_id":"169653","https_functional":1,"host":"speedtest-prs.vts.bf.prod.hosts.ooklaserver.net:8080"},
{"url":"http://speedtest.komogoto.com:8080/speedtest/upload.php","lat":"48.8742","lon":"2.3470","distance":0,"name":"Paris","country":"France","cc":"FR","sponsor":"Komogoto","id":"71643","preferred":0,"isp_id":"116914","https_functional":1,"host":"speedtest.komogoto.com.prod.hosts.ooklaserver.net:8080"},
{"url":"http://speedtest.lekloud.net:8080/speedtest/upload.php","lat":"48.8742","lon":"2.3470","distance":0,"name":"Paris","country":"France","cc":"FR","sponsor":"Nextmap - LeKloud","id":"33869","preferred":0,"isp_id":"301541","https_functional":1,"host":"speedtest.lekloud.net.prod.hosts.ooklaserver.net:8080"},
{"url":"http://speedtest.milkywan.fr:8080/speedtest/upload.php","lat":"48.8742","lon":"2.3470","distance":0,"name":"Paris","country":"France","cc":"FR","sponsor":"MilkyWan","id":"50058","preferred":0,"isp_id":"176751","https_functional":1,"host":"speedtest.milkywan.fr.prod.hosts.ooklaserver.net:8080"},
{"url":"http://speedtest.par1.adky.net:8080/speedtest/upload.php","lat":"48.8742","lon":"2.3470","distance":0,"name":"Paris","country":"France","cc":"FR","sponsor":"AdKyNet SAS","id":"69726","preferred":0,"isp_id":"301706","https_functional":1,"host":"speedtest.par1.adky.net:8080"},
{"url":"http://speedtest.sewan.fr:8080/speedtest/upload.php","lat":"48.8742","lon":"2.3470","distance":0,"name":"Paris","country":"France","cc":"FR","sponsor":"Sewan","id":"24130","preferred":0,"isp_id":"68529","https_functional":1,"host":"speedtest.sewan.fr:8080"},
{"url":"http://speedtest.telerys.net:8080/speedtest/upload.php","lat":"48.8742","lon":"2.3470","distance":0,"name":"Paris","country":"France","cc":"FR","sponsor":"Unixo","id":"41840","preferred":0,"isp_id":"287718","https_functional":1,"host":"speedtest.telerys.net:8080"},
{"url":"http://srv1297896.hstgr.cloud:8080/speedtest/upload.php","lat":"48.8742","lon":"2.3470","distance":0,"name":"Paris","country":"France","cc":"FR","sponsor":"Hostinger","id":"73569","preferred":0,"isp_id":"271362","https_functional":1,"host":"srv1297896.hstgr.cloud.prod.hosts.ooklaserver.net:8080"},
{"url":"http://st1.scaleway.com:8080/speedtest/upload.php","lat":"48.8742","lon":"2.3470","distance":0,"name":"Paris","country":"France","cc":"FR","sponsor":"Scaleway","id":"61933","preferred":0,"isp_id":"116914","https_functional":1,"host":"st1.scaleway.com.prod.hosts.ooklaserver.net:8080"},
{"url":"http://pau.bbr.ookla.bytel.fr:8080/speedtest/upload.php","lat":"43.2951","lon":"-0.3708","distance":0,"name":"Pau","country":"France","cc":"FR","sponsor":"BOUYGUES TELECOM BBR","id":"51780","preferred":0,"isp_id":"12170","https_functional":1,"host":"pau.bbr.ookla.bytel.fr.prod.hosts.ooklaserver.net:8080"},