[
{"url":"http://colocity.speedtest.gslnetworks.com:8080/speedtest/upload.php","lat":"-34.9290","lon":"138.6010","distance":0,"name":"Adelaide","country":"Australia","cc":"AU","sponsor":"GSL Networks","id":"48362","preferred":0,"isp_id":"274339","https_functional":1,"host":"colocity.speedtest.gslnetworks.com.prod.hosts.ooklaserver.net:8080"},
{"url":"http://speedtest-blacktown.optusnet.com.au:8080/speedtest/upload.php","lat":"-33.7447","lon":"150.8842","distance":0,"name":"Blacktown","country":"Australia","cc":"AU","sponsor":"Optus","id":"8777","preferred":0,"isp_id":"71769","https_functional":1,"host":"speedtest-blacktown.optusnet.com.au:8080"},
{"url":"http://b2.speedtest.gslnetworks.com:8080/speedtest/upload.php","lat":"-27.4728","lon":"153.0278","distance":0,"name":"Brisbane","country":"Australia","cc":"AU","sponsor":"GSL Networks","id":"48346","preferred":0,"isp_id":"274339","https_functional":1,"host":"b2.speedtest.gslnetworks.com.prod.hosts.ooklaserver.net:8080"},
{"url":"http://brindb2speed1.wireline.com.au:8080/speedtest/upload.php","lat":"-27.4728","lon":"153.0278","distance":0,"name":"Brisbane","country":"Australia","cc":"AU","sponsor":"Wireline Group","id":"16514","preferred":0,"isp_id":"99929","https_functional":1,"host":"brindb2speed1.wireline.com.au.prod.hosts.ooklaserver.net:8080"},
{"url":"http://brs1.speedtest.telstra.net:8080/speedtest/upload.php","lat":"-27.4728","lon":"153.0278","distance":0,"name":"Brisbane","country":"Australia","cc":"AU","sponsor":"Telstra","id":"12493","preferred":0,"isp_id":"39","https_functional":1,"host":"brs1.speedtest.telstra.net:8080"},
{"url":"http://ookla.b2.neptune.net.au:8080/speedtest/upload.php","lat":"-27.4728","lon":"153.0278","distance":0,"name":"Brisbane","country":"Australia","cc":"AU","sponsor":"Neptune Internet","id":"70823","preferred":0,"isp_id":"299995","https_functional":1,"host":"ookla.b2.neptune.net.au.prod.hosts.ooklaserver.net:8080"},
{"url":"http://qld-gdpt-st1.speedtest.aarnet.net.au:8080/speedtest/upload.php","lat":"-27.4728","lon":"153.0278","distance":0,"name":"Brisbane","country":"Australia","cc":"AU","sponsor":"AARNet","id":"6119","preferred":0,"isp_id":"10195","https_functional":1,"host":"qld-gdpt-st1.speedtest.aarnet.net.au:8080"},
{"url":"http://qld.speedtest.exetel.com.au:8080/speedtest/upload.php","lat":"-27.4698","lon":"153.0251","distance":0,"name":"Brisbane","country":"Australia","cc":"AU","sponsor":"Exetel","id":"13276","preferred":0,"isp_id":"908","https_functional":1,"host":"qld.speedtest.exetel.com.au.prod.hosts.ooklaserver.net:8080"},
{"url":"http://qld.speedtest.leaptel.com.au:8080/speedtest/upload.php","lat":"-27.4728","lon":"153.0278","distance":0,"name":"Brisbane","country":"Australia","cc":"AU","sponsor":"Leaptel","id":"32880","preferred":0,"isp_id":"152580","https_functional":1,"host":"qld.speedtest.leaptel.com.au.prod.hosts.ooklaserver.net:8080"},
{"url":"http://spd01-bne.au.superloop.com:8080/speedtest/upload.php","lat":"-27.4728","lon":"153.0278","distance":0,"name":"Brisbane","country":"Australia","cc":"AU","sponsor":"Superloop Australia Pty Ltd","id":"54994","preferred":0,"isp_id":"150616","https_functional":1,"host":"spd01-bne.au.superloop.com.prod.hosts.ooklaserver.net:8080"},
{"url":"http://speed-br2.gigacomm.net.au:8080/speedtest/upload.php","lat":"-27.4728","lon":"153.0278","distance":0,"name":"Brisbane","country":"Australia","cc":"AU","sponsor":"GigaComm Pty Ltd","id":"70701","preferred":0,"isp_id":"192184","https_functional":1,"host":"speed-br2.gigacomm.net.au.prod.hosts.ooklaserver.net:8080"},
{"url":"http://speed.bne.aussiebroadband.com.au:8080/speedtest/upload.php","lat":"-27.4698","lon":"153.0251","distance":0,"name":"Brisbane","country":"Australia","cc":"AU","sponsor":"Aussie Broadband","id":"15134","preferred":0,"isp_id":"7219","https_functional":1,"host":"speed.bne.aussiebroadband.com.au.prod.hosts.ooklaserver.net:8080"},
{"url":"http://speedtest-bne-dn1.empower.net.au:8080/speedtest/upload.php","lat":"-27.4728","lon":"153.0278","distance":0,"name":"Brisbane","country":"Australia","cc":"AU","sponsor":"blueAPACHE","id":"39589","preferred":0,"isp_id":"90205","https_functional":1,"host":"speedtest-bne-dn1.empower.net.au.prod.hosts.ooklaserver.net:8080"},
{"url":"http://speedtest-bne.vocus.net:8080/speedtest/upload.php","lat":"-27.4728","lon":"153.0278","distance":0,"name":"Brisbane","country":"Australia","cc":"AU","sponsor":"Vocus Communications","id":"18248","preferred":0,"isp_id":"27711","https_functional":1,"host":"speedtest-bne.vocus.net.prod.hosts.ooklaserver.net:8080"},
{"url":"http://speedtest-brisbane.macquarietelecom.com:8080/speedtest/upload.php","lat":"-27.4728","lon":"153.0278","distance":0,"name":"Brisbane","country":"Australia","cc":"AU","sponsor":"Macquarie Telecom","id":"45056","preferred":0,"isp_id":"292368","https_functional":1,"host":"speedtest-brisbane.macquarietelecom.com.prod.hosts.ooklaserver.net:8080"},
{"url":"http://speedtest-brisbane.optusnet.com.au:8080/speedtest/upload.php","lat":"-27.4728","lon":"153.0278","distance":0,"name":"Brisbane","country":"Australia","cc":"AU","sponsor":"Optus","id":"1594","preferred":0,"isp_id":"71769","https_functional":1,"host":"speedtest-brisbane.optusnet.com.au:8080"},
{"url":"http://speedtest.b2.mhn.cloud:8080/speedtest/upload.php","lat":"-27.4728","lon":"153.0278","distance":0,"name":"Brisbane","country":"Australia","cc":"AU","sponsor":"Hosted Network","id":"60952","preferred":0,"isp_id":"94872","https_functional":1,"host":"speedtest.b2.mhn.cloud.prod.hosts.ooklaserver.net:8080"},
{"url":"http://speedtest.bri01.launtel.net.au:8080/speedtest/upload.php","lat":"-27.4728","lon":"153.0278","distance":0,"name":"Brisbane","country":"Australia","cc":"AU","sponsor":"Launtel","id":"64079","preferred":0,"isp_id":"137873","https_functional":1,"host":"speedtest.bri01.launtel.net.au.prod.hosts.ooklaserver.net:8080"},
{"url":"http://speedtest.capti.com.au:8080/speedtest/upload.php","lat":"-27.4698","lon":"153.0251","distance":0,"name":"Brisbane","country":"Australia","cc":"AU","sponsor":"Capti","id":"46575","preferred":0,"isp_id":"224931","https_functional":1,"host":"speedtest.capti.com.au.prod.hosts.ooklaserver.net:8080"},
{"url":"http://speedtest.qld.edgeix.net.au:8080/speedtest/upload.php","lat":"-27.4728","lon":"153.0278","distance":0,"name":"Brisbane","country":"Australia","cc":"AU","sponsor":"EdgeIX","id":"60977","preferred":0,"isp_id":"275202","https_functional":1,"host":"speedtest.qld.edgeix.net.au.prod.hosts.ooklaserver.net:8080"},
{"url":"http://speedtest01.bne1.spintel.net.au:8080/speedtest/upload.php","lat":"-27.4705","lon":"153.0260","distance":0,"name":"Brisbane","country":"Australia","cc":"AU","sponsor":"Spintel","id":"72855","preferred":0,"isp_id":"71839","https_functional":1,"host":"speedtest01.bne1.spintel.net.au.prod.hosts.ooklaserver.net:8080"},
{"url":"http://speedtest1.gigafy.com.au:8080/speedtest/upload.php","lat":"-27.4728","lon":"153.0278","distance":0,"name":"Brisbane","country":"Australia","cc":"AU","sponsor":"Gigafy","id":"35757","preferred":0,"isp_id":"171701","https_functional":1,"host":"speedtest1.gigafy.com.au.prod.hosts.ooklaserver.net:8080"},
{"url":"http://act-dksn-st1.speedtest.aarnet.net.au:8080/speedtest/upload.php","lat":"-35.3075","lon":"149.1244","distance":0,"name":"Canberra","country":"Australia","cc":"AU","sponsor":"AARNet","id":"52906","preferred":0,"isp_id":"10195","https_functional":1,"host":"act-dksn-st1.speedtest.aarnet.net.au:8080"},
{"url":"http://cbr1.speedtest.telstra.net:8080/speedtest/upload.php","lat":"-35.2809","lon":"149.1300","distance":0,"name":"Canberra","country":"Australia","cc":"AU","sponsor":"Telstra","id":"18711","preferred":0,"isp_id":"39","https_functional":1,"host":"cbr1.speedtest.telstra.net:8080"},
{"url":"http://speedtest-cbr.cdn.on.net:8080/speedtest/upload.php","lat":"-35.3075","lon":"149.1244","distance":0,"name":"Canberra","country":"Australia","cc":"AU","sponsor":"Internode","id":"2166","preferred":0,"isp_id":"32","https_functional":1,"host":"speedtest-cbr.cdn.on.net.prod.hosts.ooklaserver.net:8080"},
{"url":"http://cha1.speedtest.telstra.net:8080/speedtest/upload.php","lat":"-33.8008","lon":"151.1796","distance":0,"name":"Chatswood","country":"Australia","cc":"AU","sponsor":"Telstra","id":"18713","preferred":0,"isp_id":"39","https_functional":1,"host":"cha1.speedtest.telstra.net:8080"},
{"url":"http://drw1.speedtest.telstra.net:8080/speedtest/upload.php","lat":"-12.4634","lon":"130.8456","distance":0,"name":"Darwin","country":"Australia","cc":"AU","sponsor":"Telstra","id":"22036","preferred":0,"isp_id":"39","https_functional":1,"host":"drw1.speedtest.telstra.net:8080"},
{"url":"http://nt-drwn-st1.speedtest.aarnet.net.au:8080/speedtest/upload.php","lat":"-12.4500","lon":"130.8333","distance":0,"name":"Darwin","country":"Australia","cc":"AU","sponsor":"AARNet","id":"6757","preferred":0,"isp_id":"10195","https_functional":1,"host":"nt-drwn-st1.speedtest.aarnet.net.au:8080"},
{"url":"http://speedtest-darwin.optusnet.com.au:8080/speedtest/upload.php","lat":"-12.4500","lon":"130.8333","distance":0,"name":"Darwin","country":"Australia","cc":"AU","sponsor":"Optus","id":"10438","preferred":0,"isp_id":"71769","https_functional":1,"host":"speedtest-darwin.optusnet.com.au:8080"},
{"url":"https://speedtest-eastburwood.optusnet.com.au:8080/speedtest/upload.php","lat":"-37.8136","lon":"144.9631","distance":0,"name":"East Burwood","country":"Australia","cc":"AU","sponsor":"Optus","id":"9108","preferred":0,"isp_id":"71769","https_functional":1,"host":"speedtest-eastburwood.optusnet.com.au:8080"},
{"url":"http://speedtest.thryve.com.au:8080/speedtest/upload.php","lat":"-33.7960","lon":"151.2770","distance":0,"name":"Fairlight","country":"Australia","cc":"AU","sponsor":"Thryve Group - Thryve Broadband","id":"37994","preferred":0,"isp_id":"201122","https_functional":1,"host":"speedtest.thryve.com.au.prod.hosts.ooklaserver.net:8080"},
{"url":"http://speedtest.yless4u.com.au:8080/speedtest/upload.php","lat":"-35.3290","lon":"149.1740","distance":0,"name":"Fyshwick","country":"Australia","cc":"AU","sponsor":"YLess4U","id":"37133","preferred":0,"isp_id":"79311","https_functional":1,"host":"speedtest.yless4u.com.au.prod.hosts.ooklaserver.net:8080"},
{"url":"http://speedtest-geelong.optusnet.com.au:8080/speedtest/upload.php","lat":"-38.1499","lon":"144.3617","distance":0,"name":"Geelong","country":"Australia","cc":"AU","sponsor":"Optus","id":"10612","preferred":0,"isp_id":"71769","https_functional":1,"host":"speedtest-geelong.optusnet.com.au:8080"},
{"url":"http://ool1.speedtest.telstra.net:8080/speedtest/upload.php","lat":"-28.0160","lon":"153.0167","distance":0,"name":"Gold Coast","country":"Australia","cc":"AU","sponsor":"Telstra","id":"16329","preferred":0,"isp_id":"39","https_functional":1,"host":"ool1.speedtest.telstra.net:8080"},
{"url":"http://speedtest-goldcoast.optusnet.com.au:8080/speedtest/upload.php","lat":"-28.0160","lon":"153.0167","distance":0,"name":"Gold Coast","country":"Australia","cc":"AU","sponsor":"Optus","id":"10441","preferred":0,"isp_id":"71769","https_functional":1,"host":"speedtest-goldcoast.optusnet.com.au:8080"},
{"url":"http://hob1.speedtest.telstra.net:8080/speedtest/upload.php","lat":"-42.8821","lon":"147.3272","distance":0,"name":"Hobart","country":"Australia","cc":"AU","sponsor":"Telstra","id":"18712","preferred":0,"isp_id":"39","https_functional":1,"host":"hob1.speedtest.telstra.net:8080"},
{"url":"http://speedtest-hob.launtel.net.au:8080/speedtest/upload.php","lat":"-42.8806","lon":"147.3250","distance":0,"name":"Hobart","country":"Australia","cc":"AU","sponsor":"Launtel","id":"48679","preferred":0,"isp_id":"137873","https_functional":1,"host":"speedtest-hob.launtel.net.au.prod.hosts.ooklaserver.net:8080"},
{"url":"http://speedtest-hobart.optusnet.com.au:8080/speedtest/upload.php","lat":"-42.8806","lon":"147.3250","distance":0,"name":"Hobart","country":"Australia","cc":"AU","sponsor":"Optus","id":"8976","preferred":0,"isp_id":"71769","https_functional":1,"host":"speedtest-hobart.optusnet.com.au:8080"},
{"url":"http://tas-dwpk-st1.speedtest.aarnet.net.au:8080/speedtest/upload.php","lat":"-42.8806","lon":"147.3250","distance":0,"name":"Hobart","country":"Australia","cc":"AU","sponsor":"AARNet","id":"6369","preferred":0,"isp_id":"10195","https_functional":1,"host":"tas-dwpk-st1.speedtest.aarnet.net.au:8080"},
{"url":"http://speedtest.micron21.com:8080/speedtest/upload.php","lat":"-37.8020","lon":"145.3160","distance":0,"name":"Kilsyth","country":"Australia","cc":"AU","sponsor":"Micron21 Datacentre Pty Ltd","id":"25708","preferred":0,"isp_id":"274791","https_functional":1,"host":"speedtest.micron21.com.prod.hosts.ooklaserver.net:8080"},
{"url":"http://knx.speedtest.optitel.com.au:8080/speedtest/upload.php","lat":"-15.7783","lon":"128.7439","distance":0,"name":"Kununurra","country":"Australia","cc":"AU","sponsor":"OptiTel","id":"48114","preferred":0,"isp_id":"204344","https_functional":1,"host":"knx.speedtest.optitel.com.au.prod.hosts.ooklaserver.net:8080"},
{"url":"http://speedtest-lton.launtel.net.au:8080/speedtest/upload.php","lat":"-41.4391","lon":"147.1358","distance":0,"name":"Launceston","country":"Australia","cc":"AU","sponsor":"Launtel","id":"48503","preferred":0,"isp_id":"137873","https_functional":1,"host":"speedtest-lton.launtel.net.au.prod.hosts.ooklaserver.net:8080"},
{"url":"https://speedtest-limestonecoast.optusnet.com.au:8080/speedtest/upload.php","lat":"-37.8284","lon":"140.7804","distance":0,"name":"Limestone Coast","country":"Australia","cc":"AU","sponsor":"Optus","id":"10439","preferred":0,"isp_id":"71769","https_functional":1,"host":"speedtest-limestonecoast.optusnet.com.au:8080"},
{"url":"http://me1.speedtest.gslnetworks.com.au:8080/speedtest/upload.php","lat":"-37.8136","lon":"144.9631","distance":0,"name":"Melbourne","country":"Australia","cc":"AU","sponsor":"GSL Networks","id":"46114","preferred":0,"isp_id":"274339","https_functional":1,"host":"me1.speedtest.gslnetworks.com.au.prod.hosts.ooklaserver.net:8080"},
{"url":"http://mel1.speedtest.telstra.net:8080/speedtest/upload.php","lat":"-37.8136","lon":"144.9631","distance":0,"name":"Melbourne","country":"Australia","cc":"AU","sponsor":"Telstra","id":"12491","preferred":0,"isp_id":"39","https_functional":1,"host":"mel1.speedtest.telstra.net:8080"},
{"url":"http://melndm1speed1.wireline.com.au:8080/speedtest/upload.php","lat":"-37.8136","lon":"144.9631","distance":0,"name":"Melbourne","country":"Australia","cc":"AU","sponsor":"Wireline Group","id":"29826","preferred":0,"isp_id":"99929","https_functional":1,"host":"melndm1speed1.wireline.com.au.prod.hosts.ooklaserver.net:8080"},
{"url":"http://ookla.me1.neptune.net.au:8080/speedtest/upload.php","lat":"-37.8136","lon":"144.9631","distance":0,"name":"Melbourne","country":"Australia","cc":"AU","sponsor":"Neptune Internet","id":"68925","preferred":0,"isp_id":"299995","https_functional":1,"host":"ookla.me1.neptune.net.au.prod.hosts.ooklaserver.net:8080"},
{"url":"http://spd01-mel.au.superloop.com:8080/speedtest/upload.php","lat":"-37.8136","lon":"144.9631","distance":0,"name":"Melbourne","country":"Australia","cc":"AU","sponsor":"Superloop Australia Pty Ltd","id":"55297","preferred":0,"isp_id":"150616","https_functional":1,"host":"spd01-mel.au.superloop.com.prod.hosts.ooklaserver.net:8080"},
{"url":"http://speed-mel.gigacomm.net.au:8080/speedtest/upload.php","lat":"-37.8136","lon":"144.9631","distance":0,"name":"Melbourne","country":"Australia","cc":"AU","sponsor":"GigaComm Pty Ltd","id":"36100","preferred":0,"isp_id":"192184","https_functional":1,"host":"speed-mel.gigacomm.net.au.prod.hosts.ooklaserver.net:8080"},
{"url":"http://speed.mel.aussiebroadband.com.au:8080/speedtest/upload.php","lat":"-37.8136","lon":"144.9631","distance":0,"name":"Melbourne","country":"Australia","cc":"AU","sponsor":"Aussie Broadband","id":"14670","preferred":0,"isp_id":"7219","https_functional":1,"host":"speed.mel.aussiebroadband.com.au.prod.hosts.ooklaserver.net:8080"},
{"url":"http://speedtest-aus.chainlinkhosting.com:8080/speedtest/upload.php","lat":"-37.8136","lon":"144.9631","distance":0,"name":"Melbourne","country":"Australia","cc":"AU","sponsor":"ChainLinkHosting | ChainLinkNetworks","id":"65167","preferred":0,"isp_id":"174612","https_functional":1,"host":"speedtest-aus.chainlinkhosting.com.prod.hosts.ooklaserver.net:8080"},
{"url":"http://speedtest-mel-dn1.empower.net.au:8080/speedtest/upload.php","lat":"-37.8136","lon":"144.9631","distance":0,"name":"Melbourne","country":"Australia","cc":"AU","sponsor":"blueAPACHE","id":"39561","preferred":0,"isp_id":"90205","https_functional":1,"host":"speedtest-mel-dn1.empower.net.au.prod.hosts.ooklaserver.net:8080"},
{"url":"http://speedtest-mel.vic.au.hostuniversal.com.au:8080/speedtest/upload.php","lat":"-37.8136","lon":"144.9631","distance":0,"name":"Melbourne","country":"Australia","cc":"AU","sponsor":"Host Universal","id":"69525","preferred":0,"isp_id":"136098","https_functional":1,"host":"speedtest-mel.vic.au.hostuniversal.com.au.prod.hosts.ooklaserver.net:8080"},
{"url":"http://speedtest-mel.vocus.net:8080/speedtest/upload.php","lat":"-37.8136","lon":"144.9631","distance":0,"name":"Melbourne","country":"Australia","cc":"AU","sponsor":"Vocus Communications","id":"16207","preferred":0,"isp_id":"27711","https_functional":1,"host":"speedtest-mel.vocus.net.prod.hosts.ooklaserver.net:8080"},
{"url":"http://speedtest-melbourne.macquarietelecom.com:8080/speedtest/upload.php","lat":"-37.8136","lon":"144.9631","distance":0,"name":"Melbourne","country":"Australia","cc":"AU","sponsor":"Macquarie Telecom","id":"45057","preferred":0,"isp_id":"292368","https_functional":1,"host":"speedtest-melbourne.macquarietelecom.com.prod.hosts.ooklaserver.net:8080"},
{"url":"http://speedtest-melbourne.optusnet.com.au:8080/speedtest/upload.php","lat":"-37.8136","lon":"144.9631","distance":0,"name":"Melbourne","country":"Australia","cc":"AU","sponsor":"Optus","id":"30932","preferred":0,"isp_id":"71769","https_functional":1,"host":"speedtest-melbourne.optusnet.com.au:8080"},
{"url":"http://speedtest.mel.mhn.cloud:8080/speedtest/upload.php","lat":"-37.8136","lon":"144.9631","distance":0,"name":"Melbourne","country":"Australia","cc":"AU","sponsor":"Hosted Network","id":"60949","preferred":0,"isp_id":"94872","https_functional":1,"host":"speedtest.mel.mhn.cloud.prod.hosts.ooklaserver.net:8080"},
{"url":"http://speedtest.mel01.launtel.net.au:8080/speedtest/upload.php","lat":"-37.8136","lon":"144.9631","distance":0,"name":"Melbourne","country":"Australia","cc":"AU","sponsor":"Launtel","id":"61764","preferred":0,"isp_id":"137873","https_functional":1,"host":"speedtest.mel01.launtel.net.au.prod.hosts.ooklaserver.net:8080"},
{"url":"http://speedtest.net360.cloud:8080/speedtest/upload.php","lat":"-37.8136","lon":"144.9631","distance":0,"name":"Melbourne","country":"Australia","cc":"AU","sponsor":"NET360","id":"55588","preferred":0,"isp_id":"123385","https_functional":1,"host":"speedtest.net360.cloud.prod.hosts.ooklaserver.net:8080"},
{"url":"http://speedtest01.mel1.spintel.net.au:8080/speedtest/upload.php","lat":"-37.8136","lon":"144.9631","distance":0,"name":"Melbourne","country":"Australia","cc":"AU","sponsor":"Spintel","id":"72276","preferred":0,"isp_id":"71839","https_functional":1,"host":"speedtest01.mel1.spintel.net.au.prod.hosts.ooklaserver.net:8080"},
{"url":"http://vic-pmla-st1.speedtest.aarnet.net.au:8080/speedtest/upload.php","lat":"-37.8136","lon":"144.9631","distance":0,"name":"Melbourne","country":"Australia","cc":"AU","sponsor":"AARNet","id":"60412","preferred":0,"isp_id":"10195","https_functional":1,"host":"vic-pmla-st1.speedtest.aarnet.net.au:8080"},
{"url":"http://vic.speedtest.exetel.com.au:8080/speedtest/upload.php","lat":"-37.8136","lon":"144.9631","distance":0,"name":"Melbourne","country":"Australia","cc":"AU","sponsor":"Exetel","id":"13275","preferred":0,"isp_id":"908","https_functional":1,"host":"vic.speedtest.exetel.com.au.prod.hosts.ooklaserver.net:8080"},
{"url":"http://vic.speedtest.leaptel.com.au:8080/speedtest/upload.php","lat":"-37.8136","lon":"144.9631","distance":0,"name":"Melbourne","country":"Australia","cc":"AU","sponsor":"Leaptel","id":"25134","preferred":0,"isp_id":"170214","https_functional":1,"host":"vic.speedtest.leaptel.com.au.prod.hosts.ooklaserver.net:8080"},
{"url":"http://speedtest-moorooka.optusnet.com.au:8080/speedtest/upload.php","lat":"-27.5350","lon":"153.0260","distance":0,"name":"Moorooka","country":"Australia","cc":"AU","sponsor":"Optus","id":"31137","preferred":0,"isp_id":"71769","https_functional":1,"host":"speedtest-moorooka.optusnet.com.au:8080"},
{"url":"http://speedtest-newcastle.optusnet.com.au:8080/speedtest/upload.php","lat":"-32.9283","lon":"151.7817","distance":0,"name":"Newcastle","country":"Australia","cc":"AU","sponsor":"Optus","id":"10440","preferred":0,"isp_id":"71769","https_functional":1,"host":"speedtest-newcastle.optusnet.com.au:8080"},
{"url":"http://pe2.speedtest.gslnetworks.com:8080/speedtest/upload.php","lat":"-31.9554","lon":"115.8585","distance":0,"name":"Perth","country":"Australia","cc":"AU","sponsor":"GSL Networks","id":"50848","preferred":0,"isp_id":"274339","https_functional":1,"host":"pe2.speedtest.gslnetworks.com.prod.hosts.ooklaserver.net:8080"},
{"url":"http://speedtest-sunshinecoast.optusnet.com.au:8080/speedtest/upload.php","lat":"-25.8833","lon":"152.5500","distance":0,"name":"Sunshine","country":"Australia","cc":"AU","sponsor":"Optus","id":"10443","preferred":0,"isp_id":"71769","https_functional":1,"host":"speedtest-sunshinecoast.optusnet.com.au:8080"},
{"url":"http://mcy1.speedtest.telstra.net:8080/speedtest/upload.php","lat":"-25.8833","lon":"152.5500","distance":0,"name":"Sunshine Coast","country":"Australia","cc":"AU","sponsor":"Telstra","id":"17702","preferred":0,"isp_id":"39","https_functional":1,"host":"mcy1.speedtest.telstra.net:8080"},
{"url":"http://au.st.spacecore.pro:8080/speedtest/upload.php","lat":"-33.8600","lon":"151.2111","distance":0,"name":"Sydney","country":"Australia","cc":"AU","sponsor":"SpaceCore.pro | Premium VPS Hosting","id":"69765","preferred":0,"isp_id":"200476","https_functional":1,"host":"au.st.spacecore.pro.prod.hosts.ooklaserver.net:8080"},
{"url":"http://au1.ocean.host:8080/speedtest/upload.php","lat":"-33.8600","lon":"151.2111","distance":0,"name":"Sydney","country":"Australia","cc":"AU","sponsor":"OceanHost","id":"74128","preferred":0,"isp_id":"301370","https_functional":1,"host":"au1.ocean.host:8080"},
{"url":"http://aus-nperf.verizon.net:8080/speedtest/upload.php","lat":"-33.8600","lon":"151.2111","distance":0,"name":"Sydney","country":"Australia","cc":"AU","sponsor":"Verizon","id":"50441","preferred":0,"isp_id":"8041","https_functional":1,"host":"aus-nperf.verizon.net.prod.hosts.ooklaserver.net:8080"},
{"url":"http://ipl3pt.syd.ops.aspac.uu.net:8080/speedtest/upload.php","lat":"-33.8600","lon":"151.2111","distance":0,"name":"Sydney","country":"Australia","cc":"AU","sponsor":"Verizon.com","id":"53599","preferred":0,"isp_id":"8041","https_functional":1,"host":"ipl3pt.syd.ops.aspac.uu.net:8080"},
{"url":"http://nsw-brwy-st1.speedtest.aarnet.net.au:8080/speedtest/upload.php","lat":"-33.8600","lon":"151.2111","distance":0,"name":"Sydney","country":"Australia","cc":"AU","sponsor":"AARNet","id":"6355","preferred":0,"isp_id":"10195","https_functional":1,"host":"nsw-brwy-st1.speedtest.aarnet.net.au:8080"},
{"url":"http://nsw.speedtest.exetel.com.au:8080/speedtest/upload.php","lat":"-33.8600","lon":"151.2111","distance":0,"name":"Sydney","country":"Australia","cc":"AU","sponsor":"Exetel","id":"13279","preferred":0,"isp_id":"908","https_functional":1,"host":"nsw.speedtest.exetel.com.au.prod.hosts.ooklaserver.net:8080"},
{"url":"http://nsw.speedtest.leaptel.com.au:8080/speedtest/upload.php","lat":"-33.8600","lon":"151.2111","distance":0,"name":"Sydney","country":"Australia","cc":"AU","sponsor":"Leaptel","id":"34967","preferred":0,"isp_id":"170214","https_functional":1,"host":"nsw.speedtest.leaptel.com.au.prod.hosts.ooklaserver.net:8080"},
{"url":"http://ookla.m3h.as6453.net:8080/speedtest/upload.php","lat":"-33.8623","lon":"151.2077","distance":0,"name":"Sydney","country":"Australia","cc":"AU","sponsor":"Tata Communications","id":"73631","preferred":0,"isp_id":"153522","https_functional":1,"host":"ookla.m3h.as6453.net.prod.hosts.ooklaserver.net:8080"},
{"url":"http://ookla.sy1.neptune.net.au:8080/speedtest/upload.php","lat":"-33.8600","lon":"151.2111","distance":0,"name":"Sydney","country":"Australia","cc":"AU","sponsor":"Neptune Internet","id":"68924","preferred":0,"isp_id":"299995","https_functional":1,"host":"ookla.sy1.neptune.net.au.prod.hosts.ooklaserver.net:8080"},
{"url":"http://pauseq4vost1.datamossa.cloud:8080/speedtest/upload.php","lat":"-33.8600","lon":"151.2111","distance":0,"name":"Sydney","country":"Australia","cc":"AU","sponsor":"DataMossa","id":"27582","preferred":0,"isp_id":"331390","https_functional":1,"host":"pauseq4vost1.datamossa.cloud.prod.hosts.ooklaserver.net:8080"},
{"url":"http://spd03-syd.au.superloop.com:8080/speedtest/upload.php","lat":"-33.8600","lon":"151.2111","distance":0,"name":"Sydney","country":"Australia","cc":"AU","sponsor":"Superloop Australia Pty Ltd","id":"65184","preferred":0,"isp_id":"150616","https_functional":1,"host":"spd03-syd.au.superloop.com.prod.hosts.ooklaserver.net:8080"},
{"url":"http://speed-syd.gigacomm.net.au:8080/speedtest/upload.php","lat":"-33.8600","lon":"151.2111","distance":0,"name":"Sydney","country":"Australia","cc":"AU","sponsor":"GigaComm Pty Ltd","id":"36157","preferred":0,"isp_id":"192184","https_functional":1,"host":"speed-syd.gigacomm.net.au.prod.hosts.ooklaserver.net:8080"},
{"url":"http://speed.syd.aussiebroadband.com.au:8080/speedtest/upload.php","lat":"-33.8688","lon":"151.2093","distance":0,"name":"Sydney","country":"Australia","cc":"AU","sponsor":"Aussie Broadband","id":"15132","preferred":0,"isp_id":"7219","https_functional":1,"host":"speed.syd.aussiebroadband.com.au.prod.hosts.ooklaserver.net:8080"},
{"url":"http://speed4.snap.net.nz:8080/speedtest/upload.php","lat":"-33.8600","lon":"151.2111","distance":0,"name":"Sydney","country":"Australia","cc":"AU","sponsor":"2degrees","id":"18392","preferred":0,"isp_id":"114594","https_functional":1,"host":"speed4.snap.net.nz.prod.hosts.ooklaserver.net:8080"},
{"url":"http://speedtest-syd-dn1.empower.net.au:8080/speedtest/upload.php","lat":"-33.8600","lon":"151.2111","distance":0,"name":"Sydney","country":"Australia","cc":"AU","sponsor":"blueAPACHE","id":"39585","preferred":0,"isp_id":"90205","https_functional":1,"host":"speedtest-syd-dn1.empower.net.au.prod.hosts.ooklaserver.net:8080"},
{"url":"http://speedtest-syd.nsw.au.hostuniversal.com.au:8080/speedtest/upload.php","lat":"-33.8600","lon":"151.2111","distance":0,"name":"Sydney","country":"Australia","cc":"AU","sponsor":"Host Universal","id":"68241","preferred":0,"isp_id":"136098","https_functional":1,"host":"speedtest-syd.nsw.au.hostuniversal.com.au.prod.hosts.ooklaserver.net:8080"},
{"url":"http://speedtest-syd.thecore.net.au:8080/speedtest/upload.php","lat":"-33.8600","lon":"151.2111","distance":0,"name":"Sydney","country":"Australia","cc":"AU","sponsor":"Real World","id":"63404","preferred":0,"isp_id":"73511","https_functional":1,"host":"speedtest-syd.thecore.net.au.prod.hosts.ooklaserver.net:8080"},
{"url":"http://speedtest-syd.vocus.net:8080/speedtest/upload.php","lat":"-33.8600","lon":"151.2111","distance":0,"name":"Sydney","country":"Australia","cc":"AU","sponsor":"Vocus Communications","id":"17618","preferred":0,"isp_id":"27711","https_functional":1,"host":"speedtest-syd.vocus.net.prod.hosts.ooklaserver.net:8080"},
{"url":"http://speedtest-syd0.encoo.com.au:8080/speedtest/upload.php","lat":"-33.8600","lon":"151.2111","distance":0,"name":"Sydney","country":"Australia","cc":"AU","sponsor":"Encoo","id":"54213","preferred":0,"isp_id":"112532","https_functional":1,"host":"speedtest-syd0.encoo.com.au.prod.hosts.ooklaserver.net:8080"},
{"url":"http://speedtest-sydney.macquarietelecom.com:8080/speedtest/upload.php","lat":"-33.8600","lon":"151.2111","distance":0,"name":"Sydney","country":"Australia","cc":"AU","sponsor":"Macquarie Telecom","id":"45033","preferred":0,"isp_id":"292368","https_functional":1,"host":"speedtest-sydney.macquarietelecom.com.prod.hosts.ooklaserver.net:8080"},
{"url":"http://speedtest-sydney.optusnet.com.au:8080/speedtest/upload.php","lat":"-33.8600","lon":"151.2111","distance":0,"name":"Sydney","country":"Australia","cc":"AU","sponsor":"Optus","id":"1267","preferred":0,"isp_id":"71769","https_functional":1,"host":"speedtest-sydney.optusnet.com.au:8080"},
{"url":"http://speedtest.mirror.digitalpacific.com.au:8080/speedtest/upload.php","lat":"-33.8600","lon":"151.2111","distance":0,"name":"Sydney","country":"Australia","cc":"AU","sponsor":"Digital Pacific","id":"5744","preferred":0,"isp_id":"275078","https_functional":1,"host":"speedtest.mirror.digitalpacific.com.au.prod.hosts.ooklaserver.net:8080"},
{"url":"http://speedtest.mirror.serversaustralia.com.au:8080/speedtest/upload.php","lat":"-33.8600","lon":"151.2111","distance":0,"name":"Sydney","country":"Australia","cc":"AU","sponsor":"Servers Australia","id":"39108","preferred":0,"isp_id":"45372","https_functional":1,"host":"speedtest.mirror.serversaustralia.com.au.prod.hosts.ooklaserver.net:8080"},
{"url":"http://speedtest.syd.mhn.cloud:8080/speedtest/upload.php","lat":"-33.8600","lon":"151.2111","distance":0,"name":"Sydney","country":"Australia","cc":"AU","sponsor":"Hosted Network","id":"44473","preferred":0,"isp_id":"94872","https_functional":1,"host":"speedtest.syd.mhn.cloud.prod.hosts.ooklaserver.net:8080"},
{"url":"http://speedtest.syd01.launtel.net.au:8080/speedtest/upload.php","lat":"-33.8600","lon":"151.2111","distance":0,"name":"Sydney","country":"Australia","cc":"AU","sponsor":"Launtel","id":"61743","preferred":0,"isp_id":"137873","https_functional":1,"host":"speedtest.syd01.launtel.net.au.prod.hosts.ooklaserver.net:8080"},
{"url":"http://speedtest01.syd1.spintel.net.au:8080/speedtest/upload.php","lat":"-33.8600","lon":"151.2111","distance":0,"name":"Sydney","country":"Australia","cc":"AU","sponsor":"Spintel","id":"58437","preferred":0,"isp_id":"71839","https_functional":1,"host":"speedtest01.syd1.spintel.net.au.prod.hosts.ooklaserver.net:8080"},
{"url":"http://sy5.test.gslnetworks.com.au:8080/speedtest/upload.php","lat":"-33.8600","lon":"151.2111","distance":0,"name":"Sydney","country":"Australia","cc":"AU","sponsor":"GSL Networks","id":"44735","preferred":0,"isp_id":"274339","https_functional":1,"host":"sy5.test.gslnetworks.com.au.prod.hosts.ooklaserver.net:8080"},
{"url":"http://syd.speedtest.contabo.net:8080/speedtest/upload.php","lat":"-33.8600","lon":"151.2111","distance":0,"name":"Sydney","country":"Australia","cc":"AU","sponsor":"Contabo","id":"54360","preferred":0,"isp_id":"247516","https_functional":1,"host":"syd.speedtest.contabo.net:8080"},
{"url":"http://syd1.speedtest.telstra.net:8080/speedtest/upload.php","lat":"-33.8600","lon":"151.2111","distance":0,"name":"Sydney","country":"Australia","cc":"AU","sponsor":"Telstra","id":"12492","preferred":0,"isp_id":"39","https_functional":1,"host":"syd1.speedtest.telstra.net:8080"},
{"url":"http://sydgs2speed4.wireline.com.au:8080/speedtest/upload.php","lat":"-33.8600","lon":"151.2111","distance":0,"name":"Sydney","country":"Australia","cc":"AU","sponsor":"Wireline Group","id":"54817","preferred":0,"isp_id":"99929","https_functional":1,"host":"sydgs2speed4.wireline.com.au.prod.hosts.ooklaserver.net:8080"},
{"url":"http://sydspeedtest.rackdog.com:8080/speedtest/upload.php","lat":"-33.8600","lon":"151.2111","distance":0,"name":"Sydney","country":"Australia","cc":"AU","sponsor":"Rackdog","id":"46372","preferred":0,"isp_id":"275281","https_functional":1,"host":"sydspeedtest.rackdog.com.prod.hosts.ooklaserver.net:8080"},
{"url":"http://sydspeedtest.solitary.net.au:8080/speedtest/upload.php","lat":"-33.8600","lon":"151.2111","distance":0,"name":"Sydney","country":"Australia","cc":"AU","sponsor":"Solitary Technology","id":"73770","preferred":0,"isp_id":"295992","https_functional":1,"host":"sydspeedtest.solitary.net.au.prod.hosts.ooklaserver.net:8080"},
{"url":"http://speedtest-townsville.optusnet.com.au:8080/speedtest/upload.php","lat":"-19.2590","lon":"146.8169","distance":0,"name":"Townsville","country":"Australia","cc":"AU","sponsor":"Optus","id":"10442","preferred":0,"isp_id":"71769","https_functional":1,"host":"speedtest-townsville.optusnet.com.au:8080"},
{"url":"http://win1.speedtest.telstra.net:8080/speedtest/upload.php","lat":"-37.8540","lon":"144.9880","distance":0,"name":"Windsor","country":"Australia","cc":"AU","sponsor":"Telstra","id":"18714","preferred":0,"isp_id":"39","https_functional":1,"host":"win1.speedtest.telstra.net:8080"},
{"url":"http://speedtest.power-speed.at:8080/speedtest/upload.php","lat":"47.9181","lon":"13.7994","distance":0,"name":"Gmunden","country":"Austria","cc":"AT","sponsor":"Energie AG","id":"5476","preferred":0,"isp_id":"177429","https_functional":1,"host":"speedtest.power-speed.at.prod.hosts.ooklaserver.net:8080"},
{"url":"http://speedtest.goingnet.at:8080/speedtest/upload.php","lat":"47.5150","lon":"12.3279","distance":0,"name":"Going am Wilden Kaiser","country":"Austria","cc":"AT","sponsor":"Goingnet GmbH","id":"41545","preferred":0,"isp_id":"242909","https_functional":1,"host":"speedtest.goingnet.at.prod.hosts.ooklaserver.net:8080"},
{"url":"http://speed.g.ml-net.at:8080/speedtest/upload.php","lat":"47.0703","lon":"15.4389","distance":0,"name":"Graz","country":"Austria","cc":"AT","sponsor":"Indeno GmbH - Cloud Solutions","id":"35566","preferred":0,"isp_id":"195567","https_functional":1,"host":"speed.g.ml-net.at.prod.hosts.ooklaserver.net:8080"},
{"url":"http://speedtest.citycom-austria.com:8080/speedtest/upload.php","lat":"47.0703","lon":"15.4389","distance":0,"name":"Graz","country":"Austria","cc":"AT","sponsor":"Citycom Telekommunikation GmbH","id":"3645","preferred":0,"isp_id":"58719","https_functional":1,"host":"speedtest.citycom-austria.com:8080"},
{"url":"http://speedtest.citynet.at:8080/speedtest/upload.php","lat":"47.2833","lon":"11.5000","distance":0,"name":"Hall In Tirol","country":"Austria","cc":"AT","sponsor":"HALLAG Kommunal GmbH - citynet.at","id":"29944","preferred":0,"isp_id":"188308","https_functional":1,"host":"speedtest.citynet.at:8080"},
{"url":"http://speedtest02.ikbnet.at:8080/speedtest/upload.php","lat":"47.2667","lon":"11.3833","distance":0,"name":"Innsbruck","country":"Austria","cc":"AT","sponsor":"Innsbrucker Kommunalbetriebe AG","id":"63259","preferred":0,"isp_id":"2120","https_functional":1,"host":"speedtest02.ikbnet.at.prod.hosts.ooklaserver.net:8080"},
{"url":"http://speed04.ama-networx.net:8080/speedtest/upload.php","lat":"46.6257","lon":"14.3137","distance":0,"name":"Klagenfurt","country":"Austria","cc":"AT","sponsor":"AMA netwoRX GmbH","id":"72709","preferred":0,"isp_id":"154865","https_functional":1,"host":"speed04.ama-networx.net:8080"},
{"url":"http://speedtest.kufnet.at:8080/speedtest/upload.php","lat":"47.5833","lon":"12.1667","distance":0,"name":"Kufstein","country":"Austria","cc":"AT","sponsor":"KufNet","id":"5662","preferred":0,"isp_id":"4715","https_functional":1,"host":"speedtest.kufnet.at.prod.hosts.ooklaserver.net:8080"},
{"url":"http://speedtest.tirolnet.com:8080/speedtest/upload.php","lat":"47.1406","lon":"10.5656","distance":0,"name":"Landeck","country":"Austria","cc":"AT","sponsor":"tirolnet gmbh","id":"59234","preferred":0,"isp_id":"266796","https_functional":1,"host":"speedtest.tirolnet.com.prod.hosts.ooklaserver.net:8080"},
{"url":"http://speedcheck.liwest.at:8080/speedtest/upload.php","lat":"48.3031","lon":"14.2906","distance":0,"name":"Linz","country":"Austria","cc":"AT","sponsor":"LIWEST Kabelmedien GmbH","id":"818","preferred":0,"isp_id":"1977","https_functional":1,"host":"speedcheck.liwest.at.prod.hosts.ooklaserver.net:8080"},
{"url":"http://speedtest2.power-speed.at:8080/speedtest/upload.php","lat":"48.3031","lon":"14.2906","distance":0,"name":"Linz","country":"Austria","cc":"AT","sponsor":"Energie AG","id":"73500","preferred":0,"isp_id":"177429","https_functional":1,"host":"speedtest2.power-speed.at.prod.hosts.ooklaserver.net:8080"},
{"url":"http://speedtest-naw.pr-link.at:8080/speedtest/upload.php","lat":"47.9453","lon":"13.2247","distance":0,"name":"Neumarkt Am Wallersee","country":"Austria","cc":"AT","sponsor":"PR-Link - Peter Rauter GmbH","id":"54973","preferred":0,"isp_id":"20267","https_functional":1,"host":"speedtest-naw.pr-link.at.prod.hosts.ooklaserver.net:8080"},
{"url":"http://speedtest2.infotech-services.at:8080/speedtest/upload.php","lat":"48.2100","lon":"13.4894","distance":0,"name":"Ried","country":"Austria","cc":"AT","sponsor":"Infotech EDV-Systeme GmbH","id":"53627","preferred":0,"isp_id":"8507","https_functional":1,"host":"speedtest2.infotech-services.at.prod.hosts.ooklaserver.net:8080"},
{"url":"http://speedtest.sinovatec.com:8080/speedtest/upload.php","lat":"48.2704","lon":"14.5283","distance":0,"name":"Ried in der Riedmark","country":"Austria","cc":"AT","sponsor":"SinovaTec - Internet&More","id":"61126","preferred":0,"isp_id":"267444","https_functional":1,"host":"speedtest.sinovatec.com.prod.hosts.ooklaserver.net:8080"},
{"url":"http://speed.cablelink.at:8080/speedtest/upload.php","lat":"47.8000","lon":"13.0333","distance":0,"name":"Salzburg","country":"Austria","cc":"AT","sponsor":"Salzburg AG","id":"11532","preferred":0,"isp_id":"80","https_functional":1,"host":"speed.cablelink.at:8080"},
{"url":"http://speedtest-sbg.pr-link.at:8080/speedtest/upload.php","lat":"47.8000","lon":"13.0333","distance":0,"name":"Salzburg","country":"Austria","cc":"AT","sponsor":"PR-Link - Peter Rauter GmbH","id":"55259","preferred":0,"isp_id":"20267","https_functional":1,"host":"speedtest-sbg.pr-link.at.prod.hosts.ooklaserver.net:8080"},
{"url":"http://speedtest-satt.pr-link.at:8080/speedtest/upload.php","lat":"48.0738","lon":"14.0557","distance":0,"name":"Sattledt","country":"Austria","cc":"AT","sponsor":"PR-Link - Peter Rauter GmbH","id":"55754","preferred":0,"isp_id":"20267","https_functional":1,"host":"speedtest-satt.pr-link.at.prod.hosts.ooklaserver.net:8080"},
{"url":"http://speedtest-sdt.cosys.cc:8080/speedtest/upload.php","lat":"48.0738","lon":"14.0557","distance":0,"name":"Sattledt","country":"Austria","cc":"AT","sponsor":"COSYS DATA GmbH","id":"44437","preferred":0,"isp_id":"162617","https_functional":1,"host":"speedtest-sdt.cosys.cc.prod.hosts.ooklaserver.net:8080"},
{"url":"http://speedtest.lucas.company:8080/speedtest/upload.php","lat":"48.4605","lon":"13.4327","distance":0,"name":"Schärding","country":"Austria","cc":"AT","sponsor":"Lucas Development","id":"14296","preferred":0,"isp_id":"53972","https_functional":1,"host":"speedtest.lucas.company.prod.hosts.ooklaserver.net:8080"},
{"url":"http://speedtest.cablevision.at:8080/speedtest/upload.php","lat":"47.9472","lon":"13.6006","distance":0,"name":"Schorfling am Attersee","country":"Austria","cc":"AT","sponsor":"Expert Nöhmer","id":"3926","preferred":0,"isp_id":"99479","https_functional":1,"host":"speedtest.cablevision.at.prod.hosts.ooklaserver.net:8080"},
{"url":"http://speedtest.inn-energie.at:8080/speedtest/upload.php","lat":"48.2557","lon":"13.0443","distance":0,"name":"Simbach am Inn","country":"Austria","cc":"AT","sponsor":"In(n) Energie GmbH","id":"35528","preferred":0,"isp_id":"98920","https_functional":1,"host":"speedtest.inn-energie.at.prod.hosts.ooklaserver.net:8080"},
{"url":"http://speedtest.telfs.com:8080/speedtest/upload.php","lat":"47.2833","lon":"11.0667","distance":0,"name":"Telfs","country":"Austria","cc":"AT","sponsor":"Gemeindewerke Telfs G.m.b.H.","id":"6317","preferred":0,"isp_id":"201577","https_functional":1,"host":"speedtest.telfs.com.prod.hosts.ooklaserver.net:8080"},
{"url":"http://at.blackhost.network:8080/speedtest/upload.php","lat":"48.2088","lon":"16.3726","distance":0,"name":"Vienna","country":"Austria","cc":"AT","sponsor":"BlackHOST Ltd.","id":"46058","preferred":0,"isp_id":"478","https_functional":1,"host":"at.blackhost.network.prod.hosts.ooklaserver.net:8080"},
{"url":"https://lg-vie.fdcservers.net:8080/speedtest/upload.php","lat":"48.2088","lon":"16.3726","distance":0,"name":"Vienna","country":"Austria","cc":"AT","sponsor":"fdcservers.net","id":"6070","preferred":0,"isp_id":"27716","https_functional":1,"host":"lg-vie.fdcservers.net:8080"},
{"url":"http://ookla.evolushost.com:8080/speedtest/upload.php","lat":"48.2088","lon":"16.3726","distance":0,"name":"Vienna","country":"Austria","cc":"AT","sponsor":"Evolushost","id":"70748","preferred":0,"isp_id":"295287","https_functional":1,"host":"ookla.evolushost.com.prod.hosts.ooklaserver.net:8080"},
{"url":"http://speedtest-sa.magenta.at:8080/speedtest/upload.php","lat":"48.2088","lon":"16.3726","distance":0,"name":"Vienna","country":"Austria","cc":"AT","sponsor":"Magenta Telekom","id":"69855","preferred":0,"isp_id":"195567","https_functional":1,"host":"speedtest-sa.magenta.at.prod.hosts.ooklaserver.net:8080"},
{"url":"http://speedtest-vix.cosys.cc:8080/speedtest/upload.php","lat":"48.2088","lon":"16.3726","distance":0,"name":"Vienna","country":"Austria","cc":"AT","sponsor":"COSYS DATA GmbH","id":"16161","preferred":0,"isp_id":"162617","https_functional":1,"host":"speedtest-vix.cosys.cc.prod.hosts.ooklaserver.net:8080"},
{"url":"http://speedtest.alwyzon.net:8080/speedtest/upload.php","lat":"48.2082","lon":"16.3738","distance":0,"name":"Vienna","country":"Austria","cc":"AT","sponsor":"Alwyzon","id":"51547","preferred":0,"isp_id":"213979","https_functional":1,"host":"speedtest.alwyzon.net.prod.hosts.ooklaserver.net:8080"},
{"url":"http://speedtest.ama-networx.net:8080/speedtest/upload.php","lat":"48.2088","lon":"16.3726","distance":0,"name":"Vienna","country":"Austria","cc":"AT","sponsor":"AMA netwoRX GmbH","id":"16472","preferred":0,"isp_id":"154865","https_functional":1,"host":"speedtest.ama-networx.net:8080"},
{"url":"http://speedtest.blizznet.at:8080/speedtest/upload.php","lat":"48.2088","lon":"16.3726","distance":0,"name":"Vienna","country":"Austria","cc":"AT","sponsor":"Wien Energie Business","id":"62623","preferred":0,"isp_id":"64803","host":"speedtest.blizznet.at:8080"},
{"url":"http://speedtest.drei.at:8080/speedtest/upload.php","lat":"48.2088","lon":"16.3726","distance":0,"name":"Vienna","country":"Austria","cc":"AT","sponsor":"Hutchison Drei Austria GmbH","id":"1738","preferred":0,"isp_id":"17566","https_functional":1,"host":"speedtest.drei.at.prod.hosts.ooklaserver.net:8080"},
{"url":"http://speedtest.fonira.at:8080/speedtest/upload.php","lat":"48.2082","lon":"16.3738","distance":0,"name":"Vienna","country":"Austria","cc":"AT","sponsor":"fonira Telekom GmbH","id":"15152","preferred":0,"isp_id":"167019","https_functional":1,"host":"speedtest.fonira.at.prod.hosts.ooklaserver.net:8080"},
{"url":"http://speedtest.ftth.wien:8080/speedtest/upload.php","lat":"48.2088","lon":"16.3726","distance":0,"name":"Vienna","country":"Austria","cc":"AT","sponsor":"Wien Energie Superschnell","id":"63719","preferred":0,"isp_id":"64803","host":"speedtest.ftth.wien:8080"},
{"url":"http://speedtest.kapper.net:8080/speedtest/upload.php","lat":"48.2088","lon":"16.3726","distance":0,"name":"Vienna","country":"Austria","cc":"AT","sponsor":"kapper.net","id":"7412","preferred":0,"isp_id":"30793","https_functional":1,"host":"speedtest.kapper.net.prod.hosts.ooklaserver.net:8080"},
{"url":"http://speedtest.kraftcom.at:8080/speedtest/upload.php","lat":"48.2088","lon":"16.3726","distance":0,"name":"Vienna","country":"Austria","cc":"AT","sponsor":"KraftCom Service GmbH","id":"15904","preferred":0,"isp_id":"84371","https_functional":1,"host":"speedtest.kraftcom.at.prod.hosts.ooklaserver.net:8080"},
{"url":"http://speedtest.nessus.at:8080/speedtest/upload.php","lat":"48.2088","lon":"16.3726","distance":0,"name":"Vienna","country":"Austria","cc":"AT","sponsor":"Nessus GmbH (10G Uplink)","id":"3744","preferred":0,"isp_id":"87949","https_functional":1,"host":"speedtest.nessus.at.prod.hosts.ooklaserver.net:8080"},
{"url":"http://speedtest.netcup.at:8080/speedtest/upload.php","lat":"48.2088","lon":"16.3726","distance":0,"name":"Vienna","country":"Austria","cc":"AT","sponsor":"netcup GmbH","id":"60470","preferred":0,"isp_id":"267444","https_functional":1,"host":"speedtest.netcup.at:8080"},
{"url":"http://speedtest.nextlayer.at:8080/speedtest/upload.php","lat":"48.2088","lon":"16.3726","distance":0,"name":"Vienna","country":"Austria","cc":"AT","sponsor":"NEXT LAYER GmbH","id":"3199","preferred":0,"isp_id":"17566","https_functional":1,"host":"speedtest.nextlayer.at:8080"},
{"url":"http://speedtest.telematica.at:8080/speedtest/upload.php","lat":"48.2088","lon":"16.3726","distance":0,"name":"Vienna","country":"Austria","cc":"AT","sponsor":"Telematica","id":"53528","preferred":0,"isp_id":"320882","https_functional":1,"host":"speedtest.telematica.at:8080"},
{"url":"http://speedtest.vienna.nodescrape.net:8080/speedtest/upload.php","lat":"48.2088","lon":"16.3726","distance":0,"name":"Vienna","country":"Austria","cc":"AT","sponsor":"Nodescrape","id":"71096","preferred":0,"isp_id":"315851","https_functional":1,"host":"speedtest.vienna.nodescrape.net.prod.hosts.ooklaserver.net:8080"},
{"url":"http://speedtest03.timewarp.at:8080/speedtest/upload.php","lat":"48.2081","lon":"16.3713","distance":0,"name":"Vienna","country":"Austria","cc":"AT","sponsor":"Timewarp IT Consulting GmbH","id":"45732","preferred":0,"isp_id":"96205","https_functional":1,"host":"speedtest03.timewarp.at.prod.hosts.ooklaserver.net:8080"},
{"url":"http://speedtest0401.anexia-it.com:8080/speedtest/upload.php","lat":"48.2088","lon":"16.3726","distance":0,"name":"Vienna","country":"Austria","cc":"AT","sponsor":"Anexia","id":"12777","preferred":0,"isp_id":"320882","https_functional":1,"host":"speedtest0401.anexia-it.com:8080"},
{"url":"http://speedtest.itandtel.at:8080/speedtest/upload.php","lat":"48.1500","lon":"14.0167","distance":0,"name":"Wels","country":"Austria","cc":"AT","sponsor":"ITandTEL","id":"3840","preferred":0,"isp_id":"268001","https_functional":1,"host":"speedtest.itandtel.at.prod.hosts.ooklaserver.net:8080"},
{"url":"http://speedtest.japanettelecom.com.br:8080/speedtest/upload.php","lat":"-23.4849","lon":"-46.3495","distance":0,"name":"Itaquaquecetuba","country":"Brazil","cc":"BR","sponsor":"JAPANET TELECOM","id":"56562","preferred":0,"isp_id":"223300","https_functional":1,"host":"speedtest.japanettelecom.com.br:8080"},
{"url":"http://inova.net.gegnet.com.br:8080/speedtest/upload.php","lat":"-26.6776","lon":"-53.3190","distance":0,"name":"Romelândia","country":"Brazil","cc":"BR","sponsor":"Clic Internet","id":"51268","preferred":0,"isp_id":"77826","host":"inova.net.gegnet.com.br:8080"},
{"url":"http://sof.speedtest.gslnetworks.com:8080/speedtest/upload.php","lat":"42.6951","lon":"23.3250","distance":0,"name":"Sofia","country":"Bulgaria","cc":"BG","sponsor":"GSL Networks","id":"65090","preferred":0,"isp_id":"241570","https_functional":1,"host":"sof.speedtest.gslnetworks.com.prod.hosts.ooklaserver.net:8080"},
{"url":"http://stbrantford.rogers.com:8080/speedtest/upload.php","lat":"43.1394","lon":"-80.2644","distance":0,"name":"Brantford, ON","country":"Canada","cc":"CA","sponsor":"Rogers","id":"47541","preferred":0,"isp_id":"164","https_functional":1,"host":"stbrantford.rogers.com:8080"},
{"url":"http://stbrantfordwireless.rogers.com:8080/speedtest/upload.php","lat":"43.1394","lon":"-80.2644","distance":0,"name":"Brantford, ON","country":"Canada","cc":"CA","sponsor":"Rogers Wireless","id":"46139","preferred":0,"isp_id":"164","https_functional":1,"host":"stbrantfordwireless.rogers.com:8080"},
{"url":"http://wirelinespeedtestburlington.srvr.bell.ca:8080/speedtest/upload.php","lat":"43.3255","lon":"-79.7990","distance":0,"name":"Burlington, ON","country":"Canada","cc":"CA","sponsor":"Bell Canada","id":"46797","preferred":0,"isp_id":"0","https_functional":1,"host":"wirelinespeedtestburlington.srvr.bell.ca.prod.hosts.ooklaserver.net:8080"},
{"url":"http://speed.mpvnetworks.com:8080/speedtest/upload.php","lat":"42.4048","lon":"-82.1910","distance":0,"name":"Chatham, ON","country":"Canada","cc":"CA","sponsor":"MPVWIFI","id":"47304","preferred":0,"isp_id":"208551","https_functional":1,"host":"speed.mpvnetworks.com.prod.hosts.ooklaserver.net:8080"},
{"url":"http://speedtest-tek.teksavvy.com:8080/speedtest/upload.php","lat":"42.4048","lon":"-82.1910","distance":0,"name":"Chatham, ON","country":"Canada","cc":"CA","sponsor":"Teksavvy Solutions Inc.","id":"47750","preferred":0,"isp_id":"2324","host":"speedtest-tek.teksavvy.com:8080"},
{"url":"http://stchathamwireless.rogers.com:8080/speedtest/upload.php","lat":"42.4048","lon":"-82.1910","distance":0,"name":"Chatham, ON","country":"Canada","cc":"CA","sponsor":"Rogers Wireless","id":"47344","preferred":0,"isp_id":"164","https_functional":1,"host":"stchathamwireless.rogers.com:8080"},
{"url":"http://speedtest.gosfieldtel.ca:8080/speedtest/upload.php","lat":"42.1330","lon":"-82.7500","distance":0,"name":"Cottam, ON","country":"Canada","cc":"CA","sponsor":"Gosfield North Communications","id":"11505","preferred":0,"isp_id":"62744","https_functional":1,"host":"speedtest.gosfieldtel.ca.prod.hosts.ooklaserver.net:8080"},
{"url":"http://stetobicoke.netcrawler.ca:8080/speedtest/upload.php","lat":"43.6205","lon":"-79.5132","distance":0,"name":"Etobicoke, ON","country":"Canada","cc":"CA","sponsor":"Netcrawler.ca Internet","id":"51046","preferred":0,"isp_id":"226932","https_functional":1,"host":"stetobicoke.netcrawler.ca.prod.hosts.ooklaserver.net:8080"},
{"url":"http://stetobicoke.rogers.com:8080/speedtest/upload.php","lat":"43.6205","lon":"-79.5132","distance":0,"name":"Etobicoke, ON","country":"Canada","cc":"CA","sponsor":"Rogers","id":"46144","preferred":0,"isp_id":"164","https_functional":1,"host":"stetobicoke.rogers.com:8080"},
{"url":"http://stgeorgetownwireless.rogers.com:8080/speedtest/upload.php","lat":"43.6502","lon":"-79.9036","distance":0,"name":"Georgetown, ON","country":"Canada","cc":"CA","sponsor":"Rogers Wireless","id":"47345","preferred":0,"isp_id":"164","https_functional":1,"host":"stgeorgetownwireless.rogers.com:8080"},
{"url":"http://stguelph.netcrawler.ca:8080/speedtest/upload.php","lat":"43.5448","lon":"-80.2482","distance":0,"name":"Guelph, ON","country":"Canada","cc":"CA","sponsor":"Netcrawler.ca Internet","id":"54122","preferred":0,"isp_id":"226932","https_functional":1,"host":"stguelph.netcrawler.ca.prod.hosts.ooklaserver.net:8080"},
{"url":"http://stguelph.rogers.com:8080/speedtest/upload.php","lat":"43.5448","lon":"-80.2482","distance":0,"name":"Guelph, ON","country":"Canada","cc":"CA","sponsor":"Rogers","id":"46435","preferred":0,"isp_id":"164","https_functional":1,"host":"stguelph.rogers.com:8080"},
{"url":"http://stguelphwireless.rogers.com:8080/speedtest/upload.php","lat":"43.5448","lon":"-80.2482","distance":0,"name":"Guelph, ON","country":"Canada","cc":"CA","sponsor":"Rogers Wireless","id":"47328","preferred":0,"isp_id":"164","https_functional":1,"host":"stguelphwireless.rogers.com:8080"},
{"url":"http://wirelinespeedtestcambridge.srvr.bell.ca:8080/speedtest/upload.php","lat":"43.5448","lon":"-80.2482","distance":0,"name":"Guelph, ON","country":"Canada","cc":"CA","sponsor":"Bell Canada","id":"46805","preferred":0,"isp_id":"0","https_functional":1,"host":"wirelinespeedtestcambridge.srvr.bell.ca.prod.hosts.ooklaserver.net:8080"},
{"url":"http://mobilityooklahamilton.srvr.bell.ca:8080/speedtest/upload.php","lat":"43.2565","lon":"-79.8675","distance":0,"name":"Hamilton, ON","country":"Canada","cc":"CA","sponsor":"Bell Mobility","id":"52347","preferred":0,"isp_id":"0","https_functional":1,"host":"mobilityooklahamilton.srvr.bell.ca.prod.hosts.ooklaserver.net:8080"},
{"url":"http://sp1.hcetelecom.com:8080/speedtest/upload.php","lat":"43.2565","lon":"-79.8675","distance":0,"name":"Hamilton, ON","country":"Canada","cc":"CA","sponsor":"Hamilton Community Enterprises","id":"21275","preferred":0,"isp_id":"245329","host":"sp1.hcetelecom.com:8080"},
{"url":"http://sthamilton.netcrawler.ca:8080/speedtest/upload.php","lat":"43.2565","lon":"-79.8675","distance":0,"name":"Hamilton, ON","country":"Canada","cc":"CA","sponsor":"Netcrawler.ca Internet","id":"54123","preferred":0,"isp_id":"226932","https_functional":1,"host":"sthamilton.netcrawler.ca.prod.hosts.ooklaserver.net:8080"},
{"url":"http://sthamilton.rogers.com:8080/speedtest/upload.php","lat":"43.2565","lon":"-79.8675","distance":0,"name":"Hamilton, ON","country":"Canada","cc":"CA","sponsor":"Rogers","id":"46432","preferred":0,"isp_id":"164","https_functional":1,"host":"sthamilton.rogers.com:8080"},
{"url":"http://sthamiltonwireless.rogers.com:8080/speedtest/upload.php","lat":"43.2565","lon":"-79.8675","distance":0,"name":"Hamilton, ON","country":"Canada","cc":"CA","sponsor":"Rogers Wireless","id":"47326","preferred":0,"isp_id":"164","https_functional":1,"host":"sthamiltonwireless.rogers.com:8080"},
{"url":"http://wirelinespeedtesthamilton.srvr.bell.ca:8080/speedtest/upload.php","lat":"43.2565","lon":"-79.8675","distance":0,"name":"Hamilton, ON","country":"Canada","cc":"CA","sponsor":"Bell Canada","id":"46796","preferred":0,"isp_id":"0","https_functional":1,"host":"wirelinespeedtesthamilton.srvr.bell.ca.prod.hosts.ooklaserver.net:8080"},
{"url":"http://speedtest.brooketel.coop:8080/speedtest/upload.php","lat":"42.8180","lon":"-81.9825","distance":0,"name":"Inwood, ON","country":"Canada","cc":"CA","sponsor":"Brooke Telecom Co-Operative Inc.","id":"55213","preferred":0,"isp_id":"228980","https_functional":1,"host":"speedtest.brooketel.coop.prod.hosts.ooklaserver.net:8080"},
{"url":"http://speed-oak.systemlifeline.com:8080/speedtest/upload.php","lat":"43.4675","lon":"-79.6877","distance":0,"name":"Kitchener, ON","country":"Canada","cc":"CA","sponsor":"SimplyNet Canada Inc.","id":"57872","preferred":0,"isp_id":"212871","https_functional":1,"host":"speed-oak.systemlifeline.com.prod.hosts.ooklaserver.net:8080"},
{"url":"http://speedtest.cloudwifi.ca:8080/speedtest/upload.php","lat":"43.4500","lon":"-80.4833","distance":0,"name":"Kitchener, ON","country":"Canada","cc":"CA","sponsor":"Cloudwifi","id":"16046","preferred":0,"isp_id":"122678","https_functional":1,"host":"speedtest.cloudwifi.ca.prod.hosts.ooklaserver.net:8080"},
{"url":"http://speedtest.netflash.net:8080/speedtest/upload.php","lat":"43.4500","lon":"-80.4833","distance":0,"name":"Kitchener, ON","country":"Canada","cc":"CA","sponsor":"Netflash Internet","id":"1061","preferred":0,"isp_id":"29017","https_functional":1,"host":"speedtest.netflash.net:8080"},
{"url":"http://stkitchener.rogers.com:8080/speedtest/upload.php","lat":"43.4500","lon":"-80.4833","distance":0,"name":"Kitchener, ON","country":"Canada","cc":"CA","sponsor":"Rogers","id":"46809","preferred":0,"isp_id":"164","https_functional":1,"host":"stkitchener.rogers.com:8080"},
{"url":"http://stkitchenerwireless.rogers.com:8080/speedtest/upload.php","lat":"43.4500","lon":"-80.4833","distance":0,"name":"Kitchener, ON","country":"Canada","cc":"CA","sponsor":"Rogers Wireless","id":"46125","preferred":0,"isp_id":"164","https_functional":1,"host":"stkitchenerwireless.rogers.com:8080"},
{"url":"http://wirelinespeedtestkitchener.srvr.bell.ca:8080/speedtest/upload.php","lat":"43.4500","lon":"-80.4833","distance":0,"name":"Kitchener, ON","country":"Canada","cc":"CA","sponsor":"Bell Canada","id":"46804","preferred":0,"isp_id":"0","https_functional":1,"host":"wirelinespeedtestkitchener.srvr.bell.ca.prod.hosts.ooklaserver.net:8080"},
{"url":"http://stleamingtonwireless.rogers.com:8080/speedtest/upload.php","lat":"42.0532","lon":"-82.5999","distance":0,"name":"Leamington, ON","country":"Canada","cc":"CA","sponsor":"Rogers Wireless","id":"47350","preferred":0,"isp_id":"164","https_functional":1,"host":"stleamingtonwireless.rogers.com:8080"},
{"url":"http://speedtest-london.start.ca:8080/speedtest/upload.php","lat":"42.9837","lon":"-81.2497","distance":0,"name":"London, ON","country":"Canada","cc":"CA","sponsor":"Start.ca","id":"24930","preferred":0,"isp_id":"16391","https_functional":1,"host":"speedtest-london.start.ca.prod.hosts.ooklaserver.net:8080"},
{"url":"http://speedtest.nftctelecom.net:8080/speedtest/upload.php","lat":"42.9849","lon":"-81.2453","distance":0,"name":"London, ON","country":"Canada","cc":"CA","sponsor":"NFTC Telecom","id":"14068","preferred":0,"isp_id":"106124","https_functional":1,"host":"speedtest.nftctelecom.net.prod.hosts.ooklaserver.net:8080"},
{"url":"http://stlondon.netcrawler.ca:8080/speedtest/upload.php","lat":"42.9849","lon":"-81.2453","distance":0,"name":"London, ON","country":"Canada","cc":"CA","sponsor":"Netcrawler.ca Internet","id":"54253","preferred":0,"isp_id":"226932","https_functional":1,"host":"stlondon.netcrawler.ca.prod.hosts.ooklaserver.net:8080"},
{"url":"http://stlondon.rogers.com:8080/speedtest/upload.php","lat":"42.9849","lon":"-81.2453","distance":0,"name":"London, ON","country":"Canada","cc":"CA","sponsor":"Rogers","id":"46149","preferred":0,"isp_id":"164","https_functional":1,"host":"stlondon.rogers.com:8080"},
{"url":"http://stlondonwireless.rogers.com:8080/speedtest/upload.php","lat":"42.9849","lon":"-81.2453","distance":0,"name":"London, ON","country":"Canada","cc":"CA","sponsor":"Rogers Wireless","id":"46137","preferred":0,"isp_id":"164","https_functional":1,"host":"stlondonwireless.rogers.com:8080"},
{"url":"http://wirelinespeedtestlondon.srvr.bell.ca:8080/speedtest/upload.php","lat":"42.9849","lon":"-81.2453","distance":0,"name":"London, ON","country":"Canada","cc":"CA","sponsor":"Bell Canada","id":"57695","preferred":0,"isp_id":"254596","https_functional":1,"host":"wirelinespeedtestlondon.srvr.bell.ca.prod.hosts.ooklaserver.net:8080"},
{"url":"http://clg-105-sptest.ncri.com:8080/speedtest/upload.php","lat":"43.6481","lon":"-79.4042","distance":0,"name":"Markham, ON","country":"Canada","cc":"CA","sponsor":"NCRi","id":"59812","preferred":0,"isp_id":"256720","https_functional":1,"host":"clg-105-sptest.ncri.com.prod.hosts.ooklaserver.net:8080"},
{"url":"http://speed.markham.telmax.ca:8080/speedtest/upload.php","lat":"43.6481","lon":"-79.4042","distance":0,"name":"Markham, ON","country":"Canada","cc":"CA","sponsor":"telMAX","id":"74026","preferred":0,"isp_id":"174443","https_functional":1,"host":"speed.markham.telmax.ca.prod.hosts.ooklaserver.net:8080"},
{"url":"http://wirelinespeedtestmarkham.srvr.bell.ca:8080/speedtest/upload.php","lat":"43.6481","lon":"-79.4042","distance":0,"name":"Markham, ON","country":"Canada","cc":"CA","sponsor":"Bell Canada","id":"17394","preferred":0,"isp_id":"0","https_functional":1,"host":"wirelinespeedtestmarkham.srvr.bell.ca.prod.hosts.ooklaserver.net:8080"},
{"url":"http://stmilton.rogers.com:8080/speedtest/upload.php","lat":"43.5183","lon":"-79.8774","distance":0,"name":"Milton, ON","country":"Canada","cc":"CA","sponsor":"Rogers","id":"47540","preferred":0,"isp_id":"164","https_functional":1,"host":"stmilton.rogers.com:8080"},
{"url":"http://stmiltonwireless.rogers.com:8080/speedtest/upload.php","lat":"43.5183","lon":"-79.8774","distance":0,"name":"Milton, ON","country":"Canada","cc":"CA","sponsor":"Rogers Wireless","id":"47330","preferred":0,"isp_id":"164","https_functional":1,"host":"stmiltonwireless.rogers.com:8080"},
{"url":"http://speed-miss.systemlifeline.com:8080/speedtest/upload.php","lat":"43.6000","lon":"-79.6500","distance":0,"name":"Mississauga, ON","country":"Canada","cc":"CA","sponsor":"System Lifeline Inc.","id":"57871","preferred":0,"isp_id":"212871","https_functional":1,"host":"speed-miss.systemlifeline.com.prod.hosts.ooklaserver.net:8080"},
{"url":"http://stmississauga.netcrawler.ca:8080/speedtest/upload.php","lat":"43.6000","lon":"-79.6500","distance":0,"name":"Mississauga, ON","country":"Canada","cc":"CA","sponsor":"Netcrawler.ca Internet","id":"48976","preferred":0,"isp_id":"226932","https_functional":1,"host":"stmississauga.netcrawler.ca.prod.hosts.ooklaserver.net:8080"},
{"url":"http://stmississauga.rogers.com:8080/speedtest/upload.php","lat":"43.6000","lon":"-79.6500","distance":0,"name":"Mississauga, ON","country":"Canada","cc":"CA","sponsor":"Rogers","id":"46147","preferred":0,"isp_id":"164","https_functional":1,"host":"stmississauga.rogers.com:8080"},
{"url":"http://stmississaugawireless.rogers.com:8080/speedtest/upload.php","lat":"43.6000","lon":"-79.6500","distance":0,"name":"Mississauga, ON","country":"Canada","cc":"CA","sponsor":"Rogers Wireless","id":"46123","preferred":0,"isp_id":"164","https_functional":1,"host":"stmississaugawireless.rogers.com:8080"},
{"url":"http://wirelinespeedtestmississauga.srvr.bell.ca:8080/speedtest/upload.php","lat":"43.6000","lon":"-79.6500","distance":0,"name":"Mississauga, ON","country":"Canada","cc":"CA","sponsor":"Bell Canada","id":"56780","preferred":0,"isp_id":"254596","https_functional":1,"host":"wirelinespeedtestmississauga.srvr.bell.ca.prod.hosts.ooklaserver.net:8080"},
{"url":"http://ookla.mtt.as6453.net:8080/speedtest/upload.php","lat":"45.5019","lon":"-73.5674","distance":0,"name":"Montreal, QC","country":"Canada","cc":"CA","sponsor":"Tata Communications","id":"73620","preferred":0,"isp_id":"310556","https_functional":1,"host":"ookla.mtt.as6453.net.prod.hosts.ooklaserver.net:8080"},
{"url":"http://speedtest-mtl.beanfield.com:8080/speedtest/upload.php","lat":"45.5017","lon":"-73.5673","distance":0,"name":"Montreal, QC","country":"Canada","cc":"CA","sponsor":"Beanfield","id":"16045","preferred":0,"isp_id":"4966","https_functional":1,"host":"speedtest-mtl.beanfield.com.prod.hosts.ooklaserver.net:8080"},
{"url":"http://speedtest.cdmsfirst.com:8080/speedtest/upload.php","lat":"45.5017","lon":"-73.5673","distance":0,"name":"Montreal, QC","country":"Canada","cc":"CA","sponsor":"CDMS","id":"63155","preferred":0,"isp_id":"324987","host":"speedtest.cdmsfirst.com:8080"},
{"url":"http://speedtest.xcdtelecom.com:8080/speedtest/upload.php","lat":"45.5017","lon":"-73.5673","distance":0,"name":"Montreal, QC","country":"Canada","cc":"CA","sponsor":"XCD Télécom","id":"59219","preferred":0,"isp_id":"204334","https_functional":1,"host":"speedtest.xcdtelecom.com.prod.hosts.ooklaserver.net:8080"},
{"url":"http://stmontreal.netcrawler.ca:8080/speedtest/upload.php","lat":"45.5019","lon":"-73.5674","distance":0,"name":"Montreal, QC","country":"Canada","cc":"CA","sponsor":"Netcrawler.ca Internet","id":"64420","preferred":0,"isp_id":"226932","https_functional":1,"host":"stmontreal.netcrawler.ca.prod.hosts.ooklaserver.net:8080"},
{"url":"http://stnorthyork.rogers.com:8080/speedtest/upload.php","lat":"43.7615","lon":"-79.4111","distance":0,"name":"North York, ON","country":"Canada","cc":"CA","sponsor":"Rogers","id":"46811","preferred":0,"isp_id":"164","https_functional":1,"host":"stnorthyork.rogers.com:8080"},
{"url":"http://stnorthyorkwireless.rogers.com:8080/speedtest/upload.php","lat":"43.7615","lon":"-79.4111","distance":0,"name":"North York, ON","country":"Canada","cc":"CA","sponsor":"Rogers Wireless","id":"46761","preferred":0,"isp_id":"164","https_functional":1,"host":"stnorthyorkwireless.rogers.com:8080"},
{"url":"http://tor21spd01.srvr.bell.ca:8080/speedtest/upload.php","lat":"43.7615","lon":"-79.4111","distance":0,"name":"North York, ON","country":"Canada","cc":"CA","sponsor":"Bell Canada","id":"17568","preferred":0,"isp_id":"0","https_functional":1,"host":"tor21spd01.srvr.bell.ca.prod.hosts.ooklaserver.net:8080"},
{"url":"http://stoakville.rogers.com:8080/speedtest/upload.php","lat":"43.4675","lon":"-79.6877","distance":0,"name":"Oakville, ON","country":"Canada","cc":"CA","sponsor":"Rogers","id":"46763","preferred":0,"isp_id":"164","https_functional":1,"host":"stoakville.rogers.com:8080"},
{"url":"http://stscarborough.netcrawler.ca:8080/speedtest/upload.php","lat":"43.7764","lon":"-79.2318","distance":0,"name":"Scarborough, ON","country":"Canada","cc":"CA","sponsor":"Netcrawler.ca Internet","id":"46837","preferred":0,"isp_id":"226932","https_functional":1,"host":"stscarborough.netcrawler.ca.prod.hosts.ooklaserver.net:8080"},
{"url":"http://stscarborough.rogers.com:8080/speedtest/upload.php","lat":"43.7764","lon":"-79.2318","distance":0,"name":"Scarborough, ON","country":"Canada","cc":"CA","sponsor":"Rogers","id":"46431","preferred":0,"isp_id":"164","https_functional":1,"host":"stscarborough.rogers.com:8080"},
{"url":"http://wirelinespeedtestscarborough.srvr.bell.ca:8080/speedtest/upload.php","lat":"43.7764","lon":"-79.2318","distance":0,"name":"Scarborough, ON","country":"Canada","cc":"CA","sponsor":"Bell Canada","id":"53394","preferred":0,"isp_id":"0","https_functional":1,"host":"wirelinespeedtestscarborough.srvr.bell.ca.prod.hosts.ooklaserver.net:8080"},
{"url":"http://ststcatharineswireless.rogers.com:8080/speedtest/upload.php","lat":"43.1594","lon":"-79.2469","distance":0,"name":"St. Catharines, ON","country":"Canada","cc":"CA","sponsor":"Rogers Wireless","id":"46138","preferred":0,"isp_id":"164","https_functional":1,"host":"ststcatharineswireless.rogers.com:8080"},
{"url":"http://wirelinespeedteststcatharines.srvr.bell.ca:8080/speedtest/upload.php","lat":"43.1594","lon":"-79.2469","distance":0,"name":"St. Catharines, ON","country":"Canada","cc":"CA","sponsor":"Bell Canada","id":"46794","preferred":0,"isp_id":"0","https_functional":1,"host":"wirelinespeedteststcatharines.srvr.bell.ca.prod.hosts.ooklaserver.net:8080"},
{"url":"http://ststthomas.rogers.com:8080/speedtest/upload.php","lat":"42.7777","lon":"-81.1827","distance":0,"name":"St. Thomas, ON","country":"Canada","cc":"CA","sponsor":"Rogers","id":"47542","preferred":0,"isp_id":"164","https_functional":1,"host":"ststthomas.rogers.com:8080"},
{"url":"http://ststthomaswireless.rogers.com:8080/speedtest/upload.php","lat":"42.7777","lon":"-81.1827","distance":0,"name":"St. Thomas, ON","country":"Canada","cc":"CA","sponsor":"Rogers Wireless","id":"47346","preferred":0,"isp_id":"164","https_functional":1,"host":"ststthomaswireless.rogers.com:8080"},
{"url":"http://wirelinespeedteststthomas.srvr.bell.ca:8080/speedtest/upload.php","lat":"42.7777","lon":"-81.1827","distance":0,"name":"St. Thomas, ON","country":"Canada","cc":"CA","sponsor":"Bell Canada","id":"43553","preferred":0,"isp_id":"0","https_functional":1,"host":"wirelinespeedteststthomas.srvr.bell.ca.prod.hosts.ooklaserver.net:8080"},
{"url":"http://ststratford.rogers.com:8080/speedtest/upload.php","lat":"43.3700","lon":"-80.9822","distance":0,"name":"Stratford, ON","country":"Canada","cc":"CA","sponsor":"Rogers","id":"47547","preferred":0,"isp_id":"164","https_functional":1,"host":"ststratford.rogers.com:8080"},
{"url":"http://ststratfordwireless.rogers.com:8080/speedtest/upload.php","lat":"43.3700","lon":"-80.9822","distance":0,"name":"Stratford, ON","country":"Canada","cc":"CA","sponsor":"Rogers Wireless","id":"47353","preferred":0,"isp_id":"164","https_functional":1,"host":"ststratfordwireless.rogers.com:8080"},
{"url":"http://speedtest.seaside.ns.ca:8080/speedtest/upload.php","lat":"46.1378","lon":"-60.1829","distance":0,"name":"Sydney, NS","country":"Canada","cc":"CA","sponsor":"Seaside Communications","id":"1245","preferred":0,"isp_id":"29067","https_functional":1,"host":"speedtest.seaside.ns.ca.prod.hosts.ooklaserver.net:8080"},
{"url":"http://wirelinespeedtestsydney.srvr.bell.ca:8080/speedtest/upload.php","lat":"46.1378","lon":"-60.1829","distance":0,"name":"Sydney, NS","country":"Canada","cc":"CA","sponsor":"Bell Canada","id":"55031","preferred":0,"isp_id":"254596","https_functional":1,"host":"wirelinespeedtestsydney.srvr.bell.ca.prod.hosts.ooklaserver.net:8080"},
{"url":"http://wirelinespeedtesttecumseh.srvr.bell.ca:8080/speedtest/upload.php","lat":"42.3118","lon":"-82.8858","distance":0,"name":"Tecumseh, ON","country":"Canada","cc":"CA","sponsor":"Bell Canada","id":"46799","preferred":0,"isp_id":"0","https_functional":1,"host":"wirelinespeedtesttecumseh.srvr.bell.ca.prod.hosts.ooklaserver.net:8080"},
{"url":"http://wirelinespeedtestthorold.srvr.bell.ca:8080/speedtest/upload.php","lat":"43.1236","lon":"-79.1989","distance":0,"name":"Thorold, ON","country":"Canada","cc":"CA","sponsor":"Bell Canada","id":"46795","preferred":0,"isp_id":"0","https_functional":1,"host":"wirelinespeedtestthorold.srvr.bell.ca.prod.hosts.ooklaserver.net:8080"},
{"url":"http://east-speedtest.frontiernetworks.ca:8080/speedtest/upload.php","lat":"43.6481","lon":"-79.4042","distance":0,"name":"Toronto, ON","country":"Canada","cc":"CA","sponsor":"Frontier Networks Inc","id":"13238","preferred":0,"isp_id":"47813","https_functional":1,"host":"east-speedtest.frontiernetworks.ca.prod.hosts.ooklaserver.net:8080"},
{"url":"http://falcon.its.utoronto.ca:8080/speedtest/upload.php","lat":"43.6481","lon":"-79.4042","distance":0,"name":"Toronto, ON","country":"Canada","cc":"CA","sponsor":"University of Toronto","id":"22138","preferred":0,"isp_id":"680","https_functional":1,"host":"falcon.its.utoronto.ca:8080"},
{"url":"http://lg-tor.fdcservers.net:8080/speedtest/upload.php","lat":"43.6481","lon":"-79.4042","distance":0,"name":"Toronto, ON","country":"Canada","cc":"CA","sponsor":"fdcservers.net","id":"9911","preferred":0,"isp_id":"27716","https_functional":1,"host":"lg-tor.fdcservers.net:8080"},
{"url":"http://spdtst.xenyth.net:8080/speedtest/upload.php","lat":"43.6481","lon":"-79.4042","distance":0,"name":"Toronto, ON","country":"Canada","cc":"CA","sponsor":"GoCodeIT Inc","id":"38242","preferred":0,"isp_id":"199478","https_functional":1,"host":"spdtst.xenyth.net.prod.hosts.ooklaserver.net:8080"},
{"url":"http://speed.toronto.telmax.ca:8080/speedtest/upload.php","lat":"43.6481","lon":"-79.4042","distance":0,"name":"Toronto, ON","country":"Canada","cc":"CA","sponsor":"telMAX","id":"74035","preferred":0,"isp_id":"174443","https_functional":1,"host":"speed.toronto.telmax.ca.prod.hosts.ooklaserver.net:8080"},
{"url":"http://speedtest-engine.primus.ca/speedtest/upload.php","lat":"43.6487","lon":"-79.3854","distance":0,"name":"Toronto, ON","country":"Canada","cc":"CA","sponsor":"Primus","id":"15038","preferred":0,"isp_id":"861","https_functional":1,"host":"speedtest-engine.primus.ca.prod.hosts.ooklaserver.net:8080"},
{"url":"http://speedtest-tor.beanfield.com:8080/speedtest/upload.php","lat":"43.6481","lon":"-79.4042","distance":0,"name":"Toronto, ON","country":"Canada","cc":"CA","sponsor":"Beanfield","id":"64882","preferred":0,"isp_id":"4966","https_functional":1,"host":"speedtest-tor.beanfield.com.prod.hosts.ooklaserver.net:8080"},
{"url":"http://speedtest.ca-tr.kamatera.com:8080/speedtest/upload.php","lat":"43.6481","lon":"-79.4042","distance":0,"name":"Toronto, ON","country":"Canada","cc":"CA","sponsor":"KamaTera, Inc.","id":"69754","preferred":0,"isp_id":"177546","https_functional":1,"host":"speedtest.ca-tr.kamatera.com.prod.hosts.ooklaserver.net:8080"},
{"url":"http://speedtest.netcrawler.ca:8080/speedtest/upload.php","lat":"43.6481","lon":"-79.4042","distance":0,"name":"Toronto, ON","country":"Canada","cc":"CA","sponsor":"Netcrawler.ca Internet","id":"46580","preferred":0,"isp_id":"226932","https_functional":1,"host":"speedtest.netcrawler.ca.prod.hosts.ooklaserver.net:8080"},
{"url":"http://speedtest.nexicom.net:8080/speedtest/upload.php","lat":"43.6481","lon":"-79.4042","distance":0,"name":"Toronto, ON","country":"Canada","cc":"CA","sponsor":"Nexicom Inc.","id":"826","preferred":0,"isp_id":"768","https_functional":1,"host":"speedtest.nexicom.net.prod.hosts.ooklaserver.net:8080"},
{"url":"http://speedtest1.innsys.ca:8080/speedtest/upload.php","lat":"43.6481","lon":"-79.4042","distance":0,"name":"Toronto, ON","country":"Canada","cc":"CA","sponsor":"InnSys Inc","id":"50317","preferred":0,"isp_id":"65417","https_functional":1,"host":"speedtest1.innsys.ca.prod.hosts.ooklaserver.net:8080"},
{"url":"http://speedtest1.xbase.com:8080/speedtest/upload.php","lat":"43.6481","lon":"-79.4042","distance":0,"name":"Toronto, ON","country":"Canada","cc":"CA","sponsor":"XBASE Technologies","id":"59322","preferred":0,"isp_id":"478","https_functional":1,"host":"speedtest1.xbase.com.prod.hosts.ooklaserver.net:8080"},
{"url":"http://speedtest2-tor.teksavvy.com:8080/speedtest/upload.php","lat":"43.6532","lon":"-79.3832","distance":0,"name":"Toronto, ON","country":"Canada","cc":"CA","sponsor":"Teksavvy Solutions Inc","id":"32632","preferred":0,"isp_id":"2324","https_functional":1,"host":"speedtest2-tor.teksavvy.com.prod.hosts.ooklaserver.net:8080"},
{"url":"http://speedtester.comwave.net:8080/speedtest/upload.php","lat":"43.6481","lon":"-79.4042","distance":0,"name":"Toronto, ON","country":"Canada","cc":"CA","sponsor":"Comwave Networks Inc","id":"31127","preferred":0,"isp_id":"81764","https_functional":1,"host":"speedtester.comwave.net.prod.hosts.ooklaserver.net:8080"},
{"url":"http://sttoronto.rogers.com:8080/speedtest/upload.php","lat":"43.6481","lon":"-79.4042","distance":0,"name":"Toronto, ON","country":"Canada","cc":"CA","sponsor":"Rogers","id":"46143","preferred":0,"isp_id":"164","https_functional":1,"host":"sttoronto.rogers.com:8080"},
{"url":"http://sttorontowireless.rogers.com:8080/speedtest/upload.php","lat":"43.6481","lon":"-79.4042","distance":0,"name":"Toronto, ON","country":"Canada","cc":"CA","sponsor":"Rogers Wireless","id":"46759","preferred":0,"isp_id":"164","https_functional":1,"host":"sttorontowireless.rogers.com:8080"},
{"url":"http:// t4y-toronto-ca-osts1.ser.tek4you.ca:8080/speedtest/upload.php","lat":"43.6481","lon":"-79.4042","distance":0,"name":"Toronto, ON","country":"Canada","cc":"CA","sponsor":"Tek4You Computer Repair & IT Services","id":"54410","preferred":0,"isp_id":"274949","https_functional":1,"host":"t4y-toronto-ca-osts1.ser.tek4you.ca.prod.hosts.ooklaserver.net:8080"},
{"url":"http://tdc01-speedtest.whipcord.com:8080/speedtest/upload.php","lat":"43.6481","lon":"-79.4042","distance":0,"name":"Toronto, ON","country":"Canada","cc":"CA","sponsor":"Whipcord Edge Data Centres","id":"69636","preferred":0,"isp_id":"112588","https_functional":1,"host":"tdc01-speedtest.whipcord.com.prod.hosts.ooklaserver.net:8080"},
{"url":"http://tor-speedtest.net.sangoma.net:8080/speedtest/upload.php","lat":"43.6481","lon":"-79.4042","distance":0,"name":"Toronto, ON","country":"Canada","cc":"CA","sponsor":"Sangoma","id":"63994","preferred":0,"isp_id":"289410","https_functional":1,"host":"tor-speedtest.net.sangoma.net.prod.hosts.ooklaserver.net:8080"},
{"url":"http://tor11speedtest01.srvr.bell.ca:8080/speedtest/upload.php","lat":"43.6481","lon":"-79.4042","distance":0,"name":"Toronto, ON","country":"Canada","cc":"CA","sponsor":"Bell Mobility","id":"16753","preferred":0,"isp_id":"0","https_functional":1,"host":"tor11speedtest01.srvr.bell.ca.prod.hosts.ooklaserver.net:8080"},
{"url":"http://toronto.speedtest.telus.com:8080/speedtest/upload.php","lat":"43.6481","lon":"-79.4042","distance":0,"name":"Toronto, ON","country":"Canada","cc":"CA","sponsor":"TELUS","id":"3575","preferred":0,"isp_id":"256720","https_functional":1,"host":"toronto.speedtest.telus.com.prod.hosts.ooklaserver.net:8080"},
{"url":"http://toronto2.speedtest.telus.com:8080/speedtest/upload.php","lat":"43.6481","lon":"-79.4042","distance":0,"name":"Toronto, ON","country":"Canada","cc":"CA","sponsor":"TELUS Mobility","id":"24698","preferred":0,"isp_id":"256720","https_functional":1,"host":"toronto2.speedtest.telus.com.prod.hosts.ooklaserver.net:8080"},
{"url":"http://trtspeedtest.altimatel.com:8080/speedtest/upload.php","lat":"43.6481","lon":"-79.4042","distance":0,"name":"Toronto, ON","country":"Canada","cc":"CA","sponsor":"Altima Telecom","id":"63649","preferred":0,"isp_id":"72038","https_functional":1,"host":"trtspeedtest.altimatel.com.prod.hosts.ooklaserver.net:8080"},
{"url":"http://tsdvuspeedtest01p.allstream.com:8080/speedtest/upload.php","lat":"43.6481","lon":"-79.4042","distance":0,"name":"Toronto, ON","country":"Canada","cc":"CA","sponsor":"allstream","id":"56781","preferred":0,"isp_id":"18366","https_functional":1,"host":"tsdvuspeedtest01p.allstream.com.prod.hosts.ooklaserver.net:8080"},
{"url":"http://wirelinespeedtesttoronto.srvr.bell.ca:8080/speedtest/upload.php","lat":"43.6481","lon":"-79.4042","distance":0,"name":"Toronto, ON","country":"Canada","cc":"CA","sponsor":"Bell Canada","id":"53393","preferred":0,"isp_id":"0","https_functional":1,"host":"wirelinespeedtesttoronto.srvr.bell.ca.prod.hosts.ooklaserver.net:8080"},
{"url":"http://yyz-speedtest.xplore.ca:8080/speedtest/upload.php","lat":"43.6481","lon":"-79.4042","distance":0,"name":"Toronto, ON","country":"Canada","cc":"CA","sponsor":"Xplore Inc","id":"53159","preferred":0,"isp_id":"70988","https_functional":1,"host":"yyz-speedtest.xplore.ca.prod.hosts.ooklaserver.net:8080"},
{"url":"http://speedtest-6.aebc.com:8080/speedtest/upload.php","lat":"49.2505","lon":"-123.1119","distance":0,"name":"Vancouver, BC","country":"Canada","cc":"CA","sponsor":"AEBC Internet","id":"41509","preferred":0,"isp_id":"21032","https_functional":1,"host":"speedtest-6.aebc.com.prod.hosts.ooklaserver.net:8080"},
{"url":"http://speedtest-van.beanfield.com:8080/speedtest/upload.php","lat":"49.2505","lon":"-123.1119","distance":0,"name":"Vancouver, BC","country":"Canada","cc":"CA","sponsor":"Beanfield","id":"67411","preferred":0,"isp_id":"4966","https_functional":1,"host":"speedtest-van.beanfield.com.prod.hosts.ooklaserver.net:8080"},
{"url":"http://speedtest.skywaywest.net:8080/speedtest/upload.php","lat":"49.2505","lon":"-123.1119","distance":0,"name":"Vancouver, BC","country":"Canada","cc":"CA","sponsor":"Skyway West Business Internet Services","id":"3318","preferred":0,"isp_id":"54607","https_functional":1,"host":"speedtest.skywaywest.net.prod.hosts.ooklaserver.net:8080"},
{"url":"http://speedtest.ubc.ca:8080/speedtest/upload.php","lat":"49.2505","lon":"-123.1119","distance":0,"name":"Vancouver, BC","country":"Canada","cc":"CA","sponsor":"The University of British Columbia","id":"19703","preferred":0,"isp_id":"3334","https_functional":1,"host":"speedtest.ubc.ca.prod.hosts.ooklaserver.net:8080"},
{"url":"http://speedtest.vc.shawcable.net:8080/speedtest/upload.php","lat":"49.2505","lon":"-123.1119","distance":0,"name":"Vancouver, BC","country":"Canada","cc":"CA","sponsor":"Shaw Communications","id":"4243","preferred":0,"isp_id":"164","https_functional":1,"host":"speedtest.vc.shawcable.net:8080"},
{"url":"http://stvancouverwireless.rogers.com:8080/speedtest/upload.php","lat":"49.2505","lon":"-123.1119","distance":0,"name":"Vancouver, BC","country":"Canada","cc":"CA","sponsor":"Rogers Wireless","id":"46406","preferred":0,"isp_id":"164","https_functional":1,"host":"stvancouverwireless.rogers.com:8080"},
{"url":"http://vancnspd01.srvr.bell.ca:8080/speedtest/upload.php","lat":"49.2505","lon":"-123.1119","distance":0,"name":"Vancouver, BC","country":"Canada","cc":"CA","sponsor":"Bell Mobility","id":"17402","preferred":0,"isp_id":"0","https_functional":1,"host":"vancnspd01.srvr.bell.ca.prod.hosts.ooklaserver.net:8080"},
{"url":"http://vancouver.speedtest.telus.com:8080/speedtest/upload.php","lat":"49.2505","lon":"-123.1119","distance":0,"name":"Vancouver, BC","country":"Canada","cc":"CA","sponsor":"TELUS","id":"3049","preferred":0,"isp_id":"256720","https_functional":1,"host":"vancouver.speedtest.telus.com.prod.hosts.ooklaserver.net:8080"},
{"url":"http://vancouver2.speedtest.telus.com:8080/speedtest/upload.php","lat":"49.2505","lon":"-123.1119","distance":0,"name":"Vancouver, BC","country":"Canada","cc":"CA","sponsor":"TELUS Mobility","id":"16781","preferred":0,"isp_id":"256720","https_functional":1,"host":"vancouver2.speedtest.telus.com.prod.hosts.ooklaserver.net:8080"},
{"url":"http://west-speedtest.frontiernetworks.ca:8080/speedtest/upload.php","lat":"49.2505","lon":"-123.1119","distance":0,"name":"Vancouver, BC","country":"Canada","cc":"CA","sponsor":"Frontier Networks Inc","id":"17168","preferred":0,"isp_id":"47813","https_functional":1,"host":"west-speedtest.frontiernetworks.ca:8080"},
{"url":"http://speedtest.packetworks.net:8080/speedtest/upload.php","lat":"43.4667","lon":"-80.5167","distance":0,"name":"Waterloo, ON","country":"Canada","cc":"CA","sponsor":"Packetworks","id":"22208","preferred":0,"isp_id":"3694","https_functional":1,"host":"speedtest.packetworks.net:8080"},
{"url":"http://stwaterloo.netcrawler.ca:8080/speedtest/upload.php","lat":"43.4667","lon":"-80.5167","distance":0,"name":"Waterloo, ON","country":"Canada","cc":"CA","sponsor":"Netcrawler.ca Internet","id":"54207","preferred":0,"isp_id":"226932","https_functional":1,"host":"stwaterloo.netcrawler.ca.prod.hosts.ooklaserver.net:8080"},
{"url":"http://stwaterloo.rogers.com:8080/speedtest/upload.php","lat":"43.4667","lon":"-80.5167","distance":0,"name":"Waterloo, ON","country":"Canada","cc":"CA","sponsor":"Rogers","id":"46765","preferred":0,"isp_id":"164","https_functional":1,"host":"stwaterloo.rogers.com:8080"},
{"url":"http://tor63spd02.srvr.bell.ca:8080/speedtest/upload.php","lat":"43.4667","lon":"-80.5167","distance":0,"name":"Waterloo, ON","country":"Canada","cc":"CA","sponsor":"Bell Mobility","id":"46914","preferred":0,"isp_id":"0","https_functional":1,"host":"tor63spd02.srvr.bell.ca.prod.hosts.ooklaserver.net:8080"},
{"url":"http://stwellandpelhamwireless.rogers.com:8080/speedtest/upload.php","lat":"42.9922","lon":"-79.2483","distance":0,"name":"Welland–Pelham, ON","country":"Canada","cc":"CA","sponsor":"Rogers Wireless","id":"47341","preferred":0,"isp_id":"164","https_functional":1,"host":"stwellandpelhamwireless.rogers.com:8080"},
{"url":"http://speedtest.fibernetics.ca:8080/speedtest/upload.php","lat":"43.4500","lon":"-80.4833","distance":0,"name":"Whitby, ON","country":"Canada","cc":"CA","sponsor":"Fibernetics Corporation","id":"68661","preferred":0,"isp_id":"76203","https_functional":1,"host":"speedtest.fibernetics.ca:8080"},
{"url":"http://40gspeedtest.mnsi.net:8080/speedtest/upload.php","lat":"42.2833","lon":"-83.0000","distance":0,"name":"Windsor, ON","country":"Canada","cc":"CA","sponsor":"MNSi Telecom","id":"55994","preferred":0,"isp_id":"2217","https_functional":1,"host":"40gspeedtest.mnsi.net:8080"},
{"url":"http://mobilityooklawindsor.srvr.bell.ca:8080/speedtest/upload.php","lat":"42.2833","lon":"-83.0000","distance":0,"name":"Windsor, ON","country":"Canada","cc":"CA","sponsor":"Bell Mobility","id":"52350","preferred":0,"isp_id":"0","https_functional":1,"host":"mobilityooklawindsor.srvr.bell.ca.prod.hosts.ooklaserver.net:8080"},
{"url":"http://stwindsorwireless.rogers.com:8080/speedtest/upload.php","lat":"42.2833","lon":"-83.0000","distance":0,"name":"Windsor, ON","country":"Canada","cc":"CA","sponsor":"Rogers Wireless","id":"46126","preferred":0,"isp_id":"164","https_functional":1,"host":"stwindsorwireless.rogers.com:8080"},
{"url":"http://wirelinespeedtestwindsor.srvr.bell.ca:8080/speedtest/upload.php","lat":"42.2833","lon":"-83.0000","distance":0,"name":"Windsor, ON","country":"Canada","cc":"CA","sponsor":"Bell Canada","id":"46798","preferred":0,"isp_id":"0","https_functional":1,"host":"wirelinespeedtestwindsor.srvr.bell.ca.prod.hosts.ooklaserver.net:8080"},
{"url":"http://speedtest.execulink.ca:8080/speedtest/upload.php","lat":"43.1315","lon":"-80.7472","distance":0,"name":"Woodstock, ON","country":"Canada","cc":"CA","sponsor":"Execulink Telecom Inc","id":"16447","preferred":0,"isp_id":"47737","host":"speedtest.execulink.ca:8080"},
{"url":"http://stwoodstock.rogers.com:8080/speedtest/upload.php","lat":"43.1315","lon":"-80.7472","distance":0,"name":"Woodstock, ON","country":"Canada","cc":"CA","sponsor":"Rogers","id":"47543","preferred":0,"isp_id":"164","https_functional":1,"host":"stwoodstock.rogers.com:8080"},
{"url":"http://stwoodstockwireless.rogers.com:8080/speedtest/upload.php","lat":"43.1315","lon":"-80.7472","distance":0,"name":"Woodstock, ON","country":"Canada","cc":"CA","sponsor":"Rogers Wireless","id":"47348","preferred":0,"isp_id":"164","https_functional":1,"host":"stwoodstockwireless.rogers.com:8080"},
{"url":"http://mobilityooklanorthyork.srvr.bell.ca:8080/speedtest/upload.php","lat":"43.6957","lon":"-79.4504","distance":0,"name":"York, ON","country":"Canada","cc":"CA","sponsor":"Bell Mobility","id":"52346","preferred":0,"isp_id":"0","https_functional":1,"host":"mobilityooklanorthyork.srvr.bell.ca.prod.hosts.ooklaserver.net:8080"},
{"url":"http://sp1.biocablesur.cl:8080/speedtest/upload.php","lat":"-37.4629","lon":"-72.3612","distance":0,"name":"Los Angeles","country":"Chile","cc":"CL","sponsor":"Bio Cable Sur","id":"35519","preferred":0,"isp_id":"243901","host":"sp1.biocablesur.cl:8080"},
{"url":"http://cesu-hz.zjtelecom.com.cn:8080/speedtest/upload.php","lat":"30.2741","lon":"120.1552","distance":0,"name":"HangZhou","country":"China","cc":"CN","sponsor":"浙江电信","id":"59386","preferred":0,"isp_id":"7209","host":"cesu-hz.zjtelecom.com.cn:8080"},
{"url":"http://hk-bgp-speedtest.nearoute.io:8080/speedtest/upload.php","lat":"22.2500","lon":"114.1667","distance":0,"name":"Hong Kong","country":"China","cc":"HK","sponsor":"Nearoute Limited","id":"69574","preferred":0,"isp_id":"241265","https_functional":1,"host":"hk-bgp-speedtest.nearoute.io.prod.hosts.ooklaserver.net:8080"},
{"url":"http://speedtest.dukekunshan.edu.cn:8080/speedtest/upload.php","lat":"31.3856","lon":"120.9807","distance":0,"name":"Kunshan","country":"China","cc":"CN","sponsor":"Duke Kunshan University","id":"30852","preferred":0,"isp_id":"40054","https_functional":1,"host":"speedtest.dukekunshan.edu.cn:8080"},
{"url":"http://cesu-nb.zjtelecom.com.cn:8080/speedtest/upload.php","lat":"29.8683","lon":"121.5440","distance":0,"name":"NingBo","country":"China","cc":"CN","sponsor":"浙江电信","id":"59387","preferred":0,"isp_id":"7209","https_functional":1,"host":"cesu-nb.zjtelecom.com.cn.prod.hosts.ooklaserver.net:8080"},
{"url":"http://4gsuzhou1.speedtest.jsinfo.net:8080/speedtest/upload.php","lat":"31.2990","lon":"120.5853","distance":0,"name":"Suzhou","country":"China","cc":"CN","sponsor":"China Telecom JiangSu 5G","id":"5396","preferred":0,"isp_id":"7209","https_functional":1,"host":"4gsuzhou1.speedtest.jsinfo.net.prod.hosts.ooklaserver.net:8080"},
{"url":"http://speedtest.jsqiuying.com:8080/speedtest/upload.php","lat":"31.2983","lon":"120.5832","distance":0,"name":"Suzhou","country":"China","cc":"CN","sponsor":"JSQY","id":"16204","preferred":0,"isp_id":"88508","https_functional":1,"host":"speedtest.jsqiuying.com:8080"},
{"url":"http://5gzhenjiang.speedtest.jsinfo.net:8080/speedtest/upload.php","lat":"32.2069","lon":"119.4490","distance":0,"name":"Zhenjiang","country":"China","cc":"CN","sponsor":"China Telecom JiangSu 5G","id":"36663","preferred":0,"isp_id":"7209","https_functional":1,"host":"5gzhenjiang.speedtest.jsinfo.net.prod.hosts.ooklaserver.net:8080"},
{"url":"http://st.fratec.net:8080/speedtest/upload.php","lat":"9.9408","lon":"-84.0247","distance":0,"name":"San Jose","country":"Costa Rica","cc":"CR","sponsor":"Sistemas Fratec S.A.","id":"60075","preferred":0,"isp_id":"29035","https_functional":1,"host":"st.fratec.net.prod.hosts.ooklaserver.net:8080"},
{"url":"http://hls.speedtest.gslnetworks.com:8080/speedtest/upload.php","lat":"60.1698","lon":"24.9383","distance":0,"name":"Helsinki","country":"Finland","cc":"FI","sponsor":"GSL Networks","id":"65088","preferred":0,"isp_id":"241570","https_functional":1,"host":"hls.speedtest.gslnetworks.com.prod.hosts.ooklaserver.net:8080"},
{"url":"http://mrs2.speedtest.gslnetworks.com:8080/speedtest/upload.php","lat":"43.2964","lon":"5.3700","distance":0,"name":"Marseille","country":"France","cc":"FR","sponsor":"GSL Networks","id":"48390","preferred":0,"isp_id":"240015","https_functional":1,"host":"mrs2.speedtest.gslnetworks.com.prod.hosts.ooklaserver.net:8080"},
{"url":"http://fr5.speedtest.gslnetworks.com:8080/speedtest/upload.php","lat":"50.1109","lon":"8.6821","distance":0,"name":"Frankfurt","country":"Germany","cc":"DE","sponsor":"GSL Networks","id":"50771","preferred":0,"isp_id":"212354","https_functional":1,"host":"fr5.speedtest.gslnetworks.com.prod.hosts.ooklaserver.net:8080"},
{"url":"http://1010.hkspeedtest.com:8080/speedtest/upload.php","lat":"22.2760","lon":"114.1751","distance":0,"name":"Hong Kong","country":"Hong Kong","cc":"HK","sponsor":"1010","id":"43356","preferred":0,"isp_id":"101231","https_functional":1,"host":"1010.hkspeedtest.com.prod.hosts.ooklaserver.net:8080"},
{"url":"http://csl.hkspeedtest.com:8080/speedtest/upload.php","lat":"22.3668","lon":"114.1302","distance":0,"name":"Hong Kong","country":"Hong Kong","cc":"HK","sponsor":"CSL","id":"13538","preferred":0,"isp_id":"101231","https_functional":1,"host":"csl.hkspeedtest.com.prod.hosts.ooklaserver.net:8080"},
{"url":"http://hk-hkg12.speed.misaka.one:8080/speedtest/upload.php","lat":"22.2500","lon":"114.1667","distance":0,"name":"Hong Kong","country":"Hong Kong","cc":"HK","sponsor":"Misaka Network, Inc.","id":"44745","preferred":0,"isp_id":"118607","https_functional":1,"host":"hk-hkg12.speed.misaka.one:8080"},
{"url":"http://hk01.bigball.top:8080/speedtest/upload.php","lat":"22.2500","lon":"114.1667","distance":0,"name":"Hong Kong","country":"Hong Kong","cc":"HK","sponsor":"MistNet","id":"72331","preferred":0,"isp_id":"274961","https_functional":1,"host":"hk01.bigball.top.prod.hosts.ooklaserver.net:8080"},
{"url":"http://hk1.speedtest.gslnetworks.com:8080/speedtest/upload.php","lat":"22.2500","lon":"114.1667","distance":0,"name":"Hong Kong","country":"Hong Kong","cc":"HK","sponsor":"GSL Networks","id":"48446","preferred":0,"isp_id":"215509","https_functional":1,"host":"hk1.speedtest.gslnetworks.com.prod.hosts.ooklaserver.net:8080"},
{"url":"http://hkg.02.speedtest.kansuiun.com:8080/speedtest/upload.php","lat":"22.2500","lon":"114.1667","distance":0,"name":"Hong Kong","country":"Hong Kong","cc":"HK","sponsor":"Kansuiun Co., Ltd","id":"70128","preferred":0,"isp_id":"295279","https_functional":1,"host":"hkg.02.speedtest.kansuiun.com.prod.hosts.ooklaserver.net:8080"},
{"url":"http://hkgspeedtest.cmctelecom.vn:8080/speedtest/upload.php","lat":"22.3000","lon":"114.2000","distance":0,"name":"Hong Kong","country":"Hong Kong","cc":"HK","sponsor":"CMC Telecom","id":"57571","preferred":0,"isp_id":"46039","host":"hkgspeedtest.cmctelecom.vn:8080"},
{"url":"http://hkspeedtest.netvigator.com:8080/speedtest/upload.php","lat":"22.2864","lon":"114.1491","distance":0,"name":"Hong Kong","country":"Hong Kong","cc":"HK","sponsor":"Netvigator","id":"63143","preferred":0,"isp_id":"260668","https_functional":1,"host":"hkspeedtest.netvigator.com.prod.hosts.ooklaserver.net:8080"},
{"url":"http://hkt.hkspeedtest.com:8080/speedtest/upload.php","lat":"22.2500","lon":"114.1667","distance":0,"name":"Hong Kong","country":"Hong Kong","cc":"HK","sponsor":"Club SIM by HKT","id":"60177","preferred":0,"isp_id":"101231","https_functional":1,"host":"hkt.hkspeedtest.com.prod.hosts.ooklaserver.net:8080"},
{"url":"http://hkthspeedtest02.telstraglobal.net:8080/speedtest/upload.php","lat":"22.2500","lon":"114.1667","distance":0,"name":"Hong Kong","country":"Hong Kong","cc":"HK","sponsor":"Telstra International","id":"44340","preferred":0,"isp_id":"84702","https_functional":1,"host":"hkthspeedtest02.telstraglobal.net.prod.hosts.ooklaserver.net:8080"},
{"url":"http://hoshiyomi.ratatoskr.org:8080/speedtest/upload.php","lat":"22.2500","lon":"114.1667","distance":0,"name":"Hong Kong","country":"Hong Kong","cc":"HK","sponsor":"ラタトスク","id":"57779","preferred":0,"isp_id":"77744","https_functional":1,"host":"hoshiyomi.ratatoskr.org.prod.hosts.ooklaserver.net:8080"},
{"url":"http://kami.smartone.com:8080/speedtest/upload.php","lat":"22.2796","lon":"114.1592","distance":0,"name":"Hong Kong","country":"Hong Kong","cc":"HK","sponsor":"SmarTone","id":"35791","preferred":0,"isp_id":"2404","https_functional":1,"host":"kami.smartone.com.prod.hosts.ooklaserver.net:8080"},
{"url":"http://lg-hkg.fdcservers.net:8080/speedtest/upload.php","lat":"22.2500","lon":"114.1667","distance":0,"name":"Hong Kong","country":"Hong Kong","cc":"HK","sponsor":"fdcservers.net","id":"28912","preferred":0,"isp_id":"27716","https_functional":1,"host":"lg-hkg.fdcservers.net:8080"},
{"url":"http://ookla-speedtest-central.hgconair.hgc.com.hk:8080/speedtest/upload.php","lat":"22.2800","lon":"114.1588","distance":0,"name":"Hong Kong","country":"Hong Kong","cc":"HK","sponsor":"HGC環電","id":"37390","preferred":0,"isp_id":"51880","https_functional":1,"host":"ookla-speedtest-central.hgconair.hgc.com.hk:8080"},
{"url":"http://ookla.hk2.as6453.net:8080/speedtest/upload.php","lat":"22.3193","lon":"114.1694","distance":0,"name":"Hong Kong","country":"Hong Kong","cc":"HK","sponsor":"Tata Communications","id":"73629","preferred":0,"isp_id":"310580","https_functional":1,"host":"ookla.hk2.as6453.net.prod.hosts.ooklaserver.net:8080"},
{"url":"http://speedtest-hkg.retn.net:8080/speedtest/upload.php","lat":"22.2500","lon":"114.1667","distance":0,"name":"Hong Kong","country":"Hong Kong","cc":"HK","sponsor":"RETN","id":"68983","preferred":0,"isp_id":"275610","https_functional":1,"host":"speedtest-hkg.retn.net.prod.hosts.ooklaserver.net:8080"},
{"url":"http://speedtest.hk.chinamobile.com:8080/speedtest/upload.php","lat":"22.3193","lon":"114.1694","distance":0,"name":"Hong Kong","country":"Hong Kong","cc":"HK","sponsor":"CMHK Mobile Service","id":"32155","preferred":0,"isp_id":"207318","https_functional":1,"host":"speedtest.hk.chinamobile.com:8080"},
{"url":"http://speedtest.hk210.hkg.cn.ctcsci.com:8080/speedtest/upload.php","lat":"22.2500","lon":"114.1667","distance":0,"name":"Hong Kong","country":"Hong Kong","cc":"HK","sponsor":"CTCSCI TECH LTD","id":"62193","preferred":0,"isp_id":"277245","https_functional":1,"host":"speedtest.hk210.hkg.cn.ctcsci.com.prod.hosts.ooklaserver.net:8080"},
{"url":"http://speedtest.rfchost.net:8080/speedtest/upload.php","lat":"22.2500","lon":"114.1667","distance":0,"name":"Hong Kong","country":"Hong Kong","cc":"HK","sponsor":"RFCHOST","id":"69119","preferred":0,"isp_id":"0","https_functional":1,"host":"speedtest.rfchost.net.prod.hosts.ooklaserver.net:8080"},
{"url":"http://speedtest.three.com.hk:8080/speedtest/upload.php","lat":"22.3193","lon":"114.1694","distance":0,"name":"Hong Kong","country":"Hong Kong","cc":"HK","sponsor":"Hutchison HK","id":"33414","preferred":0,"isp_id":"86733","https_functional":1,"host":"speedtest.three.com.hk:8080"},
{"url":"http://speedtest1c.hkix.net:8080/speedtest/upload.php","lat":"22.2500","lon":"114.1667","distance":0,"name":"Hong Kong","country":"Hong Kong","cc":"HK","sponsor":"HKIX","id":"61296","preferred":0,"isp_id":"148719","https_functional":1,"host":"speedtest1c.hkix.net.prod.hosts.ooklaserver.net:8080"},
{"url":"http://speedtest21.hkbn.net:8080/speedtest/upload.php","lat":"22.2500","lon":"114.1667","distance":0,"name":"Hong Kong","country":"Hong Kong","cc":"HK","sponsor":"HKBN","id":"65463","preferred":0,"isp_id":"77744","https_functional":1,"host":"speedtest21.hkbn.net.prod.hosts.ooklaserver.net:8080"},
{"url":"http://speedtestbb.hk.chinamobile.com:8080/speedtest/upload.php","lat":"22.3193","lon":"114.1694","distance":0,"name":"Hong Kong","country":"Hong Kong","cc":"HK","sponsor":"CMHK Broadband","id":"37639","preferred":0,"isp_id":"207318","https_functional":1,"host":"speedtestbb.hk.chinamobile.com:8080"},
{"url":"http://speedtesthkg.fpt.vn:8080/speedtest/upload.php","lat":"22.3193","lon":"114.1694","distance":0,"name":"Hong Kong","country":"Hong Kong","cc":"HK","sponsor":"FPT Telecom","id":"67826","preferred":0,"isp_id":"43723","https_functional":1,"host":"speedtesthkg.fpt.vn.prod.hosts.ooklaserver.net:8080"},
{"url":"http://sunmobile.hkspeedtest.com:8080/speedtest/upload.php","lat":"22.2500","lon":"114.1667","distance":0,"name":"Hong Kong","country":"Hong Kong","cc":"HK","sponsor":"Sun Mobile","id":"60178","preferred":0,"isp_id":"101231","https_functional":1,"host":"sunmobile.hkspeedtest.com.prod.hosts.ooklaserver.net:8080"},
{"url":"http://suntechspeedtest.com:8080/speedtest/upload.php","lat":"22.2500","lon":"114.1667","distance":0,"name":"Hong Kong","country":"Hong Kong","cc":"HK","sponsor":"STC","id":"1536","preferred":0,"isp_id":"260668","https_functional":1,"host":"suntechspeedtest.com.prod.hosts.ooklaserver.net:8080"},
{"url":"http://delhi.speedtest.railtel.in:8080/speedtest/upload.php","lat":"28.6100","lon":"77.2300","distance":0,"name":"Delhi","country":"India","cc":"IN","sponsor":"RailTel Corporation of India Ltd","id":"34104","preferred":0,"isp_id":"96146","https_functional":1,"host":"delhi.speedtest.railtel.in.prod.hosts.ooklaserver.net:8080"},
{"url":"http://dlhiooklaspeed1.jioconnect.com:8080/speedtest/upload.php","lat":"28.7041","lon":"77.1025","distance":0,"name":"Delhi","country":"India","cc":"IN","sponsor":"Jio","id":"9809","preferred":0,"isp_id":"137615","https_functional":1,"host":"dlhiooklaspeed1.jioconnect.com.prod.hosts.ooklaserver.net:8080"},
{"url":"http://ooklaserver1-del1.skymaxbroadband.com:8080/speedtest/upload.php","lat":"28.6139","lon":"77.2090","distance":0,"name":"Delhi","country":"India","cc":"IN","sponsor":"Skymax Broadband Services Pvt Ltd","id":"38375","preferred":0,"isp_id":"329966","https_functional":1,"host":"ooklaserver1-del1.skymaxbroadband.com.prod.hosts.ooklaserver.net:8080"},
{"url":"http://sp.yakshtel.com:8080/speedtest/upload.php","lat":"28.7041","lon":"77.1025","distance":0,"name":"Delhi","country":"India","cc":"IN","sponsor":"Vista Network","id":"58707","preferred":0,"isp_id":"209688","https_functional":1,"host":"sp.yakshtel.com.prod.hosts.ooklaserver.net:8080"},
{"url":"http://sp1.adnbroadband.com:8080/speedtest/upload.php","lat":"28.6100","lon":"77.2300","distance":0,"name":"Delhi","country":"India","cc":"IN","sponsor":"ADN Broadband","id":"32091","preferred":0,"isp_id":"199475","https_functional":1,"host":"sp1.adnbroadband.com:8080"},
{"url":"http://sp1.omnetbroadband.com:8080/speedtest/upload.php","lat":"28.6100","lon":"77.2300","distance":0,"name":"Delhi","country":"India","cc":"IN","sponsor":"OMNET Broadband","id":"38315","preferred":0,"isp_id":"330408","https_functional":1,"host":"sp1.omnetbroadband.com.prod.hosts.ooklaserver.net:8080"},
{"url":"http://sp1.snsinternet.com:8080/speedtest/upload.php","lat":"28.7041","lon":"77.1025","distance":0,"name":"Delhi","country":"India","cc":"IN","sponsor":"SNS INTERNET","id":"52320","preferred":0,"isp_id":"167133","https_functional":1,"host":"sp1.snsinternet.com.prod.hosts.ooklaserver.net:8080"},
{"url":"http://sp1.worldfibernet.com:8080/speedtest/upload.php","lat":"28.7041","lon":"77.1025","distance":0,"name":"Delhi","country":"India","cc":"IN","sponsor":"World Fibernet","id":"51746","preferred":0,"isp_id":"241107","https_functional":1,"host":"sp1.worldfibernet.com.prod.hosts.ooklaserver.net:8080"},
{"url":"http://speed.mylink.co.in:8080/speedtest/upload.php","lat":"28.7041","lon":"77.1025","distance":0,"name":"Delhi","country":"India","cc":"IN","sponsor":"Mylink Services Pvt Ltd","id":"61955","preferred":0,"isp_id":"173909","https_functional":1,"host":"speed.mylink.co.in.prod.hosts.ooklaserver.net:8080"},
{"url":"http://speedtest.bakcom.in:8080/speedtest/upload.php","lat":"28.7041","lon":"77.1025","distance":0,"name":"Delhi","country":"India","cc":"IN","sponsor":"Bakcom Networks","id":"68950","preferred":0,"isp_id":"99653","https_functional":1,"host":"speedtest.bakcom.in:8080"},
{"url":"http://speedtest.dl.gtel.in:8080/speedtest/upload.php","lat":"28.7106","lon":"77.1779","distance":0,"name":"Delhi","country":"India","cc":"IN","sponsor":"Gigantic Infotel Pvt Ltd","id":"42113","preferred":0,"isp_id":"329963","https_functional":1,"host":"speedtest.dl.gtel.in.prod.hosts.ooklaserver.net:8080"},
{"url":"http://speedtest.maxnetdigital.in:8080/speedtest/upload.php","lat":"28.7041","lon":"77.1025","distance":0,"name":"Delhi","country":"India","cc":"IN","sponsor":"Maxnet Digital","id":"69744","preferred":0,"isp_id":"221068","host":"speedtest.maxnetdigital.in:8080"},