[
{"url":"http://colocity.speedtest.gslnetworks.com:8080/speedtest/upload.php","lat":"-34.9290","lon":"138.6010","distance":0,"name":"Adelaide","country":"Australia","cc":"AU","sponsor":"GSL Networks","id":"48362","preferred":0,"isp_id":"274339","https_functional":1,"host":"colocity.speedtest.gslnetworks.com.prod.hosts.ooklaserver.net:8080"},
{"url":"http://speedtest-blacktown.optusnet.com.au:8080/speedtest/upload.php","lat":"-33.7447","lon":"150.8842","distance":0,"name":"Blacktown","country":"Australia","cc":"AU","sponsor":"Optus","id":"8777","preferred":0,"isp_id":"71769","https_functional":1,"host":"speedtest-blacktown.optusnet.com.au:8080"},
{"url":"http://b2.speedtest.gslnetworks.com:8080/speedtest/upload.php","lat":"-27.4728","lon":"153.0278","distance":0,"name":"Brisbane","country":"Australia","cc":"AU","sponsor":"GSL Networks","id":"48346","preferred":0,"isp_id":"274339","https_functional":1,"host":"b2.speedtest.gslnetworks.com.prod.hosts.ooklaserver.net:8080"},
{"url":"http://brindb2speed1.wireline.com.au:8080/speedtest/upload.php","lat":"-27.4728","lon":"153.0278","distance":0,"name":"Brisbane","country":"Australia","cc":"AU","sponsor":"Wireline Group","id":"16514","preferred":0,"isp_id":"99929","https_functional":1,"host":"brindb2speed1.wireline.com.au.prod.hosts.ooklaserver.net:8080"},
{"url":"http://brs1.speedtest.telstra.net:8080/speedtest/upload.php","lat":"-27.4728","lon":"153.0278","distance":0,"name":"Brisbane","country":"Australia","cc":"AU","sponsor":"Telstra","id":"12493","preferred":0,"isp_id":"39","https_functional":1,"host":"brs1.speedtest.telstra.net:8080"},
{"url":"http://ookla.b2.neptune.net.au:8080/speedtest/upload.php","lat":"-27.4728","lon":"153.0278","distance":0,"name":"Brisbane","country":"Australia","cc":"AU","sponsor":"Neptune Internet","id":"70823","preferred":0,"isp_id":"299995","https_functional":1,"host":"ookla.b2.neptune.net.au.prod.hosts.ooklaserver.net:8080"},
{"url":"http://qld-gdpt-st1.speedtest.aarnet.net.au:8080/speedtest/upload.php","lat":"-27.4728","lon":"153.0278","distance":0,"name":"Brisbane","country":"Australia","cc":"AU","sponsor":"AARNet","id":"6119","preferred":0,"isp_id":"10195","https_functional":1,"host":"qld-gdpt-st1.speedtest.aarnet.net.au:8080"},
{"url":"http://qld.speedtest.exetel.com.au:8080/speedtest/upload.php","lat":"-27.4698","lon":"153.0251","distance":0,"name":"Brisbane","country":"Australia","cc":"AU","sponsor":"Exetel","id":"13276","preferred":0,"isp_id":"908","https_functional":1,"host":"qld.speedtest.exetel.com.au.prod.hosts.ooklaserver.net:8080"},
{"url":"http://qld.speedtest.leaptel.com.au:8080/speedtest/upload.php","lat":"-27.4728","lon":"153.0278","distance":0,"name":"Brisbane","country":"Australia","cc":"AU","sponsor":"Leaptel","id":"32880","preferred":0,"isp_id":"152580","https_functional":1,"host":"qld.speedtest.leaptel.com.au.prod.hosts.ooklaserver.net:8080"},
{"url":"http://spd01-bne.au.superloop.com:8080/speedtest/upload.php","lat":"-27.4728","lon":"153.0278","distance":0,"name":"Brisbane","country":"Australia","cc":"AU","sponsor":"Superloop Australia Pty Ltd","id":"54994","preferred":0,"isp_id":"150616","https_functional":1,"host":"spd01-bne.au.superloop.com.prod.hosts.ooklaserver.net:8080"},
{"url":"http://speed-br2.gigacomm.net.au:8080/speedtest/upload.php","lat":"-27.4728","lon":"153.0278","distance":0,"name":"Brisbane","country":"Australia","cc":"AU","sponsor":"GigaComm Pty Ltd","id":"70701","preferred":0,"isp_id":"192184","https_functional":1,"host":"speed-br2.gigacomm.net.au.prod.hosts.ooklaserver.net:8080"},
{"url":"http://speed.bne.aussiebroadband.com.au:8080/speedtest/upload.php","lat":"-27.4698","lon":"153.0251","distance":0,"name":"Brisbane","country":"Australia","cc":"AU","sponsor":"Aussie Broadband","id":"15134","preferred":0,"isp_id":"7219","https_functional":1,"host":"speed.bne.aussiebroadband.com.au.prod.hosts.ooklaserver.net:8080"},
{"url":"http://speedtest-bne-dn1.empower.net.au:8080/speedtest/upload.php","lat":"-27.4728","lon":"153.0278","distance":0,"name":"Brisbane","country":"Australia","cc":"AU","sponsor":"blueAPACHE","id":"39589","preferred":0,"isp_id":"90205","https_functional":1,"host":"speedtest-bne-dn1.empower.net.au.prod.hosts.ooklaserver.net:8080"},
{"url":"http://speedtest-bne.vocus.net:8080/speedtest/upload.php","lat":"-27.4728","lon":"153.0278","distance":0,"name":"Brisbane","country":"Australia","cc":"AU","sponsor":"Vocus Communications","id":"18248","preferred":0,"isp_id":"27711","https_functional":1,"host":"speedtest-bne.vocus.net.prod.hosts.ooklaserver.net:8080"},
{"url":"http://speedtest-brisbane.macquarietelecom.com:8080/speedtest/upload.php","lat":"-27.4728","lon":"153.0278","distance":0,"name":"Brisbane","country":"Australia","cc":"AU","sponsor":"Macquarie Telecom","id":"45056","preferred":0,"isp_id":"292368","https_functional":1,"host":"speedtest-brisbane.macquarietelecom.com.prod.hosts.ooklaserver.net:8080"},
{"url":"http://speedtest-brisbane.optusnet.com.au:8080/speedtest/upload.php","lat":"-27.4728","lon":"153.0278","distance":0,"name":"Brisbane","country":"Australia","cc":"AU","sponsor":"Optus","id":"1594","preferred":0,"isp_id":"71769","https_functional":1,"host":"speedtest-brisbane.optusnet.com.au:8080"},
{"url":"http://speedtest.b2.mhn.cloud:8080/speedtest/upload.php","lat":"-27.4728","lon":"153.0278","distance":0,"name":"Brisbane","country":"Australia","cc":"AU","sponsor":"Hosted Network","id":"60952","preferred":0,"isp_id":"94872","https_functional":1,"host":"speedtest.b2.mhn.cloud.prod.hosts.ooklaserver.net:8080"},
{"url":"http://speedtest.bri01.launtel.net.au:8080/speedtest/upload.php","lat":"-27.4728","lon":"153.0278","distance":0,"name":"Brisbane","country":"Australia","cc":"AU","sponsor":"Launtel","id":"64079","preferred":0,"isp_id":"137873","https_functional":1,"host":"speedtest.bri01.launtel.net.au.prod.hosts.ooklaserver.net:8080"},
{"url":"http://speedtest.capti.com.au:8080/speedtest/upload.php","lat":"-27.4698","lon":"153.0251","distance":0,"name":"Brisbane","country":"Australia","cc":"AU","sponsor":"Capti","id":"46575","preferred":0,"isp_id":"224931","https_functional":1,"host":"speedtest.capti.com.au.prod.hosts.ooklaserver.net:8080"},
{"url":"http://speedtest.qld.edgeix.net.au:8080/speedtest/upload.php","lat":"-27.4728","lon":"153.0278","distance":0,"name":"Brisbane","country":"Australia","cc":"AU","sponsor":"EdgeIX","id":"60977","preferred":0,"isp_id":"275202","https_functional":1,"host":"speedtest.qld.edgeix.net.au.prod.hosts.ooklaserver.net:8080"},
{"url":"http://speedtest01.bne1.spintel.net.au:8080/speedtest/upload.php","lat":"-27.4705","lon":"153.0260","distance":0,"name":"Brisbane","country":"Australia","cc":"AU","sponsor":"Spintel","id":"72855","preferred":0,"isp_id":"71839","https_functional":1,"host":"speedtest01.bne1.spintel.net.au.prod.hosts.ooklaserver.net:8080"},
{"url":"http://speedtest1.gigafy.com.au:8080/speedtest/upload.php","lat":"-27.4728","lon":"153.0278","distance":0,"name":"Brisbane","country":"Australia","cc":"AU","sponsor":"Gigafy","id":"35757","preferred":0,"isp_id":"171701","https_functional":1,"host":"speedtest1.gigafy.com.au.prod.hosts.ooklaserver.net:8080"},
{"url":"http://act-dksn-st1.speedtest.aarnet.net.au:8080/speedtest/upload.php","lat":"-35.3075","lon":"149.1244","distance":0,"name":"Canberra","country":"Australia","cc":"AU","sponsor":"AARNet","id":"52906","preferred":0,"isp_id":"10195","https_functional":1,"host":"act-dksn-st1.speedtest.aarnet.net.au:8080"},
{"url":"http://cbr1.speedtest.telstra.net:8080/speedtest/upload.php","lat":"-35.2809","lon":"149.1300","distance":0,"name":"Canberra","country":"Australia","cc":"AU","sponsor":"Telstra","id":"18711","preferred":0,"isp_id":"39","https_functional":1,"host":"cbr1.speedtest.telstra.net:8080"},
{"url":"http://speedtest-cbr.cdn.on.net:8080/speedtest/upload.php","lat":"-35.3075","lon":"149.1244","distance":0,"name":"Canberra","country":"Australia","cc":"AU","sponsor":"Internode","id":"2166","preferred":0,"isp_id":"32","https_functional":1,"host":"speedtest-cbr.cdn.on.net.prod.hosts.ooklaserver.net:8080"},
{"url":"http://cha1.speedtest.telstra.net:8080/speedtest/upload.php","lat":"-33.8008","lon":"151.1796","distance":0,"name":"Chatswood","country":"Australia","cc":"AU","sponsor":"Telstra","id":"18713","preferred":0,"isp_id":"39","https_functional":1,"host":"cha1.speedtest.telstra.net:8080"},
{"url":"http://drw1.speedtest.telstra.net:8080/speedtest/upload.php","lat":"-12.4634","lon":"130.8456","distance":0,"name":"Darwin","country":"Australia","cc":"AU","sponsor":"Telstra","id":"22036","preferred":0,"isp_id":"39","https_functional":1,"host":"drw1.speedtest.telstra.net:8080"},
{"url":"http://nt-drwn-st1.speedtest.aarnet.net.au:8080/speedtest/upload.php","lat":"-12.4500","lon":"130.8333","distance":0,"name":"Darwin","country":"Australia","cc":"AU","sponsor":"AARNet","id":"6757","preferred":0,"isp_id":"10195","https_functional":1,"host":"nt-drwn-st1.speedtest.aarnet.net.au:8080"},
{"url":"http://speedtest-darwin.optusnet.com.au:8080/speedtest/upload.php","lat":"-12.4500","lon":"130.8333","distance":0,"name":"Darwin","country":"Australia","cc":"AU","sponsor":"Optus","id":"10438","preferred":0,"isp_id":"71769","https_functional":1,"host":"speedtest-darwin.optusnet.com.au:8080"},
{"url":"https://speedtest-eastburwood.optusnet.com.au:8080/speedtest/upload.php","lat":"-37.8136","lon":"144.9631","distance":0,"name":"East Burwood","country":"Australia","cc":"AU","sponsor":"Optus","id":"9108","preferred":0,"isp_id":"71769","https_functional":1,"host":"speedtest-eastburwood.optusnet.com.au:8080"},
{"url":"http://speedtest.thryve.com.au:8080/speedtest/upload.php","lat":"-33.7960","lon":"151.2770","distance":0,"name":"Fairlight","country":"Australia","cc":"AU","sponsor":"Thryve Group - Thryve Broadband","id":"37994","preferred":0,"isp_id":"201122","https_functional":1,"host":"speedtest.thryve.com.au.prod.hosts.ooklaserver.net:8080"},
{"url":"http://speedtest.yless4u.com.au:8080/speedtest/upload.php","lat":"-35.3290","lon":"149.1740","distance":0,"name":"Fyshwick","country":"Australia","cc":"AU","sponsor":"YLess4U","id":"37133","preferred":0,"isp_id":"79311","https_functional":1,"host":"speedtest.yless4u.com.au.prod.hosts.ooklaserver.net:8080"},
{"url":"http://speedtest-geelong.optusnet.com.au:8080/speedtest/upload.php","lat":"-38.1499","lon":"144.3617","distance":0,"name":"Geelong","country":"Australia","cc":"AU","sponsor":"Optus","id":"10612","preferred":0,"isp_id":"71769","https_functional":1,"host":"speedtest-geelong.optusnet.com.au:8080"},
{"url":"http://ool1.speedtest.telstra.net:8080/speedtest/upload.php","lat":"-28.0160","lon":"153.0167","distance":0,"name":"Gold Coast","country":"Australia","cc":"AU","sponsor":"Telstra","id":"16329","preferred":0,"isp_id":"39","https_functional":1,"host":"ool1.speedtest.telstra.net:8080"},
{"url":"http://speedtest-goldcoast.optusnet.com.au:8080/speedtest/upload.php","lat":"-28.0160","lon":"153.0167","distance":0,"name":"Gold Coast","country":"Australia","cc":"AU","sponsor":"Optus","id":"10441","preferred":0,"isp_id":"71769","https_functional":1,"host":"speedtest-goldcoast.optusnet.com.au:8080"},
{"url":"http://hob1.speedtest.telstra.net:8080/speedtest/upload.php","lat":"-42.8821","lon":"147.3272","distance":0,"name":"Hobart","country":"Australia","cc":"AU","sponsor":"Telstra","id":"18712","preferred":0,"isp_id":"39","https_functional":1,"host":"hob1.speedtest.telstra.net:8080"},
{"url":"http://speedtest-hob.launtel.net.au:8080/speedtest/upload.php","lat":"-42.8806","lon":"147.3250","distance":0,"name":"Hobart","country":"Australia","cc":"AU","sponsor":"Launtel","id":"48679","preferred":0,"isp_id":"137873","https_functional":1,"host":"speedtest-hob.launtel.net.au.prod.hosts.ooklaserver.net:8080"},
{"url":"http://speedtest-hobart.optusnet.com.au:8080/speedtest/upload.php","lat":"-42.8806","lon":"147.3250","distance":0,"name":"Hobart","country":"Australia","cc":"AU","sponsor":"Optus","id":"8976","preferred":0,"isp_id":"71769","https_functional":1,"host":"speedtest-hobart.optusnet.com.au:8080"},
{"url":"http://tas-dwpk-st1.speedtest.aarnet.net.au:8080/speedtest/upload.php","lat":"-42.8806","lon":"147.3250","distance":0,"name":"Hobart","country":"Australia","cc":"AU","sponsor":"AARNet","id":"6369","preferred":0,"isp_id":"10195","https_functional":1,"host":"tas-dwpk-st1.speedtest.aarnet.net.au:8080"},
{"url":"http://speedtest.micron21.com:8080/speedtest/upload.php","lat":"-37.8020","lon":"145.3160","distance":0,"name":"Kilsyth","country":"Australia","cc":"AU","sponsor":"Micron21 Datacentre Pty Ltd","id":"25708","preferred":0,"isp_id":"274791","https_functional":1,"host":"speedtest.micron21.com.prod.hosts.ooklaserver.net:8080"},
{"url":"http://knx.speedtest.optitel.com.au:8080/speedtest/upload.php","lat":"-15.7783","lon":"128.7439","distance":0,"name":"Kununurra","country":"Australia","cc":"AU","sponsor":"OptiTel","id":"48114","preferred":0,"isp_id":"204344","https_functional":1,"host":"knx.speedtest.optitel.com.au.prod.hosts.ooklaserver.net:8080"},
{"url":"http://speedtest-lton.launtel.net.au:8080/speedtest/upload.php","lat":"-41.4391","lon":"147.1358","distance":0,"name":"Launceston","country":"Australia","cc":"AU","sponsor":"Launtel","id":"48503","preferred":0,"isp_id":"137873","https_functional":1,"host":"speedtest-lton.launtel.net.au.prod.hosts.ooklaserver.net:8080"},
{"url":"https://speedtest-limestonecoast.optusnet.com.au:8080/speedtest/upload.php","lat":"-37.8284","lon":"140.7804","distance":0,"name":"Limestone Coast","country":"Australia","cc":"AU","sponsor":"Optus","id":"10439","preferred":0,"isp_id":"71769","https_functional":1,"host":"speedtest-limestonecoast.optusnet.com.au:8080"},
{"url":"http://me1.speedtest.gslnetworks.com.au:8080/speedtest/upload.php","lat":"-37.8136","lon":"144.9631","distance":0,"name":"Melbourne","country":"Australia","cc":"AU","sponsor":"GSL Networks","id":"46114","preferred":0,"isp_id":"274339","https_functional":1,"host":"me1.speedtest.gslnetworks.com.au.prod.hosts.ooklaserver.net:8080"},
{"url":"http://mel1.speedtest.telstra.net:8080/speedtest/upload.php","lat":"-37.8136","lon":"144.9631","distance":0,"name":"Melbourne","country":"Australia","cc":"AU","sponsor":"Telstra","id":"12491","preferred":0,"isp_id":"39","https_functional":1,"host":"mel1.speedtest.telstra.net:8080"},
{"url":"http://melndm1speed1.wireline.com.au:8080/speedtest/upload.php","lat":"-37.8136","lon":"144.9631","distance":0,"name":"Melbourne","country":"Australia","cc":"AU","sponsor":"Wireline Group","id":"29826","preferred":0,"isp_id":"99929","https_functional":1,"host":"melndm1speed1.wireline.com.au.prod.hosts.ooklaserver.net:8080"},
{"url":"http://ookla.me1.neptune.net.au:8080/speedtest/upload.php","lat":"-37.8136","lon":"144.9631","distance":0,"name":"Melbourne","country":"Australia","cc":"AU","sponsor":"Neptune Internet","id":"68925","preferred":0,"isp_id":"299995","https_functional":1,"host":"ookla.me1.neptune.net.au.prod.hosts.ooklaserver.net:8080"},
{"url":"http://spd01-mel.au.superloop.com:8080/speedtest/upload.php","lat":"-37.8136","lon":"144.9631","distance":0,"name":"Melbourne","country":"Australia","cc":"AU","sponsor":"Superloop Australia Pty Ltd","id":"55297","preferred":0,"isp_id":"150616","https_functional":1,"host":"spd01-mel.au.superloop.com.prod.hosts.ooklaserver.net:8080"},
{"url":"http://speed-mel.gigacomm.net.au:8080/speedtest/upload.php","lat":"-37.8136","lon":"144.9631","distance":0,"name":"Melbourne","country":"Australia","cc":"AU","sponsor":"GigaComm Pty Ltd","id":"36100","preferred":0,"isp_id":"192184","https_functional":1,"host":"speed-mel.gigacomm.net.au.prod.hosts.ooklaserver.net:8080"},
{"url":"http://speed.mel.aussiebroadband.com.au:8080/speedtest/upload.php","lat":"-37.8136","lon":"144.9631","distance":0,"name":"Melbourne","country":"Australia","cc":"AU","sponsor":"Aussie Broadband","id":"14670","preferred":0,"isp_id":"7219","https_functional":1,"host":"speed.mel.aussiebroadband.com.au.prod.hosts.ooklaserver.net:8080"},
{"url":"http://speedtest-aus.chainlinkhosting.com:8080/speedtest/upload.php","lat":"-37.8136","lon":"144.9631","distance":0,"name":"Melbourne","country":"Australia","cc":"AU","sponsor":"ChainLinkHosting | ChainLinkNetworks","id":"65167","preferred":0,"isp_id":"174612","https_functional":1,"host":"speedtest-aus.chainlinkhosting.com.prod.hosts.ooklaserver.net:8080"},
{"url":"http://speedtest-mel-dn1.empower.net.au:8080/speedtest/upload.php","lat":"-37.8136","lon":"144.9631","distance":0,"name":"Melbourne","country":"Australia","cc":"AU","sponsor":"blueAPACHE","id":"39561","preferred":0,"isp_id":"90205","https_functional":1,"host":"speedtest-mel-dn1.empower.net.au.prod.hosts.ooklaserver.net:8080"},
{"url":"http://speedtest-mel.vic.au.hostuniversal.com.au:8080/speedtest/upload.php","lat":"-37.8136","lon":"144.9631","distance":0,"name":"Melbourne","country":"Australia","cc":"AU","sponsor":"Host Universal","id":"69525","preferred":0,"isp_id":"136098","https_functional":1,"host":"speedtest-mel.vic.au.hostuniversal.com.au.prod.hosts.ooklaserver.net:8080"},
{"url":"http://speedtest-mel.vocus.net:8080/speedtest/upload.php","lat":"-37.8136","lon":"144.9631","distance":0,"name":"Melbourne","country":"Australia","cc":"AU","sponsor":"Vocus Communications","id":"16207","preferred":0,"isp_id":"27711","https_functional":1,"host":"speedtest-mel.vocus.net.prod.hosts.ooklaserver.net:8080"},
{"url":"http://speedtest-melbourne.macquarietelecom.com:8080/speedtest/upload.php","lat":"-37.8136","lon":"144.9631","distance":0,"name":"Melbourne","country":"Australia","cc":"AU","sponsor":"Macquarie Telecom","id":"45057","preferred":0,"isp_id":"292368","https_functional":1,"host":"speedtest-melbourne.macquarietelecom.com.prod.hosts.ooklaserver.net:8080"},
{"url":"http://speedtest-melbourne.optusnet.com.au:8080/speedtest/upload.php","lat":"-37.8136","lon":"144.9631","distance":0,"name":"Melbourne","country":"Australia","cc":"AU","sponsor":"Optus","id":"30932","preferred":0,"isp_id":"71769","https_functional":1,"host":"speedtest-melbourne.optusnet.com.au:8080"},
{"url":"http://speedtest.mel.mhn.cloud:8080/speedtest/upload.php","lat":"-37.8136","lon":"144.9631","distance":0,"name":"Melbourne","country":"Australia","cc":"AU","sponsor":"Hosted Network","id":"60949","preferred":0,"isp_id":"94872","https_functional":1,"host":"speedtest.mel.mhn.cloud.prod.hosts.ooklaserver.net:8080"},
{"url":"http://speedtest.mel01.launtel.net.au:8080/speedtest/upload.php","lat":"-37.8136","lon":"144.9631","distance":0,"name":"Melbourne","country":"Australia","cc":"AU","sponsor":"Launtel","id":"61764","preferred":0,"isp_id":"137873","https_functional":1,"host":"speedtest.mel01.launtel.net.au.prod.hosts.ooklaserver.net:8080"},
{"url":"http://speedtest.net360.cloud:8080/speedtest/upload.php","lat":"-37.8136","lon":"144.9631","distance":0,"name":"Melbourne","country":"Australia","cc":"AU","sponsor":"NET360","id":"55588","preferred":0,"isp_id":"123385","https_functional":1,"host":"speedtest.net360.cloud.prod.hosts.ooklaserver.net:8080"},
{"url":"http://speedtest01.mel1.spintel.net.au:8080/speedtest/upload.php","lat":"-37.8136","lon":"144.9631","distance":0,"name":"Melbourne","country":"Australia","cc":"AU","sponsor":"Spintel","id":"72276","preferred":0,"isp_id":"71839","https_functional":1,"host":"speedtest01.mel1.spintel.net.au.prod.hosts.ooklaserver.net:8080"},
{"url":"http://vic-pmla-st1.speedtest.aarnet.net.au:8080/speedtest/upload.php","lat":"-37.8136","lon":"144.9631","distance":0,"name":"Melbourne","country":"Australia","cc":"AU","sponsor":"AARNet","id":"60412","preferred":0,"isp_id":"10195","https_functional":1,"host":"vic-pmla-st1.speedtest.aarnet.net.au:8080"},
{"url":"http://vic.speedtest.exetel.com.au:8080/speedtest/upload.php","lat":"-37.8136","lon":"144.9631","distance":0,"name":"Melbourne","country":"Australia","cc":"AU","sponsor":"Exetel","id":"13275","preferred":0,"isp_id":"908","https_functional":1,"host":"vic.speedtest.exetel.com.au.prod.hosts.ooklaserver.net:8080"},
{"url":"http://vic.speedtest.leaptel.com.au:8080/speedtest/upload.php","lat":"-37.8136","lon":"144.9631","distance":0,"name":"Melbourne","country":"Australia","cc":"AU","sponsor":"Leaptel","id":"25134","preferred":0,"isp_id":"170214","https_functional":1,"host":"vic.speedtest.leaptel.com.au.prod.hosts.ooklaserver.net:8080"},
{"url":"http://speedtest-moorooka.optusnet.com.au:8080/speedtest/upload.php","lat":"-27.5350","lon":"153.0260","distance":0,"name":"Moorooka","country":"Australia","cc":"AU","sponsor":"Optus","id":"31137","preferred":0,"isp_id":"71769","https_functional":1,"host":"speedtest-moorooka.optusnet.com.au:8080"},
{"url":"http://speedtest-newcastle.optusnet.com.au:8080/speedtest/upload.php","lat":"-32.9283","lon":"151.7817","distance":0,"name":"Newcastle","country":"Australia","cc":"AU","sponsor":"Optus","id":"10440","preferred":0,"isp_id":"71769","https_functional":1,"host":"speedtest-newcastle.optusnet.com.au:8080"},
{"url":"http://pe2.speedtest.gslnetworks.com:8080/speedtest/upload.php","lat":"-31.9554","lon":"115.8585","distance":0,"name":"Perth","country":"Australia","cc":"AU","sponsor":"GSL Networks","id":"50848","preferred":0,"isp_id":"274339","https_functional":1,"host":"pe2.speedtest.gslnetworks.com.prod.hosts.ooklaserver.net:8080"},
{"url":"http://speedtest-sunshinecoast.optusnet.com.au:8080/speedtest/upload.php","lat":"-25.8833","lon":"152.5500","distance":0,"name":"Sunshine","country":"Australia","cc":"AU","sponsor":"Optus","id":"10443","preferred":0,"isp_id":"71769","https_functional":1,"host":"speedtest-sunshinecoast.optusnet.com.au:8080"},
{"url":"http://mcy1.speedtest.telstra.net:8080/speedtest/upload.php","lat":"-25.8833","lon":"152.5500","distance":0,"name":"Sunshine Coast","country":"Australia","cc":"AU","sponsor":"Telstra","id":"17702","preferred":0,"isp_id":"39","https_functional":1,"host":"mcy1.speedtest.telstra.net:8080"},
{"url":"http://au.st.spacecore.pro:8080/speedtest/upload.php","lat":"-33.8600","lon":"151.2111","distance":0,"name":"Sydney","country":"Australia","cc":"AU","sponsor":"SpaceCore.pro | Premium VPS Hosting","id":"69765","preferred":0,"isp_id":"200476","https_functional":1,"host":"au.st.spacecore.pro.prod.hosts.ooklaserver.net:8080"},
{"url":"http://au1.ocean.host:8080/speedtest/upload.php","lat":"-33.8600","lon":"151.2111","distance":0,"name":"Sydney","country":"Australia","cc":"AU","sponsor":"OceanHost","id":"74128","preferred":0,"isp_id":"301370","https_functional":1,"host":"au1.ocean.host:8080"},
{"url":"http://aus-nperf.verizon.net:8080/speedtest/upload.php","lat":"-33.8600","lon":"151.2111","distance":0,"name":"Sydney","country":"Australia","cc":"AU","sponsor":"Verizon","id":"50441","preferred":0,"isp_id":"8041","https_functional":1,"host":"aus-nperf.verizon.net.prod.hosts.ooklaserver.net:8080"},
{"url":"http://ipl3pt.syd.ops.aspac.uu.net:8080/speedtest/upload.php","lat":"-33.8600","lon":"151.2111","distance":0,"name":"Sydney","country":"Australia","cc":"AU","sponsor":"Verizon.com","id":"53599","preferred":0,"isp_id":"8041","https_functional":1,"host":"ipl3pt.syd.ops.aspac.uu.net:8080"},
{"url":"http://nsw-brwy-st1.speedtest.aarnet.net.au:8080/speedtest/upload.php","lat":"-33.8600","lon":"151.2111","distance":0,"name":"Sydney","country":"Australia","cc":"AU","sponsor":"AARNet","id":"6355","preferred":0,"isp_id":"10195","https_functional":1,"host":"nsw-brwy-st1.speedtest.aarnet.net.au:8080"},
{"url":"http://nsw.speedtest.exetel.com.au:8080/speedtest/upload.php","lat":"-33.8600","lon":"151.2111","distance":0,"name":"Sydney","country":"Australia","cc":"AU","sponsor":"Exetel","id":"13279","preferred":0,"isp_id":"908","https_functional":1,"host":"nsw.speedtest.exetel.com.au.prod.hosts.ooklaserver.net:8080"},
{"url":"http://nsw.speedtest.leaptel.com.au:8080/speedtest/upload.php","lat":"-33.8600","lon":"151.2111","distance":0,"name":"Sydney","country":"Australia","cc":"AU","sponsor":"Leaptel","id":"34967","preferred":0,"isp_id":"170214","https_functional":1,"host":"nsw.speedtest.leaptel.com.au.prod.hosts.ooklaserver.net:8080"},
{"url":"http://ookla.m3h.as6453.net:8080/speedtest/upload.php","lat":"-33.8623","lon":"151.2077","distance":0,"name":"Sydney","country":"Australia","cc":"AU","sponsor":"Tata Communications","id":"73631","preferred":0,"isp_id":"153522","https_functional":1,"host":"ookla.m3h.as6453.net.prod.hosts.ooklaserver.net:8080"},
{"url":"http://ookla.sy1.neptune.net.au:8080/speedtest/upload.php","lat":"-33.8600","lon":"151.2111","distance":0,"name":"Sydney","country":"Australia","cc":"AU","sponsor":"Neptune Internet","id":"68924","preferred":0,"isp_id":"299995","https_functional":1,"host":"ookla.sy1.neptune.net.au.prod.hosts.ooklaserver.net:8080"},
{"url":"http://pauseq4vost1.datamossa.cloud:8080/speedtest/upload.php","lat":"-33.8600","lon":"151.2111","distance":0,"name":"Sydney","country":"Australia","cc":"AU","sponsor":"DataMossa","id":"27582","preferred":0,"isp_id":"331390","https_functional":1,"host":"pauseq4vost1.datamossa.cloud.prod.hosts.ooklaserver.net:8080"},
{"url":"http://spd03-syd.au.superloop.com:8080/speedtest/upload.php","lat":"-33.8600","lon":"151.2111","distance":0,"name":"Sydney","country":"Australia","cc":"AU","sponsor":"Superloop Australia Pty Ltd","id":"65184","preferred":0,"isp_id":"150616","https_functional":1,"host":"spd03-syd.au.superloop.com.prod.hosts.ooklaserver.net:8080"},
{"url":"http://speed-syd.gigacomm.net.au:8080/speedtest/upload.php","lat":"-33.8600","lon":"151.2111","distance":0,"name":"Sydney","country":"Australia","cc":"AU","sponsor":"GigaComm Pty Ltd","id":"36157","preferred":0,"isp_id":"192184","https_functional":1,"host":"speed-syd.gigacomm.net.au.prod.hosts.ooklaserver.net:8080"},
{"url":"http://speed.syd.aussiebroadband.com.au:8080/speedtest/upload.php","lat":"-33.8688","lon":"151.2093","distance":0,"name":"Sydney","country":"Australia","cc":"AU","sponsor":"Aussie Broadband","id":"15132","preferred":0,"isp_id":"7219","https_functional":1,"host":"speed.syd.aussiebroadband.com.au.prod.hosts.ooklaserver.net:8080"},
{"url":"http://speed4.snap.net.nz:8080/speedtest/upload.php","lat":"-33.8600","lon":"151.2111","distance":0,"name":"Sydney","country":"Australia","cc":"AU","sponsor":"2degrees","id":"18392","preferred":0,"isp_id":"114594","https_functional":1,"host":"speed4.snap.net.nz.prod.hosts.ooklaserver.net:8080"},
{"url":"http://speedtest-syd-dn1.empower.net.au:8080/speedtest/upload.php","lat":"-33.8600","lon":"151.2111","distance":0,"name":"Sydney","country":"Australia","cc":"AU","sponsor":"blueAPACHE","id":"39585","preferred":0,"isp_id":"90205","https_functional":1,"host":"speedtest-syd-dn1.empower.net.au.prod.hosts.ooklaserver.net:8080"},
{"url":"http://speedtest-syd.nsw.au.hostuniversal.com.au:8080/speedtest/upload.php","lat":"-33.8600","lon":"151.2111","distance":0,"name":"Sydney","country":"Australia","cc":"AU","sponsor":"Host Universal","id":"68241","preferred":0,"isp_id":"136098","https_functional":1,"host":"speedtest-syd.nsw.au.hostuniversal.com.au.prod.hosts.ooklaserver.net:8080"},
{"url":"http://speedtest-syd.thecore.net.au:8080/speedtest/upload.php","lat":"-33.8600","lon":"151.2111","distance":0,"name":"Sydney","country":"Australia","cc":"AU","sponsor":"Real World","id":"63404","preferred":0,"isp_id":"73511","https_functional":1,"host":"speedtest-syd.thecore.net.au.prod.hosts.ooklaserver.net:8080"},
{"url":"http://speedtest-syd.vocus.net:8080/speedtest/upload.php","lat":"-33.8600","lon":"151.2111","distance":0,"name":"Sydney","country":"Australia","cc":"AU","sponsor":"Vocus Communications","id":"17618","preferred":0,"isp_id":"27711","https_functional":1,"host":"speedtest-syd.vocus.net.prod.hosts.ooklaserver.net:8080"},
{"url":"http://speedtest-syd0.encoo.com.au:8080/speedtest/upload.php","lat":"-33.8600","lon":"151.2111","distance":0,"name":"Sydney","country":"Australia","cc":"AU","sponsor":"Encoo","id":"54213","preferred":0,"isp_id":"112532","https_functional":1,"host":"speedtest-syd0.encoo.com.au.prod.hosts.ooklaserver.net:8080"},
{"url":"http://speedtest-sydney.macquarietelecom.com:8080/speedtest/upload.php","lat":"-33.8600","lon":"151.2111","distance":0,"name":"Sydney","country":"Australia","cc":"AU","sponsor":"Macquarie Telecom","id":"45033","preferred":0,"isp_id":"292368","https_functional":1,"host":"speedtest-sydney.macquarietelecom.com.prod.hosts.ooklaserver.net:8080"},
{"url":"http://speedtest-sydney.optusnet.com.au:8080/speedtest/upload.php","lat":"-33.8600","lon":"151.2111","distance":0,"name":"Sydney","country":"Australia","cc":"AU","sponsor":"Optus","id":"1267","preferred":0,"isp_id":"71769","https_functional":1,"host":"speedtest-sydney.optusnet.com.au:8080"},
{"url":"http://speedtest.mirror.digitalpacific.com.au:8080/speedtest/upload.php","lat":"-33.8600","lon":"151.2111","distance":0,"name":"Sydney","country":"Australia","cc":"AU","sponsor":"Digital Pacific","id":"5744","preferred":0,"isp_id":"275078","https_functional":1,"host":"speedtest.mirror.digitalpacific.com.au.prod.hosts.ooklaserver.net:8080"},
{"url":"http://speedtest.mirror.serversaustralia.com.au:8080/speedtest/upload.php","lat":"-33.8600","lon":"151.2111","distance":0,"name":"Sydney","country":"Australia","cc":"AU","sponsor":"Servers Australia","id":"39108","preferred":0,"isp_id":"45372","https_functional":1,"host":"speedtest.mirror.serversaustralia.com.au.prod.hosts.ooklaserver.net:8080"},
{"url":"http://speedtest.syd.mhn.cloud:8080/speedtest/upload.php","lat":"-33.8600","lon":"151.2111","distance":0,"name":"Sydney","country":"Australia","cc":"AU","sponsor":"Hosted Network","id":"44473","preferred":0,"isp_id":"94872","https_functional":1,"host":"speedtest.syd.mhn.cloud.prod.hosts.ooklaserver.net:8080"},
{"url":"http://speedtest.syd01.launtel.net.au:8080/speedtest/upload.php","lat":"-33.8600","lon":"151.2111","distance":0,"name":"Sydney","country":"Australia","cc":"AU","sponsor":"Launtel","id":"61743","preferred":0,"isp_id":"137873","https_functional":1,"host":"speedtest.syd01.launtel.net.au.prod.hosts.ooklaserver.net:8080"},
{"url":"http://speedtest01.syd1.spintel.net.au:8080/speedtest/upload.php","lat":"-33.8600","lon":"151.2111","distance":0,"name":"Sydney","country":"Australia","cc":"AU","sponsor":"Spintel","id":"58437","preferred":0,"isp_id":"71839","https_functional":1,"host":"speedtest01.syd1.spintel.net.au.prod.hosts.ooklaserver.net:8080"},
{"url":"http://sy5.test.gslnetworks.com.au:8080/speedtest/upload.php","lat":"-33.8600","lon":"151.2111","distance":0,"name":"Sydney","country":"Australia","cc":"AU","sponsor":"GSL Networks","id":"44735","preferred":0,"isp_id":"274339","https_functional":1,"host":"sy5.test.gslnetworks.com.au.prod.hosts.ooklaserver.net:8080"},
{"url":"http://syd.speedtest.contabo.net:8080/speedtest/upload.php","lat":"-33.8600","lon":"151.2111","distance":0,"name":"Sydney","country":"Australia","cc":"AU","sponsor":"Contabo","id":"54360","preferred":0,"isp_id":"247516","https_functional":1,"host":"syd.speedtest.contabo.net:8080"},
{"url":"http://syd1.speedtest.telstra.net:8080/speedtest/upload.php","lat":"-33.8600","lon":"151.2111","distance":0,"name":"Sydney","country":"Australia","cc":"AU","sponsor":"Telstra","id":"12492","preferred":0,"isp_id":"39","https_functional":1,"host":"syd1.speedtest.telstra.net:8080"},
{"url":"http://sydgs2speed4.wireline.com.au:8080/speedtest/upload.php","lat":"-33.8600","lon":"151.2111","distance":0,"name":"Sydney","country":"Australia","cc":"AU","sponsor":"Wireline Group","id":"54817","preferred":0,"isp_id":"99929","https_functional":1,"host":"sydgs2speed4.wireline.com.au.prod.hosts.ooklaserver.net:8080"},
{"url":"http://sydspeedtest.rackdog.com:8080/speedtest/upload.php","lat":"-33.8600","lon":"151.2111","distance":0,"name":"Sydney","country":"Australia","cc":"AU","sponsor":"Rackdog","id":"46372","preferred":0,"isp_id":"275281","https_functional":1,"host":"sydspeedtest.rackdog.com.prod.hosts.ooklaserver.net:8080"},
{"url":"http://sydspeedtest.solitary.net.au:8080/speedtest/upload.php","lat":"-33.8600","lon":"151.2111","distance":0,"name":"Sydney","country":"Australia","cc":"AU","sponsor":"Solitary Technology","id":"73770","preferred":0,"isp_id":"295992","https_functional":1,"host":"sydspeedtest.solitary.net.au.prod.hosts.ooklaserver.net:8080"},
{"url":"http://speedtest-townsville.optusnet.com.au:8080/speedtest/upload.php","lat":"-19.2590","lon":"146.8169","distance":0,"name":"Townsville","country":"Australia","cc":"AU","sponsor":"Optus","id":"10442","preferred":0,"isp_id":"71769","https_functional":1,"host":"speedtest-townsville.optusnet.com.au:8080"},
{"url":"http://win1.speedtest.telstra.net:8080/speedtest/upload.php","lat":"-37.8540","lon":"144.9880","distance":0,"name":"Windsor","country":"Australia","cc":"AU","sponsor":"Telstra","id":"18714","preferred":0,"isp_id":"39","https_functional":1,"host":"win1.speedtest.telstra.net:8080"},
{"url":"http://acrenettecnologia.brsserver.com.br:8080/speedtest/upload.php","lat":"-10.0765","lon":"-67.0587","distance":0,"name":"Acrelândia","country":"Brazil","cc":"BR","sponsor":"ACRENET TECNOLOGIA","id":"68916","preferred":0,"isp_id":"308296","https_functional":1,"host":"acrenettecnologia.brsserver.com.br:8080"},
{"url":"http://speedtest.centralnetprovedor.net.br:8080/speedtest/upload.php","lat":"-10.0764","lon":"-67.0586","distance":0,"name":"Acrelândia","country":"Brazil","cc":"BR","sponsor":"CentralNET","id":"45375","preferred":0,"isp_id":"193233","https_functional":1,"host":"speedtest.centralnetprovedor.net.br:8080"},
{"url":"http://teste.routinger.com.br:8080/speedtest/upload.php","lat":"-3.5789","lon":"-59.1345","distance":0,"name":"Autazes","country":"Brazil","cc":"BR","sponsor":"Routinger","id":"64181","preferred":0,"isp_id":"228442","https_functional":1,"host":"teste.routinger.com.br:8080"},
{"url":"http://spd76.claro.com.br:8080/speedtest/upload.php","lat":"2.8235","lon":"-60.6759","distance":0,"name":"Boa Vista","country":"Brazil","cc":"BR","sponsor":"Claro Móvel - BVA1","id":"70589","preferred":0,"isp_id":"14791","https_functional":1,"host":"spd76.claro.com.br:8080"},
{"url":"http://speed.cyborgtelecom.com.br:8080/speedtest/upload.php","lat":"2.8206","lon":"-60.6738","distance":0,"name":"Boa Vista","country":"Brazil","cc":"BR","sponsor":"Cyborg Telecom","id":"53054","preferred":0,"isp_id":"0","https_functional":1,"host":"speed.cyborgtelecom.com.br:8080"},
{"url":"https://speedtest.auratelecom.com.br:8080/speedtest/upload.php","lat":"2.8235","lon":"-60.6759","distance":0,"name":"Boa Vista","country":"Brazil","cc":"BR","sponsor":"AURA Telecom","id":"57456","preferred":0,"isp_id":"0","https_functional":1,"host":"speedtest.auratelecom.com.br:8080"},
{"url":"http://speedtest.inforr.com.br:8080/speedtest/upload.php","lat":"2.8235","lon":"-60.6759","distance":0,"name":"Boa Vista","country":"Brazil","cc":"BR","sponsor":"INFORR TELECOM","id":"10931","preferred":0,"isp_id":"233646","https_functional":1,"host":"speedtest.inforr.com.br:8080"},
{"url":"http://speedtest.linknetbv.com:8080/speedtest/upload.php","lat":"2.8235","lon":"-60.6759","distance":0,"name":"Boa Vista","country":"Brazil","cc":"BR","sponsor":"LINK-NETBV","id":"49031","preferred":0,"isp_id":"258135","https_functional":1,"host":"speedtest.linknetbv.com:8080"},
{"url":"http://speedtest.roraimanet.com.br:8080/speedtest/upload.php","lat":"2.8206","lon":"-60.6738","distance":0,"name":"Boa Vista","country":"Brazil","cc":"BR","sponsor":"RoraimaNET Telecomunicações","id":"25279","preferred":0,"isp_id":"149462","https_functional":1,"host":"speedtest.roraimanet.com.br.prod.hosts.ooklaserver.net:8080"},
{"url":"http://speedtest.saidnettelecom.com.br:8080/speedtest/upload.php","lat":"2.8236","lon":"-60.6745","distance":0,"name":"Boa Vista","country":"Brazil","cc":"BR","sponsor":"SAIDNET TELECOM","id":"69557","preferred":0,"isp_id":"243067","https_functional":1,"host":"speedtest.saidnettelecom.com.br.prod.hosts.ooklaserver.net:8080"},
{"url":"http://speedtest.snnet.com.br:8080/speedtest/upload.php","lat":"2.8235","lon":"-60.6759","distance":0,"name":"Boa Vista","country":"Brazil","cc":"BR","sponsor":"SN-NET","id":"30198","preferred":0,"isp_id":"309250","https_functional":1,"host":"speedtest.snnet.com.br:8080"},
{"url":"http://speedtest.uplinkrr.com.br:8080/speedtest/upload.php","lat":"2.8235","lon":"-60.6759","distance":0,"name":"Boa Vista","country":"Brazil","cc":"BR","sponsor":"UpLink","id":"50249","preferred":0,"isp_id":"0","host":"speedtest.uplinkrr.com.br:8080"},
{"url":"http://speedtest.webfibertelecom.com.br:8080/speedtest/upload.php","lat":"2.8235","lon":"-60.6758","distance":0,"name":"Boa Vista","country":"Brazil","cc":"BR","sponsor":"Webfiber Telecom","id":"21777","preferred":0,"isp_id":"178316","https_functional":1,"host":"speedtest.webfibertelecom.com.br.prod.hosts.ooklaserver.net:8080"},
{"url":"http://speedteste.netfast.com.br:8080/speedtest/upload.php","lat":"2.8235","lon":"-60.6759","distance":0,"name":"Boa Vista","country":"Brazil","cc":"BR","sponsor":"NETFAST RR","id":"73307","preferred":0,"isp_id":"192340","https_functional":1,"host":"speedteste.netfast.com.br:8080"},
{"url":"http://speedtestrr.vtal.net.br:8080/speedtest/upload.php","lat":"2.8235","lon":"-60.6759","distance":0,"name":"Boa Vista","country":"Brazil","cc":"BR","sponsor":"Vtal","id":"40396","preferred":0,"isp_id":"243067","https_functional":1,"host":"speedtestrr.vtal.net.br.prod.hosts.ooklaserver.net:8080"},
{"url":"http://teste.suprainternet.com.br:8080/speedtest/upload.php","lat":"2.7885","lon":"-60.7259","distance":0,"name":"Boa Vista","country":"Brazil","cc":"BR","sponsor":"Supra internet","id":"46999","preferred":0,"isp_id":"318468","host":"teste.suprainternet.com.br:8080"},
{"url":"http://velocidade.4wnet.com.br:8080/speedtest/upload.php","lat":"2.8235","lon":"-60.6759","distance":0,"name":"Boa Vista","country":"Brazil","cc":"BR","sponsor":"4WNET TELECOMUNICAÇÕES","id":"25749","preferred":0,"isp_id":"192914","https_functional":1,"host":"velocidade.4wnet.com.br:8080"},
{"url":"http://velocidade.amazoniatelecom.com.br:8080/speedtest/upload.php","lat":"2.8235","lon":"-60.6759","distance":0,"name":"Boa Vista","country":"Brazil","cc":"BR","sponsor":"Amazônia Telecom","id":"22091","preferred":0,"isp_id":"164194","https_functional":1,"host":"velocidade.amazoniatelecom.com.br:8080"},
{"url":"http://speedtest.routinger.com.br:8080/speedtest/upload.php","lat":"-3.8194","lon":"-60.3612","distance":0,"name":"Careiro","country":"Brazil","cc":"BR","sponsor":"Routinger","id":"45199","preferred":0,"isp_id":"228442","https_functional":1,"host":"speedtest.routinger.com.br:8080"},
{"url":"http://ookla.paulonet.srv.br:8080/speedtest/upload.php","lat":"-3.0363","lon":"-59.9855","distance":0,"name":"Cidade Nova","country":"Brazil","cc":"BR","sponsor":"PauloNet - PRM","id":"26057","preferred":0,"isp_id":"192438","https_functional":1,"host":"ookla.paulonet.srv.br.prod.hosts.ooklaserver.net:8080"},
{"url":"http://ookla.speedtestunonet.com.br:8080/speedtest/upload.php","lat":"-7.6280","lon":"-72.6762","distance":0,"name":"Cruzeiro do Sul","country":"Brazil","cc":"BR","sponsor":"UNONET","id":"54070","preferred":0,"isp_id":"193205","https_functional":1,"host":"ookla.speedtestunonet.com.br.prod.hosts.ooklaserver.net:8080"},
{"url":"http://speedtest.omegasul.com.br:8080/speedtest/upload.php","lat":"-7.6280","lon":"-72.6762","distance":0,"name":"Cruzeiro do Sul","country":"Brazil","cc":"BR","sponsor":"Omegasul Telecom","id":"29667","preferred":0,"isp_id":"118283","https_functional":1,"host":"speedtest.omegasul.com.br.prod.hosts.ooklaserver.net:8080"},
{"url":"http://stczs.norteultrafibra.com.br:8080/speedtest/upload.php","lat":"-7.6280","lon":"-72.6762","distance":0,"name":"Cruzeiro do Sul","country":"Brazil","cc":"BR","sponsor":"Norte Fibra","id":"69916","preferred":0,"isp_id":"0","https_functional":1,"host":"stczs.norteultrafibra.com.br:8080"},
{"url":"http://velocimetro.govistabr.com.br:8080/speedtest/upload.php","lat":"-11.0294","lon":"-68.7409","distance":0,"name":"Epitaciolândia","country":"Brazil","cc":"BR","sponsor":"GoVistaBR","id":"44381","preferred":0,"isp_id":"203142","host":"velocimetro.govistabr.com.br:8080"},
{"url":"http://speedtest.japanettelecom.com.br:8080/speedtest/upload.php","lat":"-23.4849","lon":"-46.3495","distance":0,"name":"Itaquaquecetuba","country":"Brazil","cc":"BR","sponsor":"JAPANET TELECOM","id":"56562","preferred":0,"isp_id":"223300","https_functional":1,"host":"speedtest.japanettelecom.com.br:8080"},
{"url":"http://speedtest.lanvegas.com.br:8080/speedtest/upload.php","lat":"-7.2637","lon":"-64.7965","distance":0,"name":"Lábrea","country":"Brazil","cc":"BR","sponsor":"LanVegas","id":"74247","preferred":0,"isp_id":"195219","https_functional":1,"host":"speedtest.lanvegas.com.br:8080"},
{"url":"http://2bnetwork.brsserver.com.br:8080/speedtest/upload.php","lat":"-3.1000","lon":"-60.0167","distance":0,"name":"Manaus","country":"Brazil","cc":"BR","sponsor":"2B Network","id":"73645","preferred":0,"isp_id":"327317","https_functional":1,"host":"2bnetwork.brsserver.com.br:8080"},
{"url":"http://fwnetwork.brsserver.com.br:8080/speedtest/upload.php","lat":"-3.1000","lon":"-60.0167","distance":0,"name":"Manaus","country":"Brazil","cc":"BR","sponsor":"Fw Network","id":"70801","preferred":0,"isp_id":"315096","https_functional":1,"host":"fwnetwork.brsserver.com.br:8080"},
{"url":"http://glconnect.brsserver.com.br:8080/speedtest/upload.php","lat":"-3.1000","lon":"-60.0167","distance":0,"name":"Manaus","country":"Brazil","cc":"BR","sponsor":"GLCONNECT","id":"69773","preferred":0,"isp_id":"311783","https_functional":1,"host":"glconnect.brsserver.com.br:8080"},
{"url":"http://lifitelecom.brsserver.com.br:8080/speedtest/upload.php","lat":"-3.1000","lon":"-60.0167","distance":0,"name":"Manaus","country":"Brazil","cc":"BR","sponsor":"LIFI TELECOM","id":"67434","preferred":0,"isp_id":"304105","https_functional":1,"host":"lifitelecom.brsserver.com.br:8080"},
{"url":"http://mns.i-systems.com:8080/speedtest/upload.php","lat":"-3.1000","lon":"-60.0167","distance":0,"name":"Manaus","country":"Brazil","cc":"BR","sponsor":"I-Systems","id":"64565","preferred":0,"isp_id":"299307","https_functional":1,"host":"mns.i-systems.com:8080"},
{"url":"https://ok.conectmastelecom.com.br:8080/speedtest/upload.php","lat":"-3.1000","lon":"-60.0167","distance":0,"name":"Manaus","country":"Brazil","cc":"BR","sponsor":"CONECTMAS Telecom","id":"37188","preferred":0,"isp_id":"219759","https_functional":1,"host":"ok.conectmastelecom.com.br:8080"},
{"url":"http://ookla.amazoniasat-isp.com.br:8080/speedtest/upload.php","lat":"-3.1000","lon":"-60.0167","distance":0,"name":"Manaus","country":"Brazil","cc":"BR","sponsor":"Amazônia Sat","id":"47135","preferred":0,"isp_id":"151261","https_functional":1,"host":"ookla.amazoniasat-isp.com.br.prod.hosts.ooklaserver.net:8080"},
{"url":"http://ookla.araujotelecom.com.br:8080/speedtest/upload.php","lat":"-3.1000","lon":"-60.0167","distance":0,"name":"Manaus","country":"Brazil","cc":"BR","sponsor":"Araujo Telecom","id":"57219","preferred":0,"isp_id":"219759","https_functional":1,"host":"ookla.araujotelecom.com.br.prod.hosts.ooklaserver.net:8080"},
{"url":"http://ookla.fullisp.com.br:8080/speedtest/upload.php","lat":"-3.1000","lon":"-60.0167","distance":0,"name":"Manaus","country":"Brazil","cc":"BR","sponsor":"Full Telecom","id":"62310","preferred":0,"isp_id":"19182","https_functional":1,"host":"ookla.fullisp.com.br.prod.hosts.ooklaserver.net:8080"},
{"url":"http://ookla.jgainterlinktelecom.com.br:8080/speedtest/upload.php","lat":"-3.1000","lon":"-60.0167","distance":0,"name":"Manaus","country":"Brazil","cc":"BR","sponsor":"JGA INTER LINK TELECOM LTDA","id":"64271","preferred":0,"isp_id":"206074","https_functional":1,"host":"ookla.jgainterlinktelecom.com.br.prod.hosts.ooklaserver.net:8080"},
{"url":"http://ookla.playmaisreverso.net.br:8080/speedtest/upload.php","lat":"-3.1000","lon":"-60.0167","distance":0,"name":"Manaus","country":"Brazil","cc":"BR","sponsor":"PlayMais Fibra","id":"63156","preferred":0,"isp_id":"284546","https_functional":1,"host":"ookla.playmaisreverso.net.br.prod.hosts.ooklaserver.net:8080"},
{"url":"http://ookla.siditelecom-isp.com.br:8080/speedtest/upload.php","lat":"-3.1000","lon":"-60.0167","distance":0,"name":"Manaus","country":"Brazil","cc":"BR","sponsor":"Sidi Telecom","id":"47570","preferred":0,"isp_id":"193476","https_functional":1,"host":"ookla.siditelecom-isp.com.br.prod.hosts.ooklaserver.net:8080"},
{"url":"http://spd33.claro.com.br:8080/speedtest/upload.php","lat":"-3.1000","lon":"-60.0167","distance":0,"name":"Manaus","country":"Brazil","cc":"BR","sponsor":"Claro Móvel - MNS1","id":"37453","preferred":0,"isp_id":"14791","https_functional":1,"host":"spd33.claro.com.br:8080"},
{"url":"http://spdt.voenetworks.com:8080/speedtest/upload.php","lat":"-3.1190","lon":"-60.0217","distance":0,"name":"Manaus","country":"Brazil","cc":"BR","sponsor":"VOE NETWORKS","id":"72704","preferred":0,"isp_id":"313477","https_functional":1,"host":"spdt.voenetworks.com:8080"},
{"url":"http://speed.amazonett.com.br:8080/speedtest/upload.php","lat":"-3.1000","lon":"-60.0167","distance":0,"name":"Manaus","country":"Brazil","cc":"BR","sponsor":"Amazonet Telecom Ltda","id":"26522","preferred":0,"isp_id":"128217","https_functional":1,"host":"speed.amazonett.com.br:8080"},
{"url":"http://speedam.wsp.net.br:8080/speedtest/upload.php","lat":"-3.1000","lon":"-60.0167","distance":0,"name":"Manaus","country":"Brazil","cc":"BR","sponsor":"WSP FIBRA","id":"59830","preferred":0,"isp_id":"89080","https_functional":1,"host":"speedam.wsp.net.br:8080"},
{"url":"http://speedtest.3dnet.net.br:8080/speedtest/upload.php","lat":"-3.1000","lon":"-60.0167","distance":0,"name":"Manaus","country":"Brazil","cc":"BR","sponsor":"3DNET","id":"72985","preferred":0,"isp_id":"283369","https_functional":1,"host":"speedtest.3dnet.net.br.prod.hosts.ooklaserver.net:8080"},
{"url":"http://speedtest.albatroznetwork.com.br:8080/speedtest/upload.php","lat":"-3.1190","lon":"-60.0217","distance":0,"name":"Manaus","country":"Brazil","cc":"BR","sponsor":"Albatroz Network","id":"56117","preferred":0,"isp_id":"259266","https_functional":1,"host":"speedtest.albatroznetwork.com.br:8080"},
{"url":"http://speedtest.amazonasfiber.com.br:8080/speedtest/upload.php","lat":"-3.1000","lon":"-60.0167","distance":0,"name":"Manaus","country":"Brazil","cc":"BR","sponsor":"AmazonasFiber","id":"73934","preferred":0,"isp_id":"283369","https_functional":1,"host":"speedtest.amazonasfiber.com.br.prod.hosts.ooklaserver.net:8080"},
{"url":"http://speedtest.bemol.com.br:8080/speedtest/upload.php","lat":"-3.1000","lon":"-60.0167","distance":0,"name":"Manaus","country":"Brazil","cc":"BR","sponsor":"BEMOL","id":"74135","preferred":0,"isp_id":"130369","https_functional":1,"host":"speedtest.bemol.com.br:8080"},
{"url":"http://speedtest.fibernetwork.com.br:8080/speedtest/upload.php","lat":"-3.1000","lon":"-60.0167","distance":0,"name":"Manaus","country":"Brazil","cc":"BR","sponsor":"Fiber Network","id":"71451","preferred":0,"isp_id":"0","https_functional":1,"host":"speedtest.fibernetwork.com.br.prod.hosts.ooklaserver.net:8080"},
{"url":"http://speedtest.gabysantos.com.br:8080/speedtest/upload.php","lat":"-3.1000","lon":"-60.0167","distance":0,"name":"Manaus","country":"Brazil","cc":"BR","sponsor":"GABY-SANTOS TELECOM","id":"71337","preferred":0,"isp_id":"323137","https_functional":1,"host":"speedtest.gabysantos.com.br.prod.hosts.ooklaserver.net:8080"},
{"url":"http://speedtest.imais.com.br:8080/speedtest/upload.php","lat":"-3.1000","lon":"-60.0167","distance":0,"name":"Manaus","country":"Brazil","cc":"BR","sponsor":"i_mais","id":"11047","preferred":0,"isp_id":"202053","https_functional":1,"host":"speedtest.imais.com.br.prod.hosts.ooklaserver.net:8080"},
{"url":"http://speedtest.intlink.com.br:8080/speedtest/upload.php","lat":"-3.1000","lon":"-60.0167","distance":0,"name":"Manaus","country":"Brazil","cc":"BR","sponsor":"Intlink","id":"54574","preferred":0,"isp_id":"202053","https_functional":1,"host":"speedtest.intlink.com.br.prod.hosts.ooklaserver.net:8080"},
{"url":"http://speedtest.jetspeed.com.br:8080/speedtest/upload.php","lat":"-3.1000","lon":"-60.0167","distance":0,"name":"Manaus","country":"Brazil","cc":"BR","sponsor":"JETSPEED FIBRA","id":"62857","preferred":0,"isp_id":"305349","https_functional":1,"host":"speedtest.jetspeed.com.br.prod.hosts.ooklaserver.net:8080"},
{"url":"http://speedtest.jvswifi.com.br:8080/speedtest/upload.php","lat":"-3.1000","lon":"-60.0167","distance":0,"name":"Manaus","country":"Brazil","cc":"BR","sponsor":"JVS WIFI","id":"53474","preferred":0,"isp_id":"224189","host":"speedtest.jvswifi.com.br:8080"},
{"url":"http://speedtest.linkamos.com.br:8080/speedtest/upload.php","lat":"-3.1000","lon":"-60.0167","distance":0,"name":"Manaus","country":"Brazil","cc":"BR","sponsor":"LINKAMOS PROVEDOR DE INTERNET","id":"57675","preferred":0,"isp_id":"219759","https_functional":1,"host":"speedtest.linkamos.com.br:8080"},
{"url":"http://speedtest.syscom.manaus.br:8080/speedtest/upload.php","lat":"-3.1000","lon":"-60.0167","distance":0,"name":"Manaus","country":"Brazil","cc":"BR","sponsor":"Syscom Telecom","id":"35189","preferred":0,"isp_id":"228359","https_functional":1,"host":"speedtest.syscom.manaus.br:8080"},
{"url":"http://speedtest.unitelecom.net.br:8080/speedtest/upload.php","lat":"-3.1000","lon":"-60.0167","distance":0,"name":"Manaus","country":"Brazil","cc":"BR","sponsor":"UNITELECOM","id":"43704","preferred":0,"isp_id":"232469","https_functional":1,"host":"speedtest.unitelecom.net.br.prod.hosts.ooklaserver.net:8080"},
{"url":"http://speedtest.wiretelecom.com.br:8080/speedtest/upload.php","lat":"-3.1000","lon":"-60.0167","distance":0,"name":"Manaus","country":"Brazil","cc":"BR","sponsor":"Wire Telecom","id":"71486","preferred":0,"isp_id":"202053","https_functional":1,"host":"speedtest.wiretelecom.com.br.prod.hosts.ooklaserver.net:8080"},
{"url":"http://speedtestam.vtal.net.br:8080/speedtest/upload.php","lat":"-3.1000","lon":"-60.0167","distance":0,"name":"Manaus","country":"Brazil","cc":"BR","sponsor":"Vtal","id":"41076","preferred":0,"isp_id":"243067","https_functional":1,"host":"speedtestam.vtal.net.br.prod.hosts.ooklaserver.net:8080"},
{"url":"http://spetstmns01.timbrasil.com.br:8080/speedtest/upload.php","lat":"-3.1000","lon":"-60.0167","distance":0,"name":"Manaus","country":"Brazil","cc":"BR","sponsor":"TIM Brasil","id":"12562","preferred":0,"isp_id":"105781","host":"spetstmns01.timbrasil.com.br:8080"},
{"url":"http://stest.ultraconnect.com.br:8080/speedtest/upload.php","lat":"-3.1000","lon":"-60.0167","distance":0,"name":"Manaus","country":"Brazil","cc":"BR","sponsor":"ULTRACONNECT","id":"62816","preferred":0,"isp_id":"189997","https_functional":1,"host":"stest.ultraconnect.com.br:8080"},
{"url":"http://teste.diotelecom.com.br:8080/speedtest/upload.php","lat":"-3.1000","lon":"-60.0167","distance":0,"name":"Manaus","country":"Brazil","cc":"BR","sponsor":"Dio Telecom","id":"18981","preferred":0,"isp_id":"193507","https_functional":1,"host":"teste.diotelecom.com.br:8080"},
{"url":"http://teste.jsnet.manaus.br:8080/speedtest/upload.php","lat":"-3.1000","lon":"-60.0167","distance":0,"name":"Manaus","country":"Brazil","cc":"BR","sponsor":"JSNET","id":"55160","preferred":0,"isp_id":"203607","host":"teste.jsnet.manaus.br:8080"},
{"url":"http://teste.linkonfibra.com.br:8080/speedtest/upload.php","lat":"-3.1000","lon":"-60.0167","distance":0,"name":"Manaus","country":"Brazil","cc":"BR","sponsor":"Link ON FIBRA","id":"63090","preferred":0,"isp_id":"294335","https_functional":1,"host":"teste.linkonfibra.com.br:8080"},
{"url":"http://teste.msfibraam.com.br:8080/speedtest/upload.php","lat":"-3.1000","lon":"-60.0167","distance":0,"name":"Manaus","country":"Brazil","cc":"BR","sponsor":"MSFIBRA","id":"71211","preferred":0,"isp_id":"235626","host":"teste.msfibraam.com.br:8080"},
{"url":"http://speedteste.newsolutionnet.com.br:8080/speedtest/upload.php","lat":"-3.1000","lon":"-60.0167","distance":0,"name":"Manaus","country":"Brazil","cc":"BR","sponsor":"New Solution Net","id":"32474","preferred":0,"isp_id":"201614","host":"teste.newsolutionnet.com.br:8080"},
{"url":"http://teste.reatelecom.com.br:8080/speedtest/upload.php","lat":"-3.1000","lon":"-60.0167","distance":0,"name":"Manaus","country":"Brazil","cc":"BR","sponsor":"R&A Telecom","id":"28117","preferred":0,"isp_id":"175871","https_functional":1,"host":"teste.reatelecom.com.br:8080"},
{"url":"http://teste.redefinitytelecom.com.br:8080/speedtest/upload.php","lat":"-3.1190","lon":"-60.0217","distance":0,"name":"Manaus","country":"Brazil","cc":"BR","sponsor":"FINITY TELECOM","id":"72716","preferred":0,"isp_id":"132024","https_functional":1,"host":"teste.redefinitytelecom.com.br:8080"},
{"url":"http://teste.tstelecomltda.com.br:8080/speedtest/upload.php","lat":"-3.1000","lon":"-60.0167","distance":0,"name":"Manaus","country":"Brazil","cc":"BR","sponsor":"TS TELECOM Ltda","id":"51463","preferred":0,"isp_id":"162548","host":"teste.tstelecomltda.com.br:8080"},
{"url":"http://teste.wsfibra.com.br:8080/speedtest/upload.php","lat":"-3.1000","lon":"-60.0167","distance":0,"name":"Manaus","country":"Brazil","cc":"BR","sponsor":"WS-NET TELECOM","id":"36277","preferred":0,"isp_id":"128196","https_functional":1,"host":"teste.wsfibra.com.br:8080"},
{"url":"http://teste.xtremenet.com.br:8080/speedtest/upload.php","lat":"-3.1000","lon":"-60.0167","distance":0,"name":"Manaus","country":"Brazil","cc":"BR","sponsor":"Xtreme Soluções","id":"53923","preferred":0,"isp_id":"233364","https_functional":1,"host":"teste.xtremenet.com.br:8080"},
{"url":"http://velocidade.csrnetwork.com.br:8080/speedtest/upload.php","lat":"-3.1000","lon":"-60.0167","distance":0,"name":"Manaus","country":"Brazil","cc":"BR","sponsor":"CSRNETWORK","id":"71581","preferred":0,"isp_id":"130142","https_functional":1,"host":"velocidade.csrnetwork.com.br:8080"},
{"url":"http://velocidade.exytelecom.com.br:8080/speedtest/upload.php","lat":"-3.1000","lon":"-60.0167","distance":0,"name":"Manaus","country":"Brazil","cc":"BR","sponsor":"EXY TELECOM","id":"37986","preferred":0,"isp_id":"215942","host":"velocidade.exytelecom.com.br:8080"},
{"url":"http://velocidade.gtmtelecom.com.br:8080/speedtest/upload.php","lat":"-3.1000","lon":"-60.0167","distance":0,"name":"Manaus","country":"Brazil","cc":"BR","sponsor":"GTM TELECOM","id":"73435","preferred":0,"isp_id":"0","https_functional":1,"host":"velocidade.gtmtelecom.com.br:8080"},
{"url":"http://velocidade.idnetttelecom.com.br:8080/speedtest/upload.php","lat":"-3.1000","lon":"-60.0167","distance":0,"name":"Manaus","country":"Brazil","cc":"BR","sponsor":"IDNETT TELECOM","id":"28448","preferred":0,"isp_id":"201171","https_functional":1,"host":"velocidade.idnetttelecom.com.br:8080"},
{"url":"https://velocidade.impertechtelecom.com.br:8080/speedtest/upload.php","lat":"-3.1000","lon":"-60.0167","distance":0,"name":"Manaus","country":"Brazil","cc":"BR","sponsor":"Impertech Telecom","id":"28429","preferred":0,"isp_id":"201877","https_functional":1,"host":"velocidade.impertechtelecom.com.br:8080"},
{"url":"http://velocidade.ip.eti.br:8080/speedtest/upload.php","lat":"-3.1000","lon":"-60.0167","distance":0,"name":"Manaus","country":"Brazil","cc":"BR","sponsor":"IP Fibra","id":"38403","preferred":0,"isp_id":"206074","https_functional":1,"host":"velocidade.ip.eti.br:8080"},
{"url":"http://velocidade.lplink.net.br:8080/speedtest/upload.php","lat":"-3.1000","lon":"-60.0167","distance":0,"name":"Manaus","country":"Brazil","cc":"BR","sponsor":"LP Link","id":"70358","preferred":0,"isp_id":"235626","https_functional":1,"host":"velocidade.lplink.net.br:8080"},
{"url":"http://velocidade.phinfortelecom.com.br:8080/speedtest/upload.php","lat":"-3.1000","lon":"-60.0167","distance":0,"name":"Manaus","country":"Brazil","cc":"BR","sponsor":"PH Telecom","id":"12169","preferred":0,"isp_id":"162548","https_functional":1,"host":"velocidade.phinfortelecom.com.br:8080"},
{"url":"http://velocimetro-mns.virtua.com.br:8080/speedtest/upload.php","lat":"-3.1000","lon":"-60.0167","distance":0,"name":"Manaus","country":"Brazil","cc":"BR","sponsor":"Claro Net Vírtua - MNS","id":"22139","preferred":0,"isp_id":"87729","https_functional":1,"host":"velocimetro-mns.virtua.com.br.prod.hosts.ooklaserver.net:8080"},
{"url":"http://velocimetro-spt.akto.com.br:8080/speedtest/upload.php","lat":"-3.1000","lon":"-60.0167","distance":0,"name":"Manaus","country":"Brazil","cc":"BR","sponsor":"Akto Tecnologia","id":"63417","preferred":0,"isp_id":"131677","https_functional":1,"host":"velocimetro-spt.akto.com.br:8080"},
{"url":"http://velocimetro.proveinter.com.br:8080/speedtest/upload.php","lat":"-3.1000","lon":"-60.0167","distance":0,"name":"Manaus","country":"Brazil","cc":"BR","sponsor":"Proveinter","id":"33584","preferred":0,"isp_id":"113681","https_functional":1,"host":"velocimetro.proveinter.com.br:8080"},
{"url":"http://velocimetro.speednetworks.com.br:8080/speedtest/upload.php","lat":"-3.1000","lon":"-60.0167","distance":0,"name":"Manaus","country":"Brazil","cc":"BR","sponsor":"SpeedNetworks","id":"43375","preferred":0,"isp_id":"128488","https_functional":1,"host":"velocimetro.speednetworks.com.br:8080"},
{"url":"http://speedtest.inovewifi.com.br:8080/speedtest/upload.php","lat":"-7.6135","lon":"-72.9060","distance":0,"name":"Mâncio Lima","country":"Brazil","cc":"BR","sponsor":"INOVE","id":"73031","preferred":0,"isp_id":"203222","https_functional":1,"host":"speedtest.inovewifi.com.br.prod.hosts.ooklaserver.net:8080"},
{"url":"http://speedtest.connectbv8.com.br:8080/speedtest/upload.php","lat":"4.4784","lon":"-61.1483","distance":0,"name":"Pacaraima","country":"Brazil","cc":"BR","sponsor":"Connect","id":"50736","preferred":0,"isp_id":"232840","https_functional":1,"host":"speedtest.connectbv8.com.br:8080"},
{"url":"http://speedtest.pronetsuaconexao.com:8080/speedtest/upload.php","lat":"4.4784","lon":"-61.1483","distance":0,"name":"Pacaraima","country":"Brazil","cc":"BR","sponsor":"PRONET SUA CONEXAO","id":"72867","preferred":0,"isp_id":"290528","https_functional":1,"host":"speedtest.pronetsuaconexao.com:8080"},
{"url":"http://urbanonet.brsserver.com.br:8080/speedtest/upload.php","lat":"-10.2810","lon":"-67.1377","distance":0,"name":"Plácido de Castro","country":"Brazil","cc":"BR","sponsor":"UrbanoNET Telecom","id":"73544","preferred":0,"isp_id":"308462","https_functional":1,"host":"urbanonet.brsserver.com.br:8080"},
{"url":"http://a-speedtest.brasildigital.net.br:8080/speedtest/upload.php","lat":"-8.7612","lon":"-63.9004","distance":0,"name":"Porto Velho","country":"Brazil","cc":"BR","sponsor":"Brasil Digital","id":"53681","preferred":0,"isp_id":"123835","https_functional":1,"host":"a-speedtest.brasildigital.net.br:8080"},
{"url":"http://pvh.speedtest.vipnetconexao.com.br:8080/speedtest/upload.php","lat":"-8.7612","lon":"-63.9004","distance":0,"name":"Porto Velho","country":"Brazil","cc":"BR","sponsor":"VIPNET","id":"31033","preferred":0,"isp_id":"302133","https_functional":1,"host":"pvh.speedtest.vipnetconexao.com.br.prod.hosts.ooklaserver.net:8080"},
{"url":"http://souza.linknetspeedtest.net.br:8080/speedtest/upload.php","lat":"-8.7612","lon":"-63.9004","distance":0,"name":"Porto Velho","country":"Brazil","cc":"BR","sponsor":"LinkNet Telecomunicações","id":"57711","preferred":0,"isp_id":"166124","https_functional":1,"host":"souza.linknetspeedtest.net.br:8080"},
{"url":"http://spd53.claro.com.br:8080/speedtest/upload.php","lat":"-8.7612","lon":"-63.9004","distance":0,"name":"Porto Velho","country":"Brazil","cc":"BR","sponsor":"Claro Móvel - PVO2","id":"61495","preferred":0,"isp_id":"14791","https_functional":1,"host":"spd53.claro.com.br:8080"},
{"url":"https://speed.grinternett.com.br:8080/speedtest/upload.php","lat":"-8.7612","lon":"-63.9004","distance":0,"name":"Porto Velho","country":"Brazil","cc":"BR","sponsor":"GR INTERNET","id":"47891","preferred":0,"isp_id":"217983","host":"speed.grinternett.com.br:8080"},
{"url":"http://speedtest.ollatelecom.com.br:8080/speedtest/upload.php","lat":"-8.7612","lon":"-63.9004","distance":0,"name":"Porto Velho","country":"Brazil","cc":"BR","sponsor":"Ollá Telecom","id":"42223","preferred":0,"isp_id":"217983","https_functional":1,"host":"speedtest.ollatelecom.com.br.prod.hosts.ooklaserver.net:8080"},
{"url":"http://speedtest.uptelecom-ro.com.br:8080/speedtest/upload.php","lat":"-8.7612","lon":"-63.9004","distance":0,"name":"Porto Velho","country":"Brazil","cc":"BR","sponsor":"UP Telecom","id":"61254","preferred":0,"isp_id":"199906","host":"speedtest.uptelecom-ro.com.br:8080"},
{"url":"http://speedtestro.vtal.net.br:8080/speedtest/upload.php","lat":"-8.7612","lon":"-63.9004","distance":0,"name":"Porto Velho","country":"Brazil","cc":"BR","sponsor":"Vtal","id":"40765","preferred":0,"isp_id":"243067","https_functional":1,"host":"speedtestro.vtal.net.br.prod.hosts.ooklaserver.net:8080"},
{"url":"https://sp01.rbfibra.net.br:8080/speedtest/upload.php","lat":"-9.9754","lon":"-67.8249","distance":0,"name":"Rio Branco","country":"Brazil","cc":"BR","sponsor":"RB Fibra","id":"59449","preferred":0,"isp_id":"262565","https_functional":1,"host":"sp01.rbfibra.net.br:8080"},
{"url":"http://sp1.contilnet.net:8080/speedtest/upload.php","lat":"-9.9754","lon":"-67.8249","distance":0,"name":"Rio Branco","country":"Brazil","cc":"BR","sponsor":"ContilNet Telecom","id":"28595","preferred":0,"isp_id":"189612","host":"sp1.contilnet.net:8080"},
{"url":"http://sp2.semfronteiras.net.br:8080/speedtest/upload.php","lat":"-9.9754","lon":"-67.8249","distance":0,"name":"Rio Branco","country":"Brazil","cc":"BR","sponsor":"Sem Fronteiras Ultra-Fibra","id":"35073","preferred":0,"isp_id":"154487","https_functional":1,"host":"sp2.semfronteiras.net.br.prod.hosts.ooklaserver.net:8080"},
{"url":"http://spd49.claro.com.br:8080/speedtest/upload.php","lat":"-9.9754","lon":"-67.8249","distance":0,"name":"Rio Branco","country":"Brazil","cc":"BR","sponsor":"Claro Móvel - RBO2","id":"61411","preferred":0,"isp_id":"14791","https_functional":1,"host":"spd49.claro.com.br:8080"},
{"url":"http://speedtestac.vtal.net.br:8080/speedtest/upload.php","lat":"-9.9754","lon":"-67.8249","distance":0,"name":"Rio Branco","country":"Brazil","cc":"BR","sponsor":"Vtal","id":"40463","preferred":0,"isp_id":"243067","https_functional":1,"host":"speedtestac.vtal.net.br.prod.hosts.ooklaserver.net:8080"},
{"url":"http://test.beamtelecom.com.br:8080/speedtest/upload.php","lat":"-9.9740","lon":"-67.8098","distance":0,"name":"Rio Branco","country":"Brazil","cc":"BR","sponsor":"BEAM TELECOM","id":"59710","preferred":0,"isp_id":"223257","https_functional":1,"host":"test.beamtelecom.com.br:8080"},
{"url":"http://velocimetro-rbo.virtua.com.br:8080/speedtest/upload.php","lat":"-9.9754","lon":"-67.8249","distance":0,"name":"Rio Branco","country":"Brazil","cc":"BR","sponsor":"Claro Net Vírtua - RBO","id":"21861","preferred":0,"isp_id":"87729","https_functional":1,"host":"velocimetro-rbo.virtua.com.br.prod.hosts.ooklaserver.net:8080"},
{"url":"http://speedtestsgc.csmtelecom.net.br:8080/speedtest/upload.php","lat":"-0.1308","lon":"-67.0877","distance":0,"name":"São Gabriel da Cachoeira","country":"Brazil","cc":"BR","sponsor":"CSM TELECOM","id":"72045","preferred":0,"isp_id":"0","https_functional":1,"host":"speedtestsgc.csmtelecom.net.br:8080"},
{"url":"http://sof.speedtest.gslnetworks.com:8080/speedtest/upload.php","lat":"42.6951","lon":"23.3250","distance":0,"name":"Sofia","country":"Bulgaria","cc":"BG","sponsor":"GSL Networks","id":"65090","preferred":0,"isp_id":"241570","https_functional":1,"host":"sof.speedtest.gslnetworks.com.prod.hosts.ooklaserver.net:8080"},
{"url":"http://speedtest3.westmancom.com:8080/speedtest/upload.php","lat":"49.8333","lon":"-99.9500","distance":0,"name":"Brandon, MB","country":"Canada","cc":"CA","sponsor":"Westman Communications Group","id":"52510","preferred":0,"isp_id":"0","https_functional":1,"host":"speedtest3.westmancom.com.prod.hosts.ooklaserver.net:8080"},
{"url":"http://speedtest.eidnet.org:8080/speedtest/upload.php","lat":"50.5657","lon":"-111.8978","distance":0,"name":"Brooks, AB","country":"Canada","cc":"CA","sponsor":"EIDNet","id":"28824","preferred":0,"isp_id":"40152","https_functional":1,"host":"speedtest.eidnet.org:8080"},
{"url":"http://calgary.speedtest.telus.com:8080/speedtest/upload.php","lat":"51.0450","lon":"-114.0572","distance":0,"name":"Calgary, AB","country":"Canada","cc":"CA","sponsor":"TELUS","id":"4392","preferred":0,"isp_id":"256720","https_functional":1,"host":"calgary.speedtest.telus.com.prod.hosts.ooklaserver.net:8080"},
{"url":"http://calgary2.speedtest.telus.com:8080/speedtest/upload.php","lat":"51.0486","lon":"-114.0708","distance":0,"name":"Calgary, AB","country":"Canada","cc":"CA","sponsor":"TELUS Mobility","id":"17555","preferred":0,"isp_id":"256720","https_functional":1,"host":"calgary2.speedtest.telus.com.prod.hosts.ooklaserver.net:8080"},
{"url":"http://clgqaspd01.srvr.bell.ca:8080/speedtest/upload.php","lat":"51.0452","lon":"-114.0630","distance":0,"name":"Calgary, AB","country":"Canada","cc":"CA","sponsor":"Bell Mobility","id":"17399","preferred":0,"isp_id":"0","https_functional":1,"host":"clgqaspd01.srvr.bell.ca.prod.hosts.ooklaserver.net:8080"},
{"url":"http://speedtest.cg.shawcable.net:8080/speedtest/upload.php","lat":"51.0450","lon":"-114.0572","distance":0,"name":"Calgary, AB","country":"Canada","cc":"CA","sponsor":"Shaw Communications","id":"4207","preferred":0,"isp_id":"164","https_functional":1,"host":"speedtest.cg.shawcable.net:8080"},
{"url":"http://speedtest.itel.com:8080/upload.php","lat":"51.0447","lon":"-114.0719","distance":0,"name":"Calgary, AB","country":"Canada","cc":"CA","sponsor":"iTel.com (iTel Networks Inc)","id":"28801","preferred":0,"isp_id":"77831","https_functional":1,"host":"speedtest.itel.com:8080"},
{"url":"http://stcalgarywireless.rogers.com:8080/speedtest/upload.php","lat":"51.0450","lon":"-114.0572","distance":0,"name":"Calgary, AB","country":"Canada","cc":"CA","sponsor":"Rogers Wireless","id":"46407","preferred":0,"isp_id":"164","https_functional":1,"host":"stcalgarywireless.rogers.com:8080"},
{"url":"http://yyc-speedtest.xplore.ca:8080/speedtest/upload.php","lat":"51.0450","lon":"-114.0572","distance":0,"name":"Calgary, AB","country":"Canada","cc":"CA","sponsor":"Xplore Inc.","id":"55080","preferred":0,"isp_id":"70988","https_functional":1,"host":"yyc-speedtest.xplore.ca.prod.hosts.ooklaserver.net:8080"},
{"url":"http://speed.mpvnetworks.com:8080/speedtest/upload.php","lat":"42.4048","lon":"-82.1910","distance":0,"name":"Chatham, ON","country":"Canada","cc":"CA","sponsor":"MPVWIFI","id":"47304","preferred":0,"isp_id":"208551","https_functional":1,"host":"speed.mpvnetworks.com.prod.hosts.ooklaserver.net:8080"},
{"url":"http://speedtest-tek.teksavvy.com:8080/speedtest/upload.php","lat":"42.4048","lon":"-82.1910","distance":0,"name":"Chatham, ON","country":"Canada","cc":"CA","sponsor":"Teksavvy Solutions Inc.","id":"47750","preferred":0,"isp_id":"2324","host":"speedtest-tek.teksavvy.com:8080"},
{"url":"http://stchathamwireless.rogers.com:8080/speedtest/upload.php","lat":"42.4048","lon":"-82.1910","distance":0,"name":"Chatham, ON","country":"Canada","cc":"CA","sponsor":"Rogers Wireless","id":"47344","preferred":0,"isp_id":"164","https_functional":1,"host":"stchathamwireless.rogers.com:8080"},
{"url":"http://speedtest.gosfieldtel.ca:8080/speedtest/upload.php","lat":"42.1330","lon":"-82.7500","distance":0,"name":"Cottam, ON","country":"Canada","cc":"CA","sponsor":"Gosfield North Communications","id":"11505","preferred":0,"isp_id":"62744","https_functional":1,"host":"speedtest.gosfieldtel.ca.prod.hosts.ooklaserver.net:8080"},
{"url":"http://sp1.basinbroadband.ca:8080/speedtest/upload.php","lat":"49.5136","lon":"-115.7686","distance":0,"name":"Cranbrook, BC","country":"Canada","cc":"CA","sponsor":"Columbia Basin Broadband Corporation","id":"4686","preferred":0,"isp_id":"97829","https_functional":1,"host":"sp1.basinbroadband.ca.prod.hosts.ooklaserver.net:8080"},
{"url":"http://speedtest.deltacable.com:8080/speedtest/upload.php","lat":"49.0902","lon":"-123.0652","distance":0,"name":"Delta, BC","country":"Canada","cc":"CA","sponsor":"Eastlink","id":"22154","preferred":0,"isp_id":"19734","https_functional":1,"host":"speedtest.deltacable.com.prod.hosts.ooklaserver.net:8080"},
{"url":"http://mobilityooklaedmonton.srvr.bell.ca:8080/speedtest/upload.php","lat":"53.5461","lon":"-113.4938","distance":0,"name":"Edmonton, AB","country":"Canada","cc":"CA","sponsor":"Bell Mobility","id":"15314","preferred":0,"isp_id":"0","https_functional":1,"host":"mobilityooklaedmonton.srvr.bell.ca.prod.hosts.ooklaserver.net:8080"},
{"url":"http://speedtest.ed.shawcable.net:8080/speedtest/upload.php","lat":"53.5472","lon":"-113.5006","distance":0,"name":"Edmonton, AB","country":"Canada","cc":"CA","sponsor":"Shaw Communications","id":"4242","preferred":0,"isp_id":"164","https_functional":1,"host":"speedtest.ed.shawcable.net:8080"},
{"url":"http://speedtest.epl.ca:8080/speedtest/upload.php","lat":"53.5444","lon":"-113.4909","distance":0,"name":"Edmonton, AB","country":"Canada","cc":"CA","sponsor":"EPL","id":"21236","preferred":0,"isp_id":"8278","https_functional":1,"host":"speedtest.epl.ca.prod.hosts.ooklaserver.net:8080"},
{"url":"http://speedtest.switch.ca:8080/speedtest/upload.php","lat":"53.5472","lon":"-113.5006","distance":0,"name":"Edmonton, AB","country":"Canada","cc":"CA","sponsor":"Switch Inc.","id":"15736","preferred":0,"isp_id":"212863","https_functional":1,"host":"speedtest.switch.ca.prod.hosts.ooklaserver.net:8080"},
{"url":"http://speedtest1.cfoc.tech:8080/speedtest/upload.php","lat":"53.5472","lon":"-113.5006","distance":0,"name":"Edmonton, AB","country":"Canada","cc":"CA","sponsor":"Canadian Fiber Optics","id":"60609","preferred":0,"isp_id":"210702","https_functional":1,"host":"speedtest1.cfoc.tech.prod.hosts.ooklaserver.net:8080"},
{"url":"http://stedmontonwireless.rogers.com:8080/speedtest/upload.php","lat":"53.5472","lon":"-113.5006","distance":0,"name":"Edmonton, AB","country":"Canada","cc":"CA","sponsor":"Rogers Wireless","id":"46411","preferred":0,"isp_id":"164","https_functional":1,"host":"stedmontonwireless.rogers.com:8080"},
{"url":"http://wirelinespeedtestwinnipeg01.srvr.bell.ca:8080/speedtest/upload.php","lat":"49.8853","lon":"-97.1291","distance":0,"name":"Fort Rouge, MB","country":"Canada","cc":"CA","sponsor":"Bell MTS","id":"59432","preferred":0,"isp_id":"207577","https_functional":1,"host":"wirelinespeedtestwinnipeg01.srvr.bell.ca.prod.hosts.ooklaserver.net:8080"},
{"url":"http://speedtest.brooketel.coop:8080/speedtest/upload.php","lat":"42.8180","lon":"-81.9825","distance":0,"name":"Inwood, ON","country":"Canada","cc":"CA","sponsor":"Brooke Telecom Co-Operative Inc.","id":"55213","preferred":0,"isp_id":"228980","https_functional":1,"host":"speedtest.brooketel.coop.prod.hosts.ooklaserver.net:8080"},
{"url":"http://kmlpbcnu-speedtest-01.telus.com:8080/speedtest/upload.php","lat":"50.6745","lon":"-120.3273","distance":0,"name":"Kamloops, BC","country":"Canada","cc":"CA","sponsor":"TELUS","id":"14016","preferred":0,"isp_id":"256720","https_functional":1,"host":"kmlpbcnu-speedtest-01.telus.com.prod.hosts.ooklaserver.net:8080"},
{"url":"http://mobilityooklakamloops.srvr.bell.ca:8080/speedtest/upload.php","lat":"50.6745","lon":"-120.3273","distance":0,"name":"Kamloops, BC","country":"Canada","cc":"CA","sponsor":"Bell Mobility","id":"57731","preferred":0,"isp_id":"0","https_functional":1,"host":"mobilityooklakamloops.srvr.bell.ca.prod.hosts.ooklaserver.net:8080"},
{"url":"http://speedtest.ok.shawcable.net:8080/speedtest/upload.php","lat":"49.8988","lon":"-119.4097","distance":0,"name":"Kelowna, BC","country":"Canada","cc":"CA","sponsor":"Shaw Communications","id":"4241","preferred":0,"isp_id":"164","https_functional":1,"host":"speedtest.ok.shawcable.net:8080"},
{"url":"http://speedtest.provisiondata.net:8080/speedtest/upload.php","lat":"49.8988","lon":"-119.4097","distance":0,"name":"Kelowna, BC","country":"Canada","cc":"CA","sponsor":"Provision Data Systems Inc","id":"34825","preferred":0,"isp_id":"106081","https_functional":1,"host":"speedtest.provisiondata.net.prod.hosts.ooklaserver.net:8080"},
{"url":"http://stkelownawireless.rogers.com:8080/speedtest/upload.php","lat":"49.8988","lon":"-119.4097","distance":0,"name":"Kelowna, BC","country":"Canada","cc":"CA","sponsor":"Rogers Wireless","id":"46408","preferred":0,"isp_id":"164","https_functional":1,"host":"stkelownawireless.rogers.com:8080"},
{"url":"http://speedtest.quadro.net:8080/speedtest/upload.php","lat":"43.3236","lon":"-81.3133","distance":0,"name":"Kirkton, ON","country":"Canada","cc":"CA","sponsor":"Quadro Communications","id":"54243","preferred":0,"isp_id":"66304","https_functional":1,"host":"speedtest.quadro.net:8080"},
{"url":"http://speedtest2.valleyfiber.ca:8080/speedtest/upload.php","lat":"49.5025","lon":"-96.8726","distance":0,"name":"Kleefeld, MB","country":"Canada","cc":"CA","sponsor":"Valley Fiber","id":"53537","preferred":0,"isp_id":"160317","https_functional":1,"host":"speedtest2.valleyfiber.ca.prod.hosts.ooklaserver.net:8080"},
{"url":"http://stleamingtonwireless.rogers.com:8080/speedtest/upload.php","lat":"42.0532","lon":"-82.5999","distance":0,"name":"Leamington, ON","country":"Canada","cc":"CA","sponsor":"Rogers Wireless","id":"47350","preferred":0,"isp_id":"164","https_functional":1,"host":"stleamingtonwireless.rogers.com:8080"},
{"url":"http://ldc01-speedtest.whipcord.com:8080/speedtest/upload.php","lat":"49.6956","lon":"-112.8451","distance":0,"name":"Lethbridge, AB","country":"Canada","cc":"CA","sponsor":"Whipcord Edge Data Centres","id":"69635","preferred":0,"isp_id":"112588","https_functional":1,"host":"ldc01-speedtest.whipcord.com.prod.hosts.ooklaserver.net:8080"},
{"url":"http://stlethbridgewireless.rogers.com:8080/speedtest/upload.php","lat":"49.6956","lon":"-112.8451","distance":0,"name":"Lethbridge, AB","country":"Canada","cc":"CA","sponsor":"Rogers Wireless","id":"46414","preferred":0,"isp_id":"164","https_functional":1,"host":"stlethbridgewireless.rogers.com:8080"},
{"url":"http://speedtest-london.start.ca:8080/speedtest/upload.php","lat":"42.9837","lon":"-81.2497","distance":0,"name":"London, ON","country":"Canada","cc":"CA","sponsor":"Start.ca","id":"24930","preferred":0,"isp_id":"16391","https_functional":1,"host":"speedtest-london.start.ca.prod.hosts.ooklaserver.net:8080"},
{"url":"http://speedtest.nftctelecom.net:8080/speedtest/upload.php","lat":"42.9849","lon":"-81.2453","distance":0,"name":"London, ON","country":"Canada","cc":"CA","sponsor":"NFTC Telecom","id":"14068","preferred":0,"isp_id":"106124","https_functional":1,"host":"speedtest.nftctelecom.net.prod.hosts.ooklaserver.net:8080"},
{"url":"http://stlondon.netcrawler.ca:8080/speedtest/upload.php","lat":"42.9849","lon":"-81.2453","distance":0,"name":"London, ON","country":"Canada","cc":"CA","sponsor":"Netcrawler.ca Internet","id":"54253","preferred":0,"isp_id":"226932","https_functional":1,"host":"stlondon.netcrawler.ca.prod.hosts.ooklaserver.net:8080"},
{"url":"http://stlondon.rogers.com:8080/speedtest/upload.php","lat":"42.9849","lon":"-81.2453","distance":0,"name":"London, ON","country":"Canada","cc":"CA","sponsor":"Rogers","id":"46149","preferred":0,"isp_id":"164","https_functional":1,"host":"stlondon.rogers.com:8080"},
{"url":"http://stlondonwireless.rogers.com:8080/speedtest/upload.php","lat":"42.9849","lon":"-81.2453","distance":0,"name":"London, ON","country":"Canada","cc":"CA","sponsor":"Rogers Wireless","id":"46137","preferred":0,"isp_id":"164","https_functional":1,"host":"stlondonwireless.rogers.com:8080"},
{"url":"http://wirelinespeedtestlondon.srvr.bell.ca:8080/speedtest/upload.php","lat":"42.9849","lon":"-81.2453","distance":0,"name":"London, ON","country":"Canada","cc":"CA","sponsor":"Bell Canada","id":"57695","preferred":0,"isp_id":"254596","https_functional":1,"host":"wirelinespeedtestlondon.srvr.bell.ca.prod.hosts.ooklaserver.net:8080"},
{"url":"http://ookla.mtt.as6453.net:8080/speedtest/upload.php","lat":"45.5019","lon":"-73.5674","distance":0,"name":"Montreal, QC","country":"Canada","cc":"CA","sponsor":"Tata Communications","id":"73620","preferred":0,"isp_id":"310556","https_functional":1,"host":"ookla.mtt.as6453.net.prod.hosts.ooklaserver.net:8080"},
{"url":"http://speedtest-mtl.beanfield.com:8080/speedtest/upload.php","lat":"45.5017","lon":"-73.5673","distance":0,"name":"Montreal, QC","country":"Canada","cc":"CA","sponsor":"Beanfield","id":"16045","preferred":0,"isp_id":"4966","https_functional":1,"host":"speedtest-mtl.beanfield.com.prod.hosts.ooklaserver.net:8080"},
{"url":"http://speedtest.cdmsfirst.com:8080/speedtest/upload.php","lat":"45.5017","lon":"-73.5673","distance":0,"name":"Montreal, QC","country":"Canada","cc":"CA","sponsor":"CDMS","id":"63155","preferred":0,"isp_id":"324987","https_functional":1,"host":"speedtest.cdmsfirst.com:8080"},
{"url":"http://speedtest.xcdtelecom.com:8080/speedtest/upload.php","lat":"45.5017","lon":"-73.5673","distance":0,"name":"Montreal, QC","country":"Canada","cc":"CA","sponsor":"XCD Télécom","id":"59219","preferred":0,"isp_id":"204334","https_functional":1,"host":"speedtest.xcdtelecom.com.prod.hosts.ooklaserver.net:8080"},
{"url":"http://stmontreal.netcrawler.ca:8080/speedtest/upload.php","lat":"45.5019","lon":"-73.5674","distance":0,"name":"Montreal, QC","country":"Canada","cc":"CA","sponsor":"Netcrawler.ca Internet","id":"64420","preferred":0,"isp_id":"226932","https_functional":1,"host":"stmontreal.netcrawler.ca.prod.hosts.ooklaserver.net:8080"},
{"url":"http://stnanaimowireless.rogers.com:8080/speedtest/upload.php","lat":"49.1659","lon":"-123.9401","distance":0,"name":"Nanaimo, BC","country":"Canada","cc":"CA","sponsor":"Rogers Wireless","id":"46413","preferred":0,"isp_id":"164","https_functional":1,"host":"stnanaimowireless.rogers.com:8080"},
{"url":"http://speedtest01.o-net.ca:8080/speedtest/upload.php","lat":"51.7920","lon":"-114.1052","distance":0,"name":"Olds, AB","country":"Canada","cc":"CA","sponsor":"O-NET","id":"31362","preferred":0,"isp_id":"99444","host":"speedtest01.o-net.ca:8080"},
{"url":"http://speedtest.pr.citywest.ca:8080/speedtest/upload.php","lat":"54.3122","lon":"-130.3272","distance":0,"name":"Prince Rupert, BC","country":"Canada","cc":"CA","sponsor":"CityWest","id":"577","preferred":0,"isp_id":"4198","https_functional":1,"host":"speedtest.pr.citywest.ca.prod.hosts.ooklaserver.net:8080"},
{"url":"http://streddeerwireless.rogers.com:8080/speedtest/upload.php","lat":"52.2690","lon":"-113.8116","distance":0,"name":"Red Deer, AB","country":"Canada","cc":"CA","sponsor":"Rogers Wireless","id":"46415","preferred":0,"isp_id":"164","https_functional":1,"host":"streddeerwireless.rogers.com:8080"},
{"url":"http://mobilityooklaregina.srvr.bell.ca:8080/speedtest/upload.php","lat":"50.4547","lon":"-104.6067","distance":0,"name":"Regina, SK","country":"Canada","cc":"CA","sponsor":"Bell Mobility","id":"52400","preferred":0,"isp_id":"0","https_functional":1,"host":"mobilityooklaregina.srvr.bell.ca.prod.hosts.ooklaserver.net:8080"},
{"url":"http://speedtest.myaccess.ca:8080/speedtest/upload.php","lat":"50.4547","lon":"-104.6067","distance":0,"name":"Regina, SK","country":"Canada","cc":"CA","sponsor":"Access Communications Ltd.","id":"20283","preferred":0,"isp_id":"42982","https_functional":1,"host":"speedtest.myaccess.ca:8080"},
{"url":"http://speedtest.wrinternet.com:8080/speedtest/upload.php","lat":"50.4547","lon":"-104.6067","distance":0,"name":"Regina, SK","country":"Canada","cc":"CA","sponsor":"Wood River Internet","id":"70571","preferred":0,"isp_id":"292846","https_functional":1,"host":"speedtest.wrinternet.com.prod.hosts.ooklaserver.net:8080"},
{"url":"http://speedtesthost.sasknet.sk.ca:8080/speedtest/upload.php","lat":"50.4547","lon":"-104.6067","distance":0,"name":"Regina, SK","country":"Canada","cc":"CA","sponsor":"SaskTel","id":"4198","preferred":0,"isp_id":"431","https_functional":1,"host":"speedtesthost.sasknet.sk.ca.prod.hosts.ooklaserver.net:8080"},
{"url":"http://speedtest2.hurontel.on.ca:8080/speedtest/upload.php","lat":"44.0688","lon":"-81.5914","distance":0,"name":"Ripley, ON","country":"Canada","cc":"CA","sponsor":"Huron Telecommuncations Co-operative Ltd","id":"55524","preferred":0,"isp_id":"37709","https_functional":1,"host":"speedtest2.hurontel.on.ca.prod.hosts.ooklaserver.net:8080"},
{"url":"http://speedtest.hytekcomputers.com:8080/speedtest/upload.php","lat":"52.3753","lon":"-114.9217","distance":0,"name":"Rocky Mountain House, AB","country":"Canada","cc":"CA","sponsor":"Hy-Tek Computers","id":"8092","preferred":0,"isp_id":"116281","https_functional":1,"host":"speedtest.hytekcomputers.com.prod.hosts.ooklaserver.net:8080"},
{"url":"http://speedtest.45networks.ca:8080/speedtest/upload.php","lat":"50.6683","lon":"-100.8109","distance":0,"name":"Rossburn, MB","country":"Canada","cc":"CA","sponsor":"45 Networks Inc.","id":"40940","preferred":0,"isp_id":"282731","https_functional":1,"host":"speedtest.45networks.ca.prod.hosts.ooklaserver.net:8080"},
{"url":"http://stsarniawireless.rogers.com:8080/speedtest/upload.php","lat":"42.9745","lon":"-82.4066","distance":0,"name":"Sarnia, ON","country":"Canada","cc":"CA","sponsor":"Rogers Wireless","id":"46128","preferred":0,"isp_id":"164","https_functional":1,"host":"stsarniawireless.rogers.com:8080"},
{"url":"http://speedtest.blacksun.ca:8080/speedtest/upload.php","lat":"52.1397","lon":"-106.6861","distance":0,"name":"Saskatoon, SK","country":"Canada","cc":"CA","sponsor":"MSP Corp.","id":"1502","preferred":0,"isp_id":"112582","https_functional":1,"host":"speedtest.blacksun.ca.prod.hosts.ooklaserver.net:8080"},
{"url":"http://speedtest.redbirdcommunications.ca:8080/speedtest/upload.php","lat":"52.1397","lon":"-106.6861","distance":0,"name":"Saskatoon, SK","country":"Canada","cc":"CA","sponsor":"FlexNetworks","id":"59276","preferred":0,"isp_id":"163636","https_functional":1,"host":"speedtest.redbirdcommunications.ca.prod.hosts.ooklaserver.net:8080"},
{"url":"http://speedtest3.sasknet.sk.ca:8080/speedtest/upload.php","lat":"52.1579","lon":"-106.6702","distance":0,"name":"Saskatoon, SK","country":"Canada","cc":"CA","sponsor":"SaskTel","id":"35521","preferred":0,"isp_id":"431","https_functional":1,"host":"speedtest3.sasknet.sk.ca.prod.hosts.ooklaserver.net:8080"},
{"url":"http://stsaultstemariewireless.rogers.com:8080/speedtest/upload.php","lat":"46.5136","lon":"-84.3358","distance":0,"name":"Sault Ste. Marie, ON","country":"Canada","cc":"CA","sponsor":"Rogers Wireless","id":"47340","preferred":0,"isp_id":"164","https_functional":1,"host":"stsaultstemariewireless.rogers.com:8080"},
{"url":"http://ststthomas.rogers.com:8080/speedtest/upload.php","lat":"42.7777","lon":"-81.1827","distance":0,"name":"St. Thomas, ON","country":"Canada","cc":"CA","sponsor":"Rogers","id":"47542","preferred":0,"isp_id":"164","https_functional":1,"host":"ststthomas.rogers.com:8080"},
{"url":"http://ststthomaswireless.rogers.com:8080/speedtest/upload.php","lat":"42.7777","lon":"-81.1827","distance":0,"name":"St. Thomas, ON","country":"Canada","cc":"CA","sponsor":"Rogers Wireless","id":"47346","preferred":0,"isp_id":"164","https_functional":1,"host":"ststthomaswireless.rogers.com:8080"},
{"url":"http://wirelinespeedteststthomas.srvr.bell.ca:8080/speedtest/upload.php","lat":"42.7777","lon":"-81.1827","distance":0,"name":"St. Thomas, ON","country":"Canada","cc":"CA","sponsor":"Bell Canada","id":"43553","preferred":0,"isp_id":"0","https_functional":1,"host":"wirelinespeedteststthomas.srvr.bell.ca.prod.hosts.ooklaserver.net:8080"},
{"url":"http://speed1.myascend.ca:8080/speedtest/upload.php","lat":"49.5303","lon":"-96.6912","distance":0,"name":"Steinbach, MB","country":"Canada","cc":"CA","sponsor":"Ascend Communications","id":"67432","preferred":0,"isp_id":"17335","https_functional":1,"host":"speed1.myascend.ca.prod.hosts.ooklaserver.net:8080"},
{"url":"http://mobilityooklasurrey.srvr.bell.ca:8080/speedtest/upload.php","lat":"49.1913","lon":"-122.8490","distance":0,"name":"Surrey, BC","country":"Canada","cc":"CA","sponsor":"Bell Mobility","id":"25627","preferred":0,"isp_id":"0","https_functional":1,"host":"mobilityooklasurrey.srvr.bell.ca.prod.hosts.ooklaserver.net:8080"},
{"url":"http://stsurreywireless.rogers.com:8080/speedtest/upload.php","lat":"49.1913","lon":"-122.8490","distance":0,"name":"Surrey, BC","country":"Canada","cc":"CA","sponsor":"Rogers Wireless","id":"46410","preferred":0,"isp_id":"164","https_functional":1,"host":"stsurreywireless.rogers.com:8080"},
{"url":"http://speedtest.seaside.ns.ca:8080/speedtest/upload.php","lat":"46.1378","lon":"-60.1829","distance":0,"name":"Sydney, NS","country":"Canada","cc":"CA","sponsor":"Seaside Communications","id":"1245","preferred":0,"isp_id":"29067","https_functional":1,"host":"speedtest.seaside.ns.ca.prod.hosts.ooklaserver.net:8080"},
{"url":"http://wirelinespeedtestsydney.srvr.bell.ca:8080/speedtest/upload.php","lat":"46.1378","lon":"-60.1829","distance":0,"name":"Sydney, NS","country":"Canada","cc":"CA","sponsor":"Bell Canada","id":"55031","preferred":0,"isp_id":"254596","https_functional":1,"host":"wirelinespeedtestsydney.srvr.bell.ca.prod.hosts.ooklaserver.net:8080"},
{"url":"http://wirelinespeedtesttecumseh.srvr.bell.ca:8080/speedtest/upload.php","lat":"42.3118","lon":"-82.8858","distance":0,"name":"Tecumseh, ON","country":"Canada","cc":"CA","sponsor":"Bell Canada","id":"46799","preferred":0,"isp_id":"0","https_functional":1,"host":"wirelinespeedtesttecumseh.srvr.bell.ca.prod.hosts.ooklaserver.net:8080"},
{"url":"http://speedtest.te.citywest.ca:8080/speedtest/upload.php","lat":"54.5165","lon":"-128.5997","distance":0,"name":"Terrace, BC","country":"Canada","cc":"CA","sponsor":"CityWest","id":"4443","preferred":0,"isp_id":"4198","https_functional":1,"host":"speedtest.te.citywest.ca.prod.hosts.ooklaserver.net:8080"},
{"url":"http://mobilityooklathunderbay.srvr.bell.ca:8080/speedtest/upload.php","lat":"48.3809","lon":"-89.2477","distance":0,"name":"Thunder Bay, ON","country":"Canada","cc":"CA","sponsor":"Bell Mobility","id":"3905","preferred":0,"isp_id":"0","https_functional":1,"host":"mobilityooklathunderbay.srvr.bell.ca.prod.hosts.ooklaserver.net:8080"},
{"url":"http://st1.tbaytel.net:8080/speedtest/upload.php","lat":"48.3809","lon":"-89.2477","distance":0,"name":"Thunder Bay, ON","country":"Canada","cc":"CA","sponsor":"Tbaytel","id":"10300","preferred":0,"isp_id":"24255","https_functional":1,"host":"st1.tbaytel.net.prod.hosts.ooklaserver.net:8080"},
{"url":"http://stthunderbaywireless.rogers.com:8080/speedtest/upload.php","lat":"48.3809","lon":"-89.2477","distance":0,"name":"Thunder Bay, ON","country":"Canada","cc":"CA","sponsor":"Rogers Wireless","id":"47331","preferred":0,"isp_id":"164","https_functional":1,"host":"stthunderbaywireless.rogers.com:8080"},
{"url":"http://east-speedtest.frontiernetworks.ca:8080/speedtest/upload.php","lat":"43.6481","lon":"-79.4042","distance":0,"name":"Toronto, ON","country":"Canada","cc":"CA","sponsor":"Frontier Networks Inc","id":"13238","preferred":0,"isp_id":"47813","https_functional":1,"host":"east-speedtest.frontiernetworks.ca.prod.hosts.ooklaserver.net:8080"},
{"url":"http://falcon.its.utoronto.ca:8080/speedtest/upload.php","lat":"43.6481","lon":"-79.4042","distance":0,"name":"Toronto, ON","country":"Canada","cc":"CA","sponsor":"University of Toronto","id":"22138","preferred":0,"isp_id":"680","https_functional":1,"host":"falcon.its.utoronto.ca:8080"},
{"url":"http://lg-tor.fdcservers.net:8080/speedtest/upload.php","lat":"43.6481","lon":"-79.4042","distance":0,"name":"Toronto, ON","country":"Canada","cc":"CA","sponsor":"fdcservers.net","id":"9911","preferred":0,"isp_id":"27716","host":"lg-tor.fdcservers.net:8080"},
{"url":"http://spdtst.xenyth.net:8080/speedtest/upload.php","lat":"43.6481","lon":"-79.4042","distance":0,"name":"Toronto, ON","country":"Canada","cc":"CA","sponsor":"GoCodeIT Inc","id":"38242","preferred":0,"isp_id":"199478","https_functional":1,"host":"spdtst.xenyth.net.prod.hosts.ooklaserver.net:8080"},
{"url":"http://speed.toronto.telmax.ca:8080/speedtest/upload.php","lat":"43.6481","lon":"-79.4042","distance":0,"name":"Toronto, ON","country":"Canada","cc":"CA","sponsor":"telMAX","id":"74035","preferred":0,"isp_id":"174443","https_functional":1,"host":"speed.toronto.telmax.ca.prod.hosts.ooklaserver.net:8080"},
{"url":"http://speedtest-engine.primus.ca/speedtest/upload.php","lat":"43.6487","lon":"-79.3854","distance":0,"name":"Toronto, ON","country":"Canada","cc":"CA","sponsor":"Primus","id":"15038","preferred":0,"isp_id":"861","https_functional":1,"host":"speedtest-engine.primus.ca.prod.hosts.ooklaserver.net:8080"},
{"url":"http://speedtest-tor.beanfield.com:8080/speedtest/upload.php","lat":"43.6481","lon":"-79.4042","distance":0,"name":"Toronto, ON","country":"Canada","cc":"CA","sponsor":"Beanfield","id":"64882","preferred":0,"isp_id":"4966","https_functional":1,"host":"speedtest-tor.beanfield.com.prod.hosts.ooklaserver.net:8080"},
{"url":"http://speedtest.ca-tr.kamatera.com:8080/speedtest/upload.php","lat":"43.6481","lon":"-79.4042","distance":0,"name":"Toronto, ON","country":"Canada","cc":"CA","sponsor":"KamaTera, Inc.","id":"69754","preferred":0,"isp_id":"177546","https_functional":1,"host":"speedtest.ca-tr.kamatera.com.prod.hosts.ooklaserver.net:8080"},
{"url":"http://speedtest.netcrawler.ca:8080/speedtest/upload.php","lat":"43.6481","lon":"-79.4042","distance":0,"name":"Toronto, ON","country":"Canada","cc":"CA","sponsor":"Netcrawler.ca Internet","id":"46580","preferred":0,"isp_id":"226932","https_functional":1,"host":"speedtest.netcrawler.ca.prod.hosts.ooklaserver.net:8080"},
{"url":"http://speedtest.nexicom.net:8080/speedtest/upload.php","lat":"43.6481","lon":"-79.4042","distance":0,"name":"Toronto, ON","country":"Canada","cc":"CA","sponsor":"Nexicom Inc.","id":"826","preferred":0,"isp_id":"768","https_functional":1,"host":"speedtest.nexicom.net.prod.hosts.ooklaserver.net:8080"},
{"url":"http://speedtest1.innsys.ca:8080/speedtest/upload.php","lat":"43.6481","lon":"-79.4042","distance":0,"name":"Toronto, ON","country":"Canada","cc":"CA","sponsor":"InnSys Inc","id":"50317","preferred":0,"isp_id":"65417","https_functional":1,"host":"speedtest1.innsys.ca.prod.hosts.ooklaserver.net:8080"},
{"url":"http://speedtest1.xbase.com:8080/speedtest/upload.php","lat":"43.6481","lon":"-79.4042","distance":0,"name":"Toronto, ON","country":"Canada","cc":"CA","sponsor":"XBASE Technologies","id":"59322","preferred":0,"isp_id":"478","https_functional":1,"host":"speedtest1.xbase.com.prod.hosts.ooklaserver.net:8080"},
{"url":"http://speedtest2-tor.teksavvy.com:8080/speedtest/upload.php","lat":"43.6532","lon":"-79.3832","distance":0,"name":"Toronto, ON","country":"Canada","cc":"CA","sponsor":"Teksavvy Solutions Inc","id":"32632","preferred":0,"isp_id":"2324","https_functional":1,"host":"speedtest2-tor.teksavvy.com.prod.hosts.ooklaserver.net:8080"},
{"url":"http://speedtester.comwave.net:8080/speedtest/upload.php","lat":"43.6481","lon":"-79.4042","distance":0,"name":"Toronto, ON","country":"Canada","cc":"CA","sponsor":"Comwave Networks Inc","id":"31127","preferred":0,"isp_id":"81764","https_functional":1,"host":"speedtester.comwave.net.prod.hosts.ooklaserver.net:8080"},
{"url":"http://sttoronto.rogers.com:8080/speedtest/upload.php","lat":"43.6481","lon":"-79.4042","distance":0,"name":"Toronto, ON","country":"Canada","cc":"CA","sponsor":"Rogers","id":"46143","preferred":0,"isp_id":"164","https_functional":1,"host":"sttoronto.rogers.com:8080"},
{"url":"http://sttorontowireless.rogers.com:8080/speedtest/upload.php","lat":"43.6481","lon":"-79.4042","distance":0,"name":"Toronto, ON","country":"Canada","cc":"CA","sponsor":"Rogers Wireless","id":"46759","preferred":0,"isp_id":"164","https_functional":1,"host":"sttorontowireless.rogers.com:8080"},
{"url":"http:// t4y-toronto-ca-osts1.ser.tek4you.ca:8080/speedtest/upload.php","lat":"43.6481","lon":"-79.4042","distance":0,"name":"Toronto, ON","country":"Canada","cc":"CA","sponsor":"Tek4You Computer Repair & IT Services","id":"54410","preferred":0,"isp_id":"274949","https_functional":1,"host":"t4y-toronto-ca-osts1.ser.tek4you.ca.prod.hosts.ooklaserver.net:8080"},
{"url":"http://tdc01-speedtest.whipcord.com:8080/speedtest/upload.php","lat":"43.6481","lon":"-79.4042","distance":0,"name":"Toronto, ON","country":"Canada","cc":"CA","sponsor":"Whipcord Edge Data Centres","id":"69636","preferred":0,"isp_id":"112588","https_functional":1,"host":"tdc01-speedtest.whipcord.com.prod.hosts.ooklaserver.net:8080"},
{"url":"http://tor-speedtest.net.sangoma.net:8080/speedtest/upload.php","lat":"43.6481","lon":"-79.4042","distance":0,"name":"Toronto, ON","country":"Canada","cc":"CA","sponsor":"Sangoma","id":"63994","preferred":0,"isp_id":"289410","https_functional":1,"host":"tor-speedtest.net.sangoma.net.prod.hosts.ooklaserver.net:8080"},
{"url":"http://tor11speedtest01.srvr.bell.ca:8080/speedtest/upload.php","lat":"43.6481","lon":"-79.4042","distance":0,"name":"Toronto, ON","country":"Canada","cc":"CA","sponsor":"Bell Mobility","id":"16753","preferred":0,"isp_id":"0","https_functional":1,"host":"tor11speedtest01.srvr.bell.ca.prod.hosts.ooklaserver.net:8080"},
{"url":"http://toronto.speedtest.telus.com:8080/speedtest/upload.php","lat":"43.6481","lon":"-79.4042","distance":0,"name":"Toronto, ON","country":"Canada","cc":"CA","sponsor":"TELUS","id":"3575","preferred":0,"isp_id":"256720","https_functional":1,"host":"toronto.speedtest.telus.com.prod.hosts.ooklaserver.net:8080"},
{"url":"http://toronto2.speedtest.telus.com:8080/speedtest/upload.php","lat":"43.6481","lon":"-79.4042","distance":0,"name":"Toronto, ON","country":"Canada","cc":"CA","sponsor":"TELUS Mobility","id":"24698","preferred":0,"isp_id":"256720","https_functional":1,"host":"toronto2.speedtest.telus.com.prod.hosts.ooklaserver.net:8080"},
{"url":"http://trtspeedtest.altimatel.com:8080/speedtest/upload.php","lat":"43.6481","lon":"-79.4042","distance":0,"name":"Toronto, ON","country":"Canada","cc":"CA","sponsor":"Altima Telecom","id":"63649","preferred":0,"isp_id":"72038","https_functional":1,"host":"trtspeedtest.altimatel.com.prod.hosts.ooklaserver.net:8080"},
{"url":"http://wirelinespeedtesttoronto.srvr.bell.ca:8080/speedtest/upload.php","lat":"43.6481","lon":"-79.4042","distance":0,"name":"Toronto, ON","country":"Canada","cc":"CA","sponsor":"Bell Canada","id":"53393","preferred":0,"isp_id":"0","https_functional":1,"host":"wirelinespeedtesttoronto.srvr.bell.ca.prod.hosts.ooklaserver.net:8080"},
{"url":"http://yyz-speedtest.xplore.ca:8080/speedtest/upload.php","lat":"43.6481","lon":"-79.4042","distance":0,"name":"Toronto, ON","country":"Canada","cc":"CA","sponsor":"Xplore Inc","id":"53159","preferred":0,"isp_id":"70988","https_functional":1,"host":"yyz-speedtest.xplore.ca.prod.hosts.ooklaserver.net:8080"},
{"url":"http://sp3.basinbroadband.ca:8080/speedtest/upload.php","lat":"49.0950","lon":"-117.7100","distance":0,"name":"Trail, BC","country":"Canada","cc":"CA","sponsor":"Columbia Basin Broadband Corp.","id":"5200","preferred":0,"isp_id":"97829","https_functional":1,"host":"sp3.basinbroadband.ca.prod.hosts.ooklaserver.net:8080"},
{"url":"http://speedtest-6.aebc.com:8080/speedtest/upload.php","lat":"49.2505","lon":"-123.1119","distance":0,"name":"Vancouver, BC","country":"Canada","cc":"CA","sponsor":"AEBC Internet","id":"41509","preferred":0,"isp_id":"21032","https_functional":1,"host":"speedtest-6.aebc.com.prod.hosts.ooklaserver.net:8080"},
{"url":"http://speedtest-van.beanfield.com:8080/speedtest/upload.php","lat":"49.2505","lon":"-123.1119","distance":0,"name":"Vancouver, BC","country":"Canada","cc":"CA","sponsor":"Beanfield","id":"67411","preferred":0,"isp_id":"4966","https_functional":1,"host":"speedtest-van.beanfield.com.prod.hosts.ooklaserver.net:8080"},
{"url":"http://speedtest.skywaywest.net:8080/speedtest/upload.php","lat":"49.2505","lon":"-123.1119","distance":0,"name":"Vancouver, BC","country":"Canada","cc":"CA","sponsor":"Skyway West Business Internet Services","id":"3318","preferred":0,"isp_id":"54607","https_functional":1,"host":"speedtest.skywaywest.net.prod.hosts.ooklaserver.net:8080"},
{"url":"http://speedtest.ubc.ca:8080/speedtest/upload.php","lat":"49.2505","lon":"-123.1119","distance":0,"name":"Vancouver, BC","country":"Canada","cc":"CA","sponsor":"The University of British Columbia","id":"19703","preferred":0,"isp_id":"3334","https_functional":1,"host":"speedtest.ubc.ca.prod.hosts.ooklaserver.net:8080"},
{"url":"http://speedtest.vc.shawcable.net:8080/speedtest/upload.php","lat":"49.2505","lon":"-123.1119","distance":0,"name":"Vancouver, BC","country":"Canada","cc":"CA","sponsor":"Shaw Communications","id":"4243","preferred":0,"isp_id":"164","https_functional":1,"host":"speedtest.vc.shawcable.net:8080"},
{"url":"http://stvancouverwireless.rogers.com:8080/speedtest/upload.php","lat":"49.2505","lon":"-123.1119","distance":0,"name":"Vancouver, BC","country":"Canada","cc":"CA","sponsor":"Rogers Wireless","id":"46406","preferred":0,"isp_id":"164","https_functional":1,"host":"stvancouverwireless.rogers.com:8080"},
{"url":"http://vancnspd01.srvr.bell.ca:8080/speedtest/upload.php","lat":"49.2505","lon":"-123.1119","distance":0,"name":"Vancouver, BC","country":"Canada","cc":"CA","sponsor":"Bell Mobility","id":"17402","preferred":0,"isp_id":"0","https_functional":1,"host":"vancnspd01.srvr.bell.ca.prod.hosts.ooklaserver.net:8080"},
{"url":"http://vancouver.speedtest.telus.com:8080/speedtest/upload.php","lat":"49.2505","lon":"-123.1119","distance":0,"name":"Vancouver, BC","country":"Canada","cc":"CA","sponsor":"TELUS","id":"3049","preferred":0,"isp_id":"256720","https_functional":1,"host":"vancouver.speedtest.telus.com.prod.hosts.ooklaserver.net:8080"},
{"url":"http://vancouver2.speedtest.telus.com:8080/speedtest/upload.php","lat":"49.2505","lon":"-123.1119","distance":0,"name":"Vancouver, BC","country":"Canada","cc":"CA","sponsor":"TELUS Mobility","id":"16781","preferred":0,"isp_id":"256720","https_functional":1,"host":"vancouver2.speedtest.telus.com.prod.hosts.ooklaserver.net:8080"},
{"url":"http://west-speedtest.frontiernetworks.ca:8080/speedtest/upload.php","lat":"49.2505","lon":"-123.1119","distance":0,"name":"Vancouver, BC","country":"Canada","cc":"CA","sponsor":"Frontier Networks Inc","id":"17168","preferred":0,"isp_id":"47813","https_functional":1,"host":"west-speedtest.frontiernetworks.ca:8080"},
{"url":"http://hv1.juce.ca:8080/speedtest/upload.php","lat":"48.4222","lon":"-123.3657","distance":0,"name":"Victoria, BC","country":"Canada","cc":"CA","sponsor":"JUCE Communications","id":"8008","preferred":0,"isp_id":"103614","https_functional":1,"host":"hv1.juce.ca.prod.hosts.ooklaserver.net:8080"},
{"url":"http://speedtest.gv.shawcable.net:8080/speedtest/upload.php","lat":"48.4222","lon":"-123.3657","distance":0,"name":"Victoria, BC","country":"Canada","cc":"CA","sponsor":"Shaw Communications","id":"4240","preferred":0,"isp_id":"164","https_functional":1,"host":"speedtest.gv.shawcable.net:8080"},
{"url":"http://stvictoriawireless.rogers.com:8080/speedtest/upload.php","lat":"48.4222","lon":"-123.3657","distance":0,"name":"Victoria, BC","country":"Canada","cc":"CA","sponsor":"Rogers Wireless","id":"46412","preferred":0,"isp_id":"164","https_functional":1,"host":"stvictoriawireless.rogers.com:8080"},
{"url":"http://speedtest.rfnow.net:8080/speedtest/upload.php","lat":"49.8572","lon":"-100.9220","distance":0,"name":"Virden, MB","country":"Canada","cc":"CA","sponsor":"RFnow","id":"61714","preferred":0,"isp_id":"36992","https_functional":1,"host":"speedtest.rfnow.net.prod.hosts.ooklaserver.net:8080"},