[
{"url":"https://ade1.speedtest.telstra.net:8080/speedtest/upload.php","lat":"-34.9290","lon":"138.6010","distance":10412,"name":"Adelaide","country":"Australia","cc":"AU","sponsor":"Telstra","id":"12495","preferred":0,"https_functional":1,"host":"ade1.speedtest.telstra.net:8080"},
{"url":"http://ookla.kernwifi.com.au:8080/speedtest/upload.php","lat":"-34.9290","lon":"138.6010","distance":10412,"name":"Adelaide","country":"Australia","cc":"AU","sponsor":"KernWi-Fi Pty Ltd","id":"16907","preferred":0,"https_functional":1,"host":"ookla.kernwifi.com.au.prod.hosts.ooklaserver.net:8080"},
{"url":"https://sa-prka-st1.speedtest.aarnet.net.au:8080/speedtest/upload.php","lat":"-34.9290","lon":"138.6010","distance":10412,"name":"Adelaide","country":"Australia","cc":"AU","sponsor":"AARNet","id":"62436","preferred":0,"https_functional":1,"host":"sa-prka-st1.speedtest.aarnet.net.au:8080"},
{"url":"https://sa.speedtest.exetel.com.au:8080/speedtest/upload.php","lat":"-34.9290","lon":"138.6010","distance":10412,"name":"Adelaide","country":"Australia","cc":"AU","sponsor":"Exetel","id":"13277","preferred":0,"https_functional":1,"host":"sa.speedtest.exetel.com.au:8080"},
{"url":"http://sa.speedtest.leaptel.com.au:8080/speedtest/upload.php","lat":"-34.9290","lon":"138.6010","distance":10412,"name":"Adelaide","country":"Australia","cc":"AU","sponsor":"Leaptel","id":"38294","preferred":0,"https_functional":1,"host":"sa.speedtest.leaptel.com.au.prod.hosts.ooklaserver.net:8080"},
{"url":"http://spd01-adl.au.superloop.com:8080/speedtest/upload.php","lat":"-34.9290","lon":"138.6010","distance":10412,"name":"Adelaide","country":"Australia","cc":"AU","sponsor":"Superloop Australia Pty Ltd","id":"55298","preferred":0,"https_functional":1,"host":"spd01-adl.au.superloop.com.prod.hosts.ooklaserver.net:8080"},
{"url":"https://speedtest-adl.optusnet.com.au:8080/speedtest/upload.php","lat":"-34.9290","lon":"138.6010","distance":10412,"name":"Adelaide","country":"Australia","cc":"AU","sponsor":"Optus","id":"30936","preferred":0,"host":"speedtest-adl.optusnet.com.au:8080"},
{"url":"http://speedtest-eqxae1.fsg-hosting.com:8080/speedtest/upload.php","lat":"-34.9290","lon":"138.6010","distance":10412,"name":"Adelaide","country":"Australia","cc":"AU","sponsor":"Field Solutions Group","id":"63230","preferred":0,"https_functional":1,"host":"speedtest-eqxae1.fsg-hosting.com.prod.hosts.ooklaserver.net:8080"},
{"url":"https://speedtest-bla.optusnet.com.au:8080/speedtest/upload.php","lat":"-33.7447","lon":"150.8842","distance":9725,"name":"Blacktown","country":"Australia","cc":"AU","sponsor":"Optus","id":"8777","preferred":0,"host":"speedtest-bla.optusnet.com.au:8080"},
{"url":"http://b2.speedtest.gslnetworks.com:8080/speedtest/upload.php","lat":"-27.4728","lon":"153.0278","distance":9425,"name":"Brisbane","country":"Australia","cc":"AU","sponsor":"GSL Networks","id":"48346","preferred":0,"https_functional":1,"host":"b2.speedtest.gslnetworks.com.prod.hosts.ooklaserver.net:8080"},
{"url":"http://brindb2speed1.wireline.com.au:8080/speedtest/upload.php","lat":"-27.4728","lon":"153.0278","distance":9425,"name":"Brisbane","country":"Australia","cc":"AU","sponsor":"Wireline Group","id":"16514","preferred":0,"https_functional":1,"host":"brindb2speed1.wireline.com.au.prod.hosts.ooklaserver.net:8080"},
{"url":"https://brs1.speedtest.telstra.net:8080/speedtest/upload.php","lat":"-27.4728","lon":"153.0278","distance":9425,"name":"Brisbane","country":"Australia","cc":"AU","sponsor":"Telstra","id":"12493","preferred":0,"https_functional":1,"host":"brs1.speedtest.telstra.net:8080"},
{"url":"http://qld-gdpt-st1.speedtest.aarnet.net.au:8080/speedtest/upload.php","lat":"-27.4728","lon":"153.0278","distance":9425,"name":"Brisbane","country":"Australia","cc":"AU","sponsor":"AARNet","id":"6119","preferred":0,"https_functional":1,"host":"qld-gdpt-st1.speedtest.aarnet.net.au:8080"},
{"url":"https://qld.speedtest.exetel.com.au:8080/speedtest/upload.php","lat":"-27.4698","lon":"153.0251","distance":9425,"name":"Brisbane","country":"Australia","cc":"AU","sponsor":"Exetel","id":"13276","preferred":0,"https_functional":1,"host":"qld.speedtest.exetel.com.au:8080"},
{"url":"http://qld.speedtest.leaptel.com.au:8080/speedtest/upload.php","lat":"-27.4728","lon":"153.0278","distance":9425,"name":"Brisbane","country":"Australia","cc":"AU","sponsor":"Leaptel","id":"32880","preferred":0,"https_functional":1,"host":"qld.speedtest.leaptel.com.au.prod.hosts.ooklaserver.net:8080"},
{"url":"http://spd01-bne.au.superloop.com:8080/speedtest/upload.php","lat":"-27.4728","lon":"153.0278","distance":9425,"name":"Brisbane","country":"Australia","cc":"AU","sponsor":"Superloop Australia Pty Ltd","id":"54994","preferred":0,"https_functional":1,"host":"spd01-bne.au.superloop.com.prod.hosts.ooklaserver.net:8080"},
{"url":"http://speed.bne.aussiebroadband.com.au:8080/speedtest/upload.php","lat":"-27.4698","lon":"153.0251","distance":9425,"name":"Brisbane","country":"Australia","cc":"AU","sponsor":"Aussie Broadband","id":"15134","preferred":0,"https_functional":1,"host":"speed.bne.aussiebroadband.com.au.prod.hosts.ooklaserver.net:8080"},
{"url":"http://speedtest-bne-dn1.empower.net.au:8080/speedtest/upload.php","lat":"-27.4728","lon":"153.0278","distance":9425,"name":"Brisbane","country":"Australia","cc":"AU","sponsor":"blueAPACHE","id":"39589","preferred":0,"https_functional":1,"host":"speedtest-bne-dn1.empower.net.au.prod.hosts.ooklaserver.net:8080"},
{"url":"http://speedtest-bne.vocus.net:8080/speedtest/upload.php","lat":"-27.4728","lon":"153.0278","distance":9425,"name":"Brisbane","country":"Australia","cc":"AU","sponsor":"Vocus Communications","id":"18248","preferred":0,"https_functional":1,"host":"speedtest-bne.vocus.net.prod.hosts.ooklaserver.net:8080"},
{"url":"http://speedtest-bri.optusnet.com.au:8080/speedtest/upload.php","lat":"-27.4728","lon":"153.0278","distance":9425,"name":"Brisbane","country":"Australia","cc":"AU","sponsor":"Optus","id":"1594","preferred":0,"host":"speedtest-bri.optusnet.com.au:8080"},
{"url":"http://speedtest-brisbane.macquarietelecom.com:8080/speedtest/upload.php","lat":"-27.4728","lon":"153.0278","distance":9425,"name":"Brisbane","country":"Australia","cc":"AU","sponsor":"Macquarie Telecom","id":"45056","preferred":0,"https_functional":1,"host":"speedtest-brisbane.macquarietelecom.com.prod.hosts.ooklaserver.net:8080"},
{"url":"http://speedtest-nxtb2.fsg-hosting.com:8080/speedtest/upload.php","lat":"-27.4728","lon":"153.0278","distance":9425,"name":"Brisbane","country":"Australia","cc":"AU","sponsor":"Field Solutions Group","id":"62762","preferred":0,"https_functional":1,"host":"speedtest-nxtb2.fsg-hosting.com.prod.hosts.ooklaserver.net:8080"},
{"url":"http://speedtest.apnic.net:8080/speedtest/upload.php","lat":"-27.4728","lon":"153.0278","distance":9425,"name":"Brisbane","country":"Australia","cc":"AU","sponsor":"APNIC Pty Ltd","id":"18473","preferred":0,"https_functional":1,"host":"speedtest.apnic.net.prod.hosts.ooklaserver.net:8080"},
{"url":"http://speedtest.b2.mhn.cloud:8080/speedtest/upload.php","lat":"-27.4728","lon":"153.0278","distance":9425,"name":"Brisbane","country":"Australia","cc":"AU","sponsor":"Hosted Network","id":"60952","preferred":0,"https_functional":1,"host":"speedtest.b2.mhn.cloud.prod.hosts.ooklaserver.net:8080"},
{"url":"http://speedtest.bri01.launtel.net.au:8080/speedtest/upload.php","lat":"-27.4728","lon":"153.0278","distance":9425,"name":"Brisbane","country":"Australia","cc":"AU","sponsor":"Launtel","id":"64079","preferred":0,"https_functional":1,"host":"speedtest.bri01.launtel.net.au.prod.hosts.ooklaserver.net:8080"},
{"url":"http://speedtest.capti.com.au:8080/speedtest/upload.php","lat":"-27.4698","lon":"153.0251","distance":9425,"name":"Brisbane","country":"Australia","cc":"AU","sponsor":"Capti","id":"46575","preferred":0,"https_functional":1,"host":"speedtest.capti.com.au.prod.hosts.ooklaserver.net:8080"},
{"url":"http://speedtest.qld.edgeix.net.au:8080/speedtest/upload.php","lat":"-27.4728","lon":"153.0278","distance":9425,"name":"Brisbane","country":"Australia","cc":"AU","sponsor":"EdgeIX","id":"60977","preferred":0,"https_functional":1,"host":"speedtest.qld.edgeix.net.au.prod.hosts.ooklaserver.net:8080"},
{"url":"http://speedtest1.gigafy.com.au:8080/speedtest/upload.php","lat":"-27.4728","lon":"153.0278","distance":9425,"name":"Brisbane","country":"Australia","cc":"AU","sponsor":"Gigafy","id":"35757","preferred":0,"host":"speedtest1.gigafy.com.au:8080"},
{"url":"http://qld-speedtest.spirit.com.au:8080/speedtest/upload.php","lat":"-27.4698","lon":"153.0251","distance":9425,"name":"Brisbane City","country":"Australia","cc":"AU","sponsor":"XYZ Telecom","id":"31403","preferred":0,"host":"qld-speedtest.spirit.com.au:8080"},
{"url":"http://act-dksn-st1.speedtest.aarnet.net.au:8080/speedtest/upload.php","lat":"-35.3075","lon":"149.1244","distance":9858,"name":"Canberra","country":"Australia","cc":"AU","sponsor":"AARNet","id":"52906","preferred":0,"https_functional":1,"host":"act-dksn-st1.speedtest.aarnet.net.au:8080"},
{"url":"https://cbr1.speedtest.telstra.net:8080/speedtest/upload.php","lat":"-35.2809","lon":"149.1300","distance":9857,"name":"Canberra","country":"Australia","cc":"AU","sponsor":"Telstra","id":"18711","preferred":0,"https_functional":1,"host":"cbr1.speedtest.telstra.net:8080"},
{"url":"http://speedtest-cbr.cdn.on.net:8080/speedtest/upload.php","lat":"-35.3075","lon":"149.1244","distance":9858,"name":"Canberra","country":"Australia","cc":"AU","sponsor":"Internode","id":"2166","preferred":0,"https_functional":1,"host":"speedtest-cbr.cdn.on.net.prod.hosts.ooklaserver.net:8080"},
{"url":"https://cha1.speedtest.telstra.net:8080/speedtest/upload.php","lat":"-33.8008","lon":"151.1796","distance":9711,"name":"Chatswood","country":"Australia","cc":"AU","sponsor":"Telstra","id":"18713","preferred":0,"https_functional":1,"host":"cha1.speedtest.telstra.net:8080"},
{"url":"https://drw1.speedtest.telstra.net:8080/speedtest/upload.php","lat":"-12.4634","lon":"130.8456","distance":9909,"name":"Darwin","country":"Australia","cc":"AU","sponsor":"Telstra","id":"22036","preferred":0,"https_functional":1,"host":"drw1.speedtest.telstra.net:8080"},
{"url":"http://nt-drwn-st1.speedtest.aarnet.net.au:8080/speedtest/upload.php","lat":"-12.4500","lon":"130.8333","distance":9909,"name":"Darwin","country":"Australia","cc":"AU","sponsor":"AARNet","id":"6757","preferred":0,"https_functional":1,"host":"nt-drwn-st1.speedtest.aarnet.net.au:8080"},
{"url":"https://speedtest-darwin-nt.optusnet.com.au:8080/speedtest/upload.php","lat":"-12.4500","lon":"130.8333","distance":9909,"name":"Darwin","country":"Australia","cc":"AU","sponsor":"Optus","id":"10438","preferred":0,"host":"speedtest-darwin-nt.optusnet.com.au:8080"},
{"url":"https://speedtest-ebw.optusnet.com.au:8080/speedtest/upload.php","lat":"-37.8136","lon":"144.9631","distance":10130,"name":"East Burwood","country":"Australia","cc":"AU","sponsor":"Optus","id":"9108","preferred":0,"host":"speedtest-ebw.optusnet.com.au:8080"},
{"url":"http://speedtest.thryve.com.au:8080/speedtest/upload.php","lat":"-33.7960","lon":"151.2770","distance":9706,"name":"Fairlight","country":"Australia","cc":"AU","sponsor":"Thryve Group - Thryve Broadband","id":"37994","preferred":0,"https_functional":1,"host":"speedtest.thryve.com.au.prod.hosts.ooklaserver.net:8080"},
{"url":"http://speedtest.yless4u.com.au:8080/speedtest/upload.php","lat":"-35.3290","lon":"149.1740","distance":9855,"name":"Fyshwick","country":"Australia","cc":"AU","sponsor":"YLess4U","id":"37133","preferred":0,"https_functional":1,"host":"speedtest.yless4u.com.au.prod.hosts.ooklaserver.net:8080"},
{"url":"https://ool1.speedtest.telstra.net:8080/speedtest/upload.php","lat":"-28.0160","lon":"153.0167","distance":9444,"name":"Gold Coast","country":"Australia","cc":"AU","sponsor":"Telstra","id":"16329","preferred":0,"https_functional":1,"host":"ool1.speedtest.telstra.net:8080"},
{"url":"https://hob1.speedtest.telstra.net:8080/speedtest/upload.php","lat":"-42.8821","lon":"147.3272","distance":10081,"name":"Hobart","country":"Australia","cc":"AU","sponsor":"Telstra","id":"18712","preferred":0,"https_functional":1,"host":"hob1.speedtest.telstra.net:8080"},
{"url":"http://speedtest-hob.launtel.net.au:8080/speedtest/upload.php","lat":"-42.8806","lon":"147.3250","distance":10081,"name":"Hobart","country":"Australia","cc":"AU","sponsor":"Launtel","id":"48679","preferred":0,"https_functional":1,"host":"speedtest-hob.launtel.net.au.prod.hosts.ooklaserver.net:8080"},
{"url":"http://speedtest-tdc3.tasmanet.com.au:8080/speedtest/upload.php","lat":"-42.8806","lon":"147.3250","distance":10081,"name":"Hobart","country":"Australia","cc":"AU","sponsor":"TasmaNet Pty Ltd","id":"43053","preferred":0,"https_functional":1,"host":"speedtest-tdc3.tasmanet.com.au.prod.hosts.ooklaserver.net:8080"},
{"url":"http://tas-dwpk-st1.speedtest.aarnet.net.au:8080/speedtest/upload.php","lat":"-42.8806","lon":"147.3250","distance":10081,"name":"Hobart","country":"Australia","cc":"AU","sponsor":"AARNet","id":"6369","preferred":0,"https_functional":1,"host":"tas-dwpk-st1.speedtest.aarnet.net.au:8080"},
{"url":"http://speedtest.micron21.com:8080/speedtest/upload.php","lat":"-37.8020","lon":"145.3160","distance":10111,"name":"Kilsyth","country":"Australia","cc":"AU","sponsor":"Micron21 Datacentre Pty Ltd","id":"25708","preferred":0,"https_functional":1,"host":"speedtest.micron21.com.prod.hosts.ooklaserver.net:8080"},
{"url":"http://knx.speedtest.optitel.com.au:8080/speedtest/upload.php","lat":"-15.7783","lon":"128.7439","distance":10176,"name":"Kununurra","country":"Australia","cc":"AU","sponsor":"OptiTel","id":"48114","preferred":0,"https_functional":1,"host":"knx.speedtest.optitel.com.au.prod.hosts.ooklaserver.net:8080"},
{"url":"http://speedtest-lton.launtel.net.au:8080/speedtest/upload.php","lat":"-41.4391","lon":"147.1358","distance":10073,"name":"Launceston","country":"Australia","cc":"AU","sponsor":"Launtel","id":"48503","preferred":0,"https_functional":1,"host":"speedtest-lton.launtel.net.au.prod.hosts.ooklaserver.net:8080"},
{"url":"https://speedtest-limestonecoast-sa.optusnet.com.au:8080/speedtest/upload.php","lat":"-37.8284","lon":"140.7804","distance":10351,"name":"Limestonecoast","country":"Australia","cc":"AU","sponsor":"Optus","id":"10439","preferred":0,"host":"speedtest-limestonecoast-sa.optusnet.com.au:8080"},
{"url":"http://me1.speedtest.gslnetworks.com.au:8080/speedtest/upload.php","lat":"-37.8136","lon":"144.9631","distance":10130,"name":"Melbourne","country":"Australia","cc":"AU","sponsor":"GSL Networks","id":"46114","preferred":0,"https_functional":1,"host":"me1.speedtest.gslnetworks.com.au.prod.hosts.ooklaserver.net:8080"},
{"url":"https://mel1.speedtest.telstra.net:8080/speedtest/upload.php","lat":"-37.8136","lon":"144.9631","distance":10130,"name":"Melbourne","country":"Australia","cc":"AU","sponsor":"Telstra","id":"12491","preferred":0,"https_functional":1,"host":"mel1.speedtest.telstra.net:8080"},
{"url":"http://melndm1speed1.wireline.com.au:8080/speedtest/upload.php","lat":"-37.8136","lon":"144.9631","distance":10130,"name":"Melbourne","country":"Australia","cc":"AU","sponsor":"Wireline Group","id":"29826","preferred":0,"https_functional":1,"host":"melndm1speed1.wireline.com.au.prod.hosts.ooklaserver.net:8080"},
{"url":"http://ookla.me1.neptune.net.au:8080/speedtest/upload.php","lat":"-37.8136","lon":"144.9631","distance":10130,"name":"Melbourne","country":"Australia","cc":"AU","sponsor":"Neptune Internet","id":"68925","preferred":0,"https_functional":1,"host":"ookla.me1.neptune.net.au.prod.hosts.ooklaserver.net:8080"},
{"url":"http://spd01-mel.au.superloop.com:8080/speedtest/upload.php","lat":"-37.8136","lon":"144.9631","distance":10130,"name":"Melbourne","country":"Australia","cc":"AU","sponsor":"Superloop Australia Pty Ltd","id":"55297","preferred":0,"https_functional":1,"host":"spd01-mel.au.superloop.com.prod.hosts.ooklaserver.net:8080"},
{"url":"http://speed-mel.gigacomm.net.au:8080/speedtest/upload.php","lat":"-37.8136","lon":"144.9631","distance":10130,"name":"Melbourne","country":"Australia","cc":"AU","sponsor":"GigaComm Pty Ltd","id":"36100","preferred":0,"https_functional":1,"host":"speed-mel.gigacomm.net.au.prod.hosts.ooklaserver.net:8080"},
{"url":"http://speed.mel.aussiebroadband.com.au:8080/speedtest/upload.php","lat":"-37.8136","lon":"144.9631","distance":10130,"name":"Melbourne","country":"Australia","cc":"AU","sponsor":"Aussie Broadband","id":"14670","preferred":0,"https_functional":1,"host":"speed.mel.aussiebroadband.com.au.prod.hosts.ooklaserver.net:8080"},
{"url":"https://speedtest-aus.chainlinkhosting.com:8080/speedtest/upload.php","lat":"-37.8136","lon":"144.9631","distance":10130,"name":"Melbourne","country":"Australia","cc":"AU","sponsor":"ChainLinkHosting | ChainLinkNetworks","id":"65167","preferred":0,"https_functional":1,"host":"speedtest-aus.chainlinkhosting.com.prod.hosts.ooklaserver.net:8080"},
{"url":"http://speedtest-mel-dn1.empower.net.au:8080/speedtest/upload.php","lat":"-37.8136","lon":"144.9631","distance":10130,"name":"Melbourne","country":"Australia","cc":"AU","sponsor":"blueAPACHE","id":"39561","preferred":0,"https_functional":1,"host":"speedtest-mel-dn1.empower.net.au.prod.hosts.ooklaserver.net:8080"},
{"url":"http://speedtest-mel.vocus.net:8080/speedtest/upload.php","lat":"-37.8136","lon":"144.9631","distance":10130,"name":"Melbourne","country":"Australia","cc":"AU","sponsor":"Vocus Communications","id":"16207","preferred":0,"https_functional":1,"host":"speedtest-mel.vocus.net.prod.hosts.ooklaserver.net:8080"},
{"url":"http://speedtest-mel0.encoo.com.au:8080/speedtest/upload.php","lat":"-37.8136","lon":"144.9631","distance":10130,"name":"Melbourne","country":"Australia","cc":"AU","sponsor":"Encoo","id":"51801","preferred":0,"https_functional":1,"host":"speedtest-mel0.encoo.com.au.prod.hosts.ooklaserver.net:8080"},
{"url":"http://speedtest-melbourne.macquarietelecom.com:8080/speedtest/upload.php","lat":"-37.8136","lon":"144.9631","distance":10130,"name":"Melbourne","country":"Australia","cc":"AU","sponsor":"Macquarie Telecom","id":"45057","preferred":0,"https_functional":1,"host":"speedtest-melbourne.macquarietelecom.com.prod.hosts.ooklaserver.net:8080"},
{"url":"http://speedtest.dcsi.net.au:8080/speedtest/upload.php","lat":"-37.8136","lon":"144.9631","distance":10130,"name":"Melbourne","country":"Australia","cc":"AU","sponsor":"Swoop Broadband","id":"13057","preferred":0,"https_functional":1,"host":"speedtest.dcsi.net.au.prod.hosts.ooklaserver.net:8080"},
{"url":"http://speedtest.mel.mhn.cloud:8080/speedtest/upload.php","lat":"-37.8136","lon":"144.9631","distance":10130,"name":"Melbourne","country":"Australia","cc":"AU","sponsor":"Hosted Network","id":"60949","preferred":0,"https_functional":1,"host":"speedtest.mel.mhn.cloud.prod.hosts.ooklaserver.net:8080"},
{"url":"http://speedtest.mel01.launtel.net.au:8080/speedtest/upload.php","lat":"-37.8136","lon":"144.9631","distance":10130,"name":"Melbourne","country":"Australia","cc":"AU","sponsor":"Launtel","id":"61764","preferred":0,"https_functional":1,"host":"speedtest.mel01.launtel.net.au.prod.hosts.ooklaserver.net:8080"},
{"url":"http://speedtest2.comvergence.com.au:8080/speedtest/upload.php","lat":"-37.8136","lon":"144.9631","distance":10130,"name":"Melbourne","country":"Australia","cc":"AU","sponsor":"Comvergence","id":"37688","preferred":0,"https_functional":1,"host":"speedtest2.comvergence.com.au.prod.hosts.ooklaserver.net:8080"},
{"url":"https://vic-pmla-st1.speedtest.aarnet.net.au:8080/speedtest/upload.php","lat":"-37.8136","lon":"144.9631","distance":10130,"name":"Melbourne","country":"Australia","cc":"AU","sponsor":"AARNet","id":"60412","preferred":0,"https_functional":1,"host":"vic-pmla-st1.speedtest.aarnet.net.au:8080"},
{"url":"http://vic-speedtest.spirit.com.au:8080/speedtest/upload.php","lat":"-37.8136","lon":"144.9631","distance":10130,"name":"Melbourne","country":"Australia","cc":"AU","sponsor":"XYZ Telecom","id":"21585","preferred":0,"host":"vic-speedtest.spirit.com.au:8080"},
{"url":"https://vic.speedtest.exetel.com.au:8080/speedtest/upload.php","lat":"-37.8136","lon":"144.9631","distance":10130,"name":"Melbourne","country":"Australia","cc":"AU","sponsor":"Exetel","id":"13275","preferred":0,"https_functional":1,"host":"vic.speedtest.exetel.com.au:8080"},
{"url":"http://vic.speedtest.leaptel.com.au:8080/speedtest/upload.php","lat":"-37.8136","lon":"144.9631","distance":10130,"name":"Melbourne","country":"Australia","cc":"AU","sponsor":"Leaptel","id":"25134","preferred":0,"https_functional":1,"host":"vic.speedtest.leaptel.com.au.prod.hosts.ooklaserver.net:8080"},
{"url":"https://mcy1.speedtest.telstra.net:8080/speedtest/upload.php","lat":"-25.8833","lon":"152.5500","distance":9397,"name":"Sunshine Coast","country":"Australia","cc":"AU","sponsor":"Telstra","id":"17702","preferred":0,"https_functional":1,"host":"mcy1.speedtest.telstra.net:8080"},
{"url":"http://aus-nperf.verizon.net:8080/speedtest/upload.php","lat":"-33.8600","lon":"151.2111","distance":9711,"name":"Sydney","country":"Australia","cc":"AU","sponsor":"Verizon","id":"50441","preferred":0,"https_functional":1,"host":"aus-nperf.verizon.net.prod.hosts.ooklaserver.net:8080"},
{"url":"http://ipl3pt.syd.ops.aspac.uu.net:8080/speedtest/upload.php","lat":"-33.8600","lon":"151.2111","distance":9711,"name":"Sydney","country":"Australia","cc":"AU","sponsor":"Verizon.com","id":"53599","preferred":0,"https_functional":1,"host":"ipl3pt.syd.ops.aspac.uu.net:8080"},
{"url":"http://lg-syd.fdcservers.net:8080/speedtest/upload.php","lat":"-33.8600","lon":"151.2111","distance":9711,"name":"Sydney","country":"Australia","cc":"AU","sponsor":"fdcservers.net","id":"54305","preferred":0,"host":"lg-syd.fdcservers.net:8080"},
{"url":"http://nsw-brwy-st1.speedtest.aarnet.net.au:8080/speedtest/upload.php","lat":"-33.8600","lon":"151.2111","distance":9711,"name":"Sydney","country":"Australia","cc":"AU","sponsor":"AARNet","id":"6355","preferred":0,"https_functional":1,"host":"nsw-brwy-st1.speedtest.aarnet.net.au:8080"},
{"url":"https://nsw.speedtest.exetel.com.au:8080/speedtest/upload.php","lat":"-33.8600","lon":"151.2111","distance":9711,"name":"Sydney","country":"Australia","cc":"AU","sponsor":"Exetel","id":"13279","preferred":0,"https_functional":1,"host":"nsw.speedtest.exetel.com.au:8080"},
{"url":"http://nsw.speedtest.leaptel.com.au:8080/speedtest/upload.php","lat":"-33.8600","lon":"151.2111","distance":9711,"name":"Sydney","country":"Australia","cc":"AU","sponsor":"Leaptel","id":"34967","preferred":0,"https_functional":1,"host":"nsw.speedtest.leaptel.com.au.prod.hosts.ooklaserver.net:8080"},
{"url":"http://ookla.sy1.neptune.net.au:8080/speedtest/upload.php","lat":"-33.8600","lon":"151.2111","distance":9711,"name":"Sydney","country":"Australia","cc":"AU","sponsor":"Neptune Internet","id":"68924","preferred":0,"https_functional":1,"host":"ookla.sy1.neptune.net.au.prod.hosts.ooklaserver.net:8080"},
{"url":"http://pauseq4vost1.datamossa.cloud:8080/speedtest/upload.php","lat":"-33.8600","lon":"151.2111","distance":9711,"name":"Sydney","country":"Australia","cc":"AU","sponsor":"DataMossa","id":"27582","preferred":0,"https_functional":1,"host":"pauseq4vost1.datamossa.cloud.prod.hosts.ooklaserver.net:8080"},
{"url":"http://spd03-syd.au.superloop.com:8080/speedtest/upload.php","lat":"-33.8600","lon":"151.2111","distance":9711,"name":"Sydney","country":"Australia","cc":"AU","sponsor":"Superloop Australia Pty Ltd","id":"65184","preferred":0,"https_functional":1,"host":"spd03-syd.au.superloop.com.prod.hosts.ooklaserver.net:8080"},
{"url":"http://speed-syd.gigacomm.net.au:8080/speedtest/upload.php","lat":"-33.8600","lon":"151.2111","distance":9711,"name":"Sydney","country":"Australia","cc":"AU","sponsor":"GigaComm Pty Ltd","id":"36157","preferred":0,"https_functional":1,"host":"speed-syd.gigacomm.net.au.prod.hosts.ooklaserver.net:8080"},
{"url":"http://speed4.snap.net.nz:8080/speedtest/upload.php","lat":"-33.8600","lon":"151.2111","distance":9711,"name":"Sydney","country":"Australia","cc":"AU","sponsor":"2degrees","id":"18392","preferred":0,"https_functional":1,"host":"speed4.snap.net.nz.prod.hosts.ooklaserver.net:8080"},
{"url":"http://speedtest-nxts1.fsg-hosting.com:8080/speedtest/upload.php","lat":"-33.8600","lon":"151.2111","distance":9711,"name":"Sydney","country":"Australia","cc":"AU","sponsor":"Field Solutions Group","id":"62804","preferred":0,"https_functional":1,"host":"speedtest-nxts1.fsg-hosting.com.prod.hosts.ooklaserver.net:8080"},
{"url":"http://speedtest-syd-dn1.empower.net.au:8080/speedtest/upload.php","lat":"-33.8600","lon":"151.2111","distance":9711,"name":"Sydney","country":"Australia","cc":"AU","sponsor":"blueAPACHE","id":"39585","preferred":0,"https_functional":1,"host":"speedtest-syd-dn1.empower.net.au.prod.hosts.ooklaserver.net:8080"},
{"url":"http://speedtest-syd.nsw.au.hostuniversal.com.au:8080/speedtest/upload.php","lat":"-33.8600","lon":"151.2111","distance":9711,"name":"Sydney","country":"Australia","cc":"AU","sponsor":"Host Universal","id":"68241","preferred":0,"https_functional":1,"host":"speedtest-syd.nsw.au.hostuniversal.com.au.prod.hosts.ooklaserver.net:8080"},
{"url":"http://speedtest-syd.optusnet.com.au:8080/speedtest/upload.php","lat":"-33.8600","lon":"151.2111","distance":9711,"name":"Sydney","country":"Australia","cc":"AU","sponsor":"Optus","id":"1267","preferred":0,"host":"speedtest-syd.optusnet.com.au:8080"},
{"url":"http://speedtest-syd.thecore.net.au:8080/speedtest/upload.php","lat":"-33.8600","lon":"151.2111","distance":9711,"name":"Sydney","country":"Australia","cc":"AU","sponsor":"Real World","id":"63404","preferred":0,"https_functional":1,"host":"speedtest-syd.thecore.net.au.prod.hosts.ooklaserver.net:8080"},
{"url":"http://speedtest-syd.vocus.net:8080/speedtest/upload.php","lat":"-33.8600","lon":"151.2111","distance":9711,"name":"Sydney","country":"Australia","cc":"AU","sponsor":"Vocus Communications","id":"17618","preferred":0,"https_functional":1,"host":"speedtest-syd.vocus.net.prod.hosts.ooklaserver.net:8080"},
{"url":"http://speedtest-syd0.encoo.com.au:8080/speedtest/upload.php","lat":"-33.8600","lon":"151.2111","distance":9711,"name":"Sydney","country":"Australia","cc":"AU","sponsor":"Encoo","id":"54213","preferred":0,"https_functional":1,"host":"speedtest-syd0.encoo.com.au.prod.hosts.ooklaserver.net:8080"},
{"url":"http://speedtest-sydney.macquarietelecom.com:8080/speedtest/upload.php","lat":"-33.8600","lon":"151.2111","distance":9711,"name":"Sydney","country":"Australia","cc":"AU","sponsor":"Macquarie Telecom","id":"45033","preferred":0,"https_functional":1,"host":"speedtest-sydney.macquarietelecom.com.prod.hosts.ooklaserver.net:8080"},
{"url":"http://speedtest.mirror.digitalpacific.com.au:8080/speedtest/upload.php","lat":"-33.8600","lon":"151.2111","distance":9711,"name":"Sydney","country":"Australia","cc":"AU","sponsor":"Digital Pacific","id":"5744","preferred":0,"https_functional":1,"host":"speedtest.mirror.digitalpacific.com.au.prod.hosts.ooklaserver.net:8080"},
{"url":"http://speedtest.mirror.serversaustralia.com.au:8080/speedtest/upload.php","lat":"-33.8600","lon":"151.2111","distance":9711,"name":"Sydney","country":"Australia","cc":"AU","sponsor":"Servers Australia","id":"39108","preferred":0,"https_functional":1,"host":"speedtest.mirror.serversaustralia.com.au.prod.hosts.ooklaserver.net:8080"},
{"url":"http://speedtest.syd.mhn.cloud:8080/speedtest/upload.php","lat":"-33.8600","lon":"151.2111","distance":9711,"name":"Sydney","country":"Australia","cc":"AU","sponsor":"Hosted Network","id":"44473","preferred":0,"https_functional":1,"host":"speedtest.syd.mhn.cloud.prod.hosts.ooklaserver.net:8080"},
{"url":"http://speedtest.syd.netsg.net.au:8080/speedtest/upload.php","lat":"-33.8600","lon":"151.2111","distance":9711,"name":"Sydney","country":"Australia","cc":"AU","sponsor":"Network Solutions Group","id":"30430","preferred":0,"https_functional":1,"host":"speedtest.syd.netsg.net.au.prod.hosts.ooklaserver.net:8080"},
{"url":"http://speedtest.syd01.launtel.net.au:8080/speedtest/upload.php","lat":"-33.8600","lon":"151.2111","distance":9711,"name":"Sydney","country":"Australia","cc":"AU","sponsor":"Launtel","id":"61743","preferred":0,"https_functional":1,"host":"speedtest.syd01.launtel.net.au.prod.hosts.ooklaserver.net:8080"},
{"url":"http://speedtest01.syd1.spintel.net.au:8080/speedtest/upload.php","lat":"-33.8600","lon":"151.2111","distance":9711,"name":"Sydney","country":"Australia","cc":"AU","sponsor":"Spintel","id":"58437","preferred":0,"https_functional":1,"host":"speedtest01.syd1.spintel.net.au.prod.hosts.ooklaserver.net:8080"},
{"url":"http://sy5.test.gslnetworks.com.au:8080/speedtest/upload.php","lat":"-33.8600","lon":"151.2111","distance":9711,"name":"Sydney","country":"Australia","cc":"AU","sponsor":"GSL Networks","id":"44735","preferred":0,"https_functional":1,"host":"sy5.test.gslnetworks.com.au.prod.hosts.ooklaserver.net:8080"},
{"url":"https://syd.speedtest.contabo.net:8080/speedtest/upload.php","lat":"-33.8600","lon":"151.2111","distance":9711,"name":"Sydney","country":"Australia","cc":"AU","sponsor":"Contabo","id":"54360","preferred":0,"https_functional":1,"host":"syd.speedtest.contabo.net:8080"},
{"url":"https://syd1.speedtest.telstra.net:8080/speedtest/upload.php","lat":"-33.8600","lon":"151.2111","distance":9711,"name":"Sydney","country":"Australia","cc":"AU","sponsor":"Telstra","id":"12492","preferred":0,"https_functional":1,"host":"syd1.speedtest.telstra.net:8080"},
{"url":"http://sydgs2speed4.wireline.com.au:8080/speedtest/upload.php","lat":"-33.8600","lon":"151.2111","distance":9711,"name":"Sydney","country":"Australia","cc":"AU","sponsor":"Wireline Group","id":"54817","preferred":0,"https_functional":1,"host":"sydgs2speed4.wireline.com.au.prod.hosts.ooklaserver.net:8080"},
{"url":"http://sydspeedtest.rackdog.com:8080/speedtest/upload.php","lat":"-33.8600","lon":"151.2111","distance":9711,"name":"Sydney","country":"Australia","cc":"AU","sponsor":"Rackdog","id":"46372","preferred":0,"https_functional":1,"host":"sydspeedtest.rackdog.com.prod.hosts.ooklaserver.net:8080"},
{"url":"https://win1.speedtest.telstra.net:8080/speedtest/upload.php","lat":"-37.8540","lon":"144.9880","distance":10129,"name":"Windsor","country":"Australia","cc":"AU","sponsor":"Telstra","id":"18714","preferred":0,"https_functional":1,"host":"win1.speedtest.telstra.net:8080"},
{"url":"http://speedtest.link.bm:8080/speedtest/upload.php","lat":"32.3134","lon":"-64.7311","distance":874,"name":"Smith's Parish","country":"Bermuda","cc":"BM","sponsor":"LinkBermuda Ltd.","id":"9337","preferred":0,"https_functional":1,"host":"speedtest.link.bm.prod.hosts.ooklaserver.net:8080"},
{"url":"http://aragonnetspeedtest.com.br:8080/speedtest/upload.php","lat":"-1.9466","lon":"-54.7388","distance":3183,"name":"Alenquer","country":"Brazil","cc":"BR","sponsor":"ARAGON-NET PROVEDOR DE INTERNET","id":"30342","preferred":0,"https_functional":1,"host":"aragonnetspeedtest.com.br.prod.hosts.ooklaserver.net:8080"},
{"url":"https://teste.routinger.com.br:8080/speedtest/upload.php","lat":"-3.5789","lon":"-59.1345","distance":3168,"name":"Autazes","country":"Brazil","cc":"BR","sponsor":"Routinger","id":"64181","preferred":0,"https_functional":1,"host":"teste.routinger.com.br:8080"},
{"url":"https://speednet.brsserver.com.br:8080/speedtest/upload.php","lat":"-4.3760","lon":"-70.0302","distance":3025,"name":"Benjamin Constant","country":"Brazil","cc":"BR","sponsor":"SpeedNet-BC","id":"64964","preferred":0,"https_functional":1,"host":"speednet.brsserver.com.br:8080"},
{"url":"http://speed.ultranetrr.com.br:8080/speedtest/upload.php","lat":"2.8235","lon":"-60.6759","distance":2716,"name":"Boa Vista","country":"Brazil","cc":"BR","sponsor":"Ultra Net","id":"50878","preferred":0,"https_functional":1,"host":"speed.ultranetrr.com.br:8080"},
{"url":"https://speedtest.auratelecom.com.br:8080/speedtest/upload.php","lat":"2.8235","lon":"-60.6759","distance":2716,"name":"Boa Vista","country":"Brazil","cc":"BR","sponsor":"AURA Telecom","id":"57456","preferred":0,"host":"speedtest.auratelecom.com.br:8080"},
{"url":"https://speedtest.inforr.com.br:8080/speedtest/upload.php","lat":"2.8235","lon":"-60.6759","distance":2716,"name":"Boa Vista","country":"Brazil","cc":"BR","sponsor":"INFORR TELECOM","id":"10931","preferred":0,"https_functional":1,"host":"speedtest.inforr.com.br:8080"},
{"url":"http://speedtest.linknetbv.com:8080/speedtest/upload.php","lat":"2.8235","lon":"-60.6759","distance":2716,"name":"Boa Vista","country":"Brazil","cc":"BR","sponsor":"LINK-NETBV","id":"49031","preferred":0,"https_functional":1,"host":"speedtest.linknetbv.com:8080"},
{"url":"http://speedtest.roraimanet.com.br:8080/speedtest/upload.php","lat":"2.8206","lon":"-60.6738","distance":2716,"name":"Boa Vista","country":"Brazil","cc":"BR","sponsor":"RoraimaNET Telecomunicações","id":"25279","preferred":0,"https_functional":1,"host":"speedtest.roraimanet.com.br.prod.hosts.ooklaserver.net:8080"},
{"url":"https://speedtest.uplinkrr.com.br:8080/speedtest/upload.php","lat":"2.8235","lon":"-60.6759","distance":2716,"name":"Boa Vista","country":"Brazil","cc":"BR","sponsor":"UpLink","id":"50249","preferred":0,"https_functional":1,"host":"speedtest.uplinkrr.com.br:8080"},
{"url":"http://speedtest.webfibertelecom.com.br:8080/speedtest/upload.php","lat":"2.8235","lon":"-60.6758","distance":2716,"name":"Boa Vista","country":"Brazil","cc":"BR","sponsor":"Webfiber Telecom","id":"21777","preferred":0,"https_functional":1,"host":"speedtest.webfibertelecom.com.br.prod.hosts.ooklaserver.net:8080"},
{"url":"http://speedtestrr.vtal.net.br:8080/speedtest/upload.php","lat":"2.8235","lon":"-60.6759","distance":2716,"name":"Boa Vista","country":"Brazil","cc":"BR","sponsor":"Vtal","id":"40396","preferred":0,"https_functional":1,"host":"speedtestrr.vtal.net.br.prod.hosts.ooklaserver.net:8080"},
{"url":"http://teste.suprainternet.com.br:8080/speedtest/upload.php","lat":"2.7885","lon":"-60.7259","distance":2717,"name":"Boa Vista","country":"Brazil","cc":"BR","sponsor":"Supra internet","id":"46999","preferred":0,"https_functional":1,"host":"teste.suprainternet.com.br:8080"},
{"url":"http://velocidade.amazoniatelecom.com.br:8080/speedtest/upload.php","lat":"2.8235","lon":"-60.6759","distance":2716,"name":"Boa Vista","country":"Brazil","cc":"BR","sponsor":"Amazônia Telecom","id":"22091","preferred":0,"https_functional":1,"host":"velocidade.amazoniatelecom.com.br:8080"},
{"url":"http://speedtest.routinger.com.br:8080/speedtest/upload.php","lat":"-3.8194","lon":"-60.3612","distance":3154,"name":"Careiro","country":"Brazil","cc":"BR","sponsor":"Routinger","id":"45199","preferred":0,"https_functional":1,"host":"speedtest.routinger.com.br:8080"},
{"url":"https://stcareiro.pplink.net.br:8080/speedtest/upload.php","lat":"-3.8194","lon":"-60.3612","distance":3154,"name":"Careiro","country":"Brazil","cc":"BR","sponsor":"PPLINKNET","id":"50328","preferred":0,"https_functional":1,"host":"stcareiro.pplink.net.br:8080"},
{"url":"https://speedtest.cyberline.com.br:8080/speedtest/upload.php","lat":"-16.6667","lon":"-49.2667","distance":4263,"name":"Goiânia","country":"Brazil","cc":"BR","sponsor":"CYBERLINE FIBRA","id":"27442","preferred":0,"https_functional":1,"host":"speedtest.cyberline.com.br:8080"},
{"url":"http://ookla-ita.asanet.tec.br:8080/speedtest/upload.php","lat":"-3.1350","lon":"-58.4385","distance":3156,"name":"Itacoatiara","country":"Brazil","cc":"BR","sponsor":"Asanet","id":"58243","preferred":0,"https_functional":1,"host":"ookla-ita.asanet.tec.br.prod.hosts.ooklaserver.net:8080"},
{"url":"https://speedtest.maisnetfibra.net.br:8080/speedtest/upload.php","lat":"-3.1350","lon":"-58.4385","distance":3156,"name":"Itacoatiara","country":"Brazil","cc":"BR","sponsor":"+NET FIBRAS","id":"13595","preferred":0,"https_functional":1,"host":"speedtest.maisnetfibra.net.br:8080"},
{"url":"http://speedtest.mixam.com.br:8080/speedtest/upload.php","lat":"-3.1350","lon":"-58.4385","distance":3156,"name":"Itacoatiara","country":"Brazil","cc":"BR","sponsor":"Mix Internet","id":"65492","preferred":0,"https_functional":1,"host":"speedtest.mixam.com.br.prod.hosts.ooklaserver.net:8080"},
{"url":"https://speedtest.japanettelecom.com.br:8080/speedtest/upload.php","lat":"-23.4849","lon":"-46.3495","distance":4770,"name":"Itaquaquecetuba","country":"Brazil","cc":"BR","sponsor":"JAPANET TELECOM","id":"56562","preferred":0,"https_functional":1,"host":"speedtest.japanettelecom.com.br:8080"},
{"url":"http://speedtest.conectaamazonia.com.br:8080/speedtest/upload.php","lat":"-2.5131","lon":"-56.1749","distance":3177,"name":"Juruti","country":"Brazil","cc":"BR","sponsor":"CONECTA TELECOM","id":"57324","preferred":0,"https_functional":1,"host":"speedtest.conectaamazonia.com.br:8080"},
{"url":"http://speedtest.aquitelecom.tv.br:8080/speedtest/upload.php","lat":"0.8398","lon":"-52.5190","distance":3082,"name":"Laranjal do Jari","country":"Brazil","cc":"BR","sponsor":"AQUI TECNOLOGIA LTDA","id":"67624","preferred":0,"https_functional":1,"host":"speedtest.aquitelecom.tv.br:8080"},
{"url":"http://btestmcp.vocetelecom.vc:8080/speedtest/upload.php","lat":"0.0339","lon":"-51.3500","distance":3170,"name":"Macapá","country":"Brazil","cc":"BR","sponsor":"Você Telecom","id":"55562","preferred":0,"https_functional":1,"host":"btestmcp.vocetelecom.vc.prod.hosts.ooklaserver.net:8080"},
{"url":"https://speedtest.americatelecom.net.br:8080/speedtest/upload.php","lat":"0.0339","lon":"-51.3500","distance":3170,"name":"Macapá","country":"Brazil","cc":"BR","sponsor":"AMÉRICA TELECOM","id":"59625","preferred":0,"https_functional":1,"host":"speedtest.americatelecom.net.br:8080"},
{"url":"https://speedtest.macapatelecom.net.br:8080/speedtest/upload.php","lat":"0.0339","lon":"-51.3500","distance":3170,"name":"Macapá","country":"Brazil","cc":"BR","sponsor":"Macapá Telecom Ltda","id":"67763","preferred":0,"https_functional":1,"host":"speedtest.macapatelecom.net.br:8080"},
{"url":"https://speedtest.pinguimtelecom.net.br:8080/speedtest/upload.php","lat":"0.0405","lon":"-51.0561","distance":3179,"name":"Macapá","country":"Brazil","cc":"BR","sponsor":"PINGUIM TELECOM","id":"54670","preferred":0,"https_functional":1,"host":"speedtest.pinguimtelecom.net.br:8080"},
{"url":"https://speedtest.webturbo.net.br:8080/speedtest/upload.php","lat":"0.0339","lon":"-51.3500","distance":3170,"name":"Macapá","country":"Brazil","cc":"BR","sponsor":"Web Turbo","id":"24443","preferred":0,"host":"speedtest.webturbo.net.br:8080"},
{"url":"http://speedtestap.vtal.net.br:8080/speedtest/upload.php","lat":"0.0339","lon":"-51.3500","distance":3170,"name":"Macapá","country":"Brazil","cc":"BR","sponsor":"Vtal","id":"40399","preferred":0,"https_functional":1,"host":"speedtestap.vtal.net.br.prod.hosts.ooklaserver.net:8080"},
{"url":"http://speedtestmacapa.webflash.net.br:8080/speedtest/upload.php","lat":"0.0405","lon":"-51.0561","distance":3179,"name":"Macapá","country":"Brazil","cc":"BR","sponsor":"WebFlash","id":"55293","preferred":0,"host":"speedtestmacapa.webflash.net.br:8080"},
{"url":"http://test.accesso.net.br:8080/speedtest/upload.php","lat":"0.0405","lon":"-51.0561","distance":3179,"name":"Macapá","country":"Brazil","cc":"BR","sponsor":"Acesso Net - SS Moraes","id":"58184","preferred":0,"host":"test.accesso.net.br:8080"},
{"url":"https://stmanaquiri.pplink.net.br:8080/speedtest/upload.php","lat":"-3.4298","lon":"-60.4599","distance":3126,"name":"Manaquiri","country":"Brazil","cc":"BR","sponsor":"PPLINKNET","id":"50373","preferred":0,"https_functional":1,"host":"stmanaquiri.pplink.net.br:8080"},
{"url":"http://lifitelecom.brsserver.com.br:8080/speedtest/upload.php","lat":"-3.1000","lon":"-60.0167","distance":3115,"name":"Manaus","country":"Brazil","cc":"BR","sponsor":"LIFI TELECOM","id":"67434","preferred":0,"https_functional":1,"host":"lifitelecom.brsserver.com.br:8080"},
{"url":"https://mns.i-systems.com:8080/speedtest/upload.php","lat":"-3.1000","lon":"-60.0167","distance":3115,"name":"Manaus","country":"Brazil","cc":"BR","sponsor":"I-Systems","id":"64565","preferred":0,"https_functional":1,"host":"mns.i-systems.com:8080"},
{"url":"http://ookla.amazoniasat-isp.com.br:8080/speedtest/upload.php","lat":"-3.1000","lon":"-60.0167","distance":3115,"name":"Manaus","country":"Brazil","cc":"BR","sponsor":"Amazônia Sat","id":"47135","preferred":0,"https_functional":1,"host":"ookla.amazoniasat-isp.com.br.prod.hosts.ooklaserver.net:8080"},
{"url":"http://ookla.araujotelecom.com.br:8080/speedtest/upload.php","lat":"-3.1000","lon":"-60.0167","distance":3115,"name":"Manaus","country":"Brazil","cc":"BR","sponsor":"Araujo Telecom","id":"57219","preferred":0,"https_functional":1,"host":"ookla.araujotelecom.com.br.prod.hosts.ooklaserver.net:8080"},
{"url":"http://ookla.fullisp.com.br:8080/speedtest/upload.php","lat":"-3.1000","lon":"-60.0167","distance":3115,"name":"Manaus","country":"Brazil","cc":"BR","sponsor":"Full Telecom","id":"62310","preferred":0,"https_functional":1,"host":"ookla.fullisp.com.br.prod.hosts.ooklaserver.net:8080"},
{"url":"http://ookla.jgainterlinktelecom.com.br:8080/speedtest/upload.php","lat":"-3.1000","lon":"-60.0167","distance":3115,"name":"Manaus","country":"Brazil","cc":"BR","sponsor":"JGA INTER LINK TELECOM LTDA.","id":"64271","preferred":0,"host":"ookla.jgainterlinktelecom.com.br:8080"},
{"url":"http://ookla.playmaisreverso.net.br:8080/speedtest/upload.php","lat":"-3.1000","lon":"-60.0167","distance":3115,"name":"Manaus","country":"Brazil","cc":"BR","sponsor":"PlayMais Fibra","id":"63156","preferred":0,"https_functional":1,"host":"ookla.playmaisreverso.net.br.prod.hosts.ooklaserver.net:8080"},
{"url":"http://ookla.siditelecom-isp.com.br:8080/speedtest/upload.php","lat":"-3.1000","lon":"-60.0167","distance":3115,"name":"Manaus","country":"Brazil","cc":"BR","sponsor":"Sidi Telecom","id":"47570","preferred":0,"https_functional":1,"host":"ookla.siditelecom-isp.com.br.prod.hosts.ooklaserver.net:8080"},
{"url":"http://ookla.xponnet.com.br:8080/speedtest/upload.php","lat":"-3.1000","lon":"-60.0167","distance":3115,"name":"Manaus","country":"Brazil","cc":"BR","sponsor":"Xponnet Telecom","id":"16593","preferred":0,"https_functional":1,"host":"ookla.xponnet.com.br.prod.hosts.ooklaserver.net:8080"},
{"url":"https://ookla1.ccspublichost.com:8080/speedtest/upload.php","lat":"-3.1000","lon":"-60.0167","distance":3115,"name":"Manaus","country":"Brazil","cc":"BR","sponsor":"CCS Brasil","id":"68396","preferred":0,"https_functional":1,"host":"ookla1.ccspublichost.com:8080"},
{"url":"http://spd33.claro.com.br:8080/speedtest/upload.php","lat":"-3.1000","lon":"-60.0167","distance":3115,"name":"Manaus","country":"Brazil","cc":"BR","sponsor":"Claro Móvel MNS","id":"37453","preferred":0,"https_functional":1,"host":"spd33.claro.com.br:8080"},
{"url":"https://speed.amazonett.com.br:8080/speedtest/upload.php","lat":"-3.1000","lon":"-60.0167","distance":3115,"name":"Manaus","country":"Brazil","cc":"BR","sponsor":"Amazonet Telecom Ltda","id":"26522","preferred":0,"https_functional":1,"host":"speed.amazonett.com.br:8080"},
{"url":"https://speed.newclicktelecom.com.br:8080/speedtest/upload.php","lat":"-3.1000","lon":"-60.0167","distance":3115,"name":"Manaus","country":"Brazil","cc":"BR","sponsor":"Newclick Telecom","id":"59607","preferred":0,"https_functional":1,"host":"speed.newclicktelecom.com.br:8080"},
{"url":"http://speedam.wsp.net.br:8080/speedtest/upload.php","lat":"-3.1000","lon":"-60.0167","distance":3115,"name":"Manaus","country":"Brazil","cc":"BR","sponsor":"WSP TELECOM","id":"59830","preferred":0,"host":"speedam.wsp.net.br:8080"},
{"url":"http://speedtest.albatroznetwork.com.br:8080/speedtest/upload.php","lat":"-3.1190","lon":"-60.0217","distance":3116,"name":"Manaus","country":"Brazil","cc":"BR","sponsor":"Albatroz Network","id":"56117","preferred":0,"https_functional":1,"host":"speedtest.albatroznetwork.com.br:8080"},
{"url":"http://speedtest.amnet.net.br:8080/speedtest/upload.php","lat":"-3.1000","lon":"-60.0167","distance":3115,"name":"Manaus","country":"Brazil","cc":"BR","sponsor":"AMNET TELECOM","id":"24681","preferred":0,"https_functional":1,"host":"speedtest.amnet.net.br.prod.hosts.ooklaserver.net:8080"},
{"url":"http://speedtest.jetspeed.com.br:8080/speedtest/upload.php","lat":"-3.1000","lon":"-60.0167","distance":3115,"name":"Manaus","country":"Brazil","cc":"BR","sponsor":"JETSPEED FIBRA","id":"62857","preferred":0,"https_functional":1,"host":"speedtest.jetspeed.com.br.prod.hosts.ooklaserver.net:8080"},
{"url":"https://speedtest.jvswifi.com.br:8080/speedtest/upload.php","lat":"-3.1000","lon":"-60.0167","distance":3115,"name":"Manaus","country":"Brazil","cc":"BR","sponsor":"JVS WIFI","id":"53474","preferred":0,"https_functional":1,"host":"speedtest.jvswifi.com.br:8080"},
{"url":"https://speedtest.linkamos.com.br:8080/speedtest/upload.php","lat":"-3.1000","lon":"-60.0167","distance":3115,"name":"Manaus","country":"Brazil","cc":"BR","sponsor":"LINKAMOS PROVEDOR DE INTERNET","id":"57675","preferred":0,"host":"speedtest.linkamos.com.br:8080"},
{"url":"http://speedtest.syscom.manaus.br:8080/speedtest/upload.php","lat":"-3.1000","lon":"-60.0167","distance":3115,"name":"Manaus","country":"Brazil","cc":"BR","sponsor":"Syscom Telecom","id":"35189","preferred":0,"https_functional":1,"host":"speedtest.syscom.manaus.br:8080"},
{"url":"http://speedtest.unitelecom.net.br:8080/speedtest/upload.php","lat":"-3.1000","lon":"-60.0167","distance":3115,"name":"Manaus","country":"Brazil","cc":"BR","sponsor":"UNITELECOM","id":"43704","preferred":0,"https_functional":1,"host":"speedtest.unitelecom.net.br.prod.hosts.ooklaserver.net:8080"},
{"url":"http://speedtest.visiontelecom.com.br:8080/speedtest/upload.php","lat":"-3.1000","lon":"-60.0167","distance":3115,"name":"Manaus","country":"Brazil","cc":"BR","sponsor":"Vision Telecom","id":"32848","preferred":0,"https_functional":1,"host":"speedtest.visiontelecom.com.br:8080"},
{"url":"http://speedtest1.axes.com.br:8080/speedtest/upload.php","lat":"-3.1000","lon":"-60.0167","distance":3115,"name":"Manaus","country":"Brazil","cc":"BR","sponsor":"AXES","id":"10934","preferred":0,"https_functional":1,"host":"speedtest1.axes.com.br.prod.hosts.ooklaserver.net:8080"},
{"url":"http://speedtest1.flashwifi.com.br:8080/speedtest/upload.php","lat":"-3.1000","lon":"-60.0167","distance":3115,"name":"Manaus","country":"Brazil","cc":"BR","sponsor":"Flash Wifi","id":"37349","preferred":0,"https_functional":1,"host":"speedtest1.flashwifi.com.br.prod.hosts.ooklaserver.net:8080"},
{"url":"http://speedtestam.vtal.net.br:8080/speedtest/upload.php","lat":"-3.1000","lon":"-60.0167","distance":3115,"name":"Manaus","country":"Brazil","cc":"BR","sponsor":"Vtal","id":"41076","preferred":0,"https_functional":1,"host":"speedtestam.vtal.net.br.prod.hosts.ooklaserver.net:8080"},
{"url":"https://spetstmns01.timbrasil.com.br:8080/speedtest/upload.php","lat":"-3.1000","lon":"-60.0167","distance":3115,"name":"Manaus","country":"Brazil","cc":"BR","sponsor":"TIM Brasil","id":"12562","preferred":0,"https_functional":1,"host":"spetstmns01.timbrasil.com.br:8080"},
{"url":"https://srvteste.edntelecom.net.br:8080/speedtest/upload.php","lat":"-3.1000","lon":"-60.0167","distance":3115,"name":"Manaus","country":"Brazil","cc":"BR","sponsor":"EDN TELECOM","id":"63592","preferred":0,"host":"srvteste.edntelecom.net.br:8080"},
{"url":"https://st.jnettelecom-am.com.br:8080/speedtest/upload.php","lat":"-3.1000","lon":"-60.0167","distance":3115,"name":"Manaus","country":"Brazil","cc":"BR","sponsor":"J Net Telecom","id":"33448","preferred":0,"https_functional":1,"host":"st.jnettelecom-am.com.br:8080"},
{"url":"https://stest.ultraconnect.com.br:8080/speedtest/upload.php","lat":"-3.1000","lon":"-60.0167","distance":3115,"name":"Manaus","country":"Brazil","cc":"BR","sponsor":"ULTRACONNECT","id":"62816","preferred":0,"https_functional":1,"host":"stest.ultraconnect.com.br:8080"},
{"url":"http://teste.diotelecom.com.br:8080/speedtest/upload.php","lat":"-3.1000","lon":"-60.0167","distance":3115,"name":"Manaus","country":"Brazil","cc":"BR","sponsor":"Dio Telecom","id":"18981","preferred":0,"https_functional":1,"host":"teste.diotelecom.com.br:8080"},
{"url":"https://teste.firenetwork.com.br:8080/speedtest/upload.php","lat":"-2.9857","lon":"-60.0031","distance":3108,"name":"Manaus","country":"Brazil","cc":"BR","sponsor":"FIRENETWORK LTDA","id":"40051","preferred":0,"https_functional":1,"host":"teste.firenetwork.com.br:8080"},
{"url":"https://teste.jsnet.manaus.br:8080/speedtest/upload.php","lat":"-3.1000","lon":"-60.0167","distance":3115,"name":"Manaus","country":"Brazil","cc":"BR","sponsor":"JSNET","id":"55160","preferred":0,"https_functional":1,"host":"teste.jsnet.manaus.br:8080"},
{"url":"https://teste.linkonfibra.com.br:8080/speedtest/upload.php","lat":"-3.1000","lon":"-60.0167","distance":3115,"name":"Manaus","country":"Brazil","cc":"BR","sponsor":"Link ON FIBRA","id":"63090","preferred":0,"https_functional":1,"host":"teste.linkonfibra.com.br:8080"},
{"url":"https://teste.mwhtelecom.com.br:8080/speedtest/upload.php","lat":"-3.1000","lon":"-60.0167","distance":3115,"name":"Manaus","country":"Brazil","cc":"BR","sponsor":"MWH FIBRA","id":"62420","preferred":0,"https_functional":1,"host":"teste.mwhtelecom.com.br:8080"},
{"url":"http://speedteste.newsolutionnet.com.br:8080/speedtest/upload.php","lat":"-3.1000","lon":"-60.0167","distance":3115,"name":"Manaus","country":"Brazil","cc":"BR","sponsor":"New Solution Net","id":"32474","preferred":0,"https_functional":1,"host":"teste.newsolutionnet.com.br:8080"},
{"url":"https://teste.oriontelecom.link:8080/speedtest/upload.php","lat":"-3.1190","lon":"-60.0217","distance":3116,"name":"Manaus","country":"Brazil","cc":"BR","sponsor":"ORION TELECOM LTDA","id":"19868","preferred":0,"https_functional":1,"host":"teste.oriontelecom.link:8080"},
{"url":"http://teste.reatelecom.com.br:8080/speedtest/upload.php","lat":"-3.1000","lon":"-60.0167","distance":3115,"name":"Manaus","country":"Brazil","cc":"BR","sponsor":"R&A Telecom","id":"28117","preferred":0,"https_functional":1,"host":"teste.reatelecom.com.br:8080"},
{"url":"https://teste.tstelecomltda.com.br:8080/speedtest/upload.php","lat":"-3.1000","lon":"-60.0167","distance":3115,"name":"Manaus","country":"Brazil","cc":"BR","sponsor":"TS TELECOM Ltda","id":"51463","preferred":0,"https_functional":1,"host":"teste.tstelecomltda.com.br:8080"},
{"url":"http://teste.wificonnect.com.br:8080/speedtest/upload.php","lat":"-3.1000","lon":"-60.0167","distance":3115,"name":"Manaus","country":"Brazil","cc":"BR","sponsor":"Wifi Connect","id":"64761","preferred":0,"https_functional":1,"host":"teste.wificonnect.com.br:8080"},
{"url":"http://teste.wsfibra.com.br:8080/speedtest/upload.php","lat":"-3.1000","lon":"-60.0167","distance":3115,"name":"Manaus","country":"Brazil","cc":"BR","sponsor":"WS-NET TELECOM","id":"36277","preferred":0,"host":"teste.wsfibra.com.br:8080"},
{"url":"https://teste.xtremenet.com.br:8080/speedtest/upload.php","lat":"-3.1000","lon":"-60.0167","distance":3115,"name":"Manaus","country":"Brazil","cc":"BR","sponsor":"Xtreme Soluções","id":"53923","preferred":0,"https_functional":1,"host":"teste.xtremenet.com.br:8080"},
{"url":"http://uptelecom.brsserver.com.br:8080/speedtest/upload.php","lat":"-3.1000","lon":"-60.0167","distance":3115,"name":"Manaus","country":"Brazil","cc":"BR","sponsor":"UP TELECOM","id":"68714","preferred":0,"https_functional":1,"host":"uptelecom.brsserver.com.br:8080"},
{"url":"https://velocidade-mns.4wnet.net.br:8080/speedtest/upload.php","lat":"3.1190","lon":"-60.0217","distance":2714,"name":"Manaus","country":"Brazil","cc":"BR","sponsor":"4WNET TELECOMUNICAÇÕES","id":"59038","preferred":0,"https_functional":1,"host":"velocidade-mns.4wnet.net.br:8080"},
{"url":"http://velocidade.hrctelecom.com.br:8080/speedtest/upload.php","lat":"-3.1000","lon":"-60.0167","distance":3115,"name":"Manaus","country":"Brazil","cc":"BR","sponsor":"HRC SERVIÇO DE COMUNICAÇÃO LTDA","id":"68163","preferred":0,"https_functional":1,"host":"velocidade.hrctelecom.com.br:8080"},
{"url":"http://velocidade.idnetttelecom.com.br:8080/speedtest/upload.php","lat":"-3.1000","lon":"-60.0167","distance":3115,"name":"Manaus","country":"Brazil","cc":"BR","sponsor":"IDNETT TELECOM","id":"28448","preferred":0,"https_functional":1,"host":"velocidade.idnetttelecom.com.br:8080"},
{"url":"https://velocidade.impertechtelecom.com.br:8080/speedtest/upload.php","lat":"-3.1000","lon":"-60.0167","distance":3115,"name":"Manaus","country":"Brazil","cc":"BR","sponsor":"Impertech Telecom","id":"28429","preferred":0,"host":"velocidade.impertechtelecom.com.br:8080"},
{"url":"https://velocidade.phinfortelecom.com.br:8080/speedtest/upload.php","lat":"-3.1000","lon":"-60.0167","distance":3115,"name":"Manaus","country":"Brazil","cc":"BR","sponsor":"PH Telecom","id":"12169","preferred":0,"https_functional":1,"host":"velocidade.phinfortelecom.com.br:8080"},
{"url":"http://velocimetro-mns.virtua.com.br:8080/speedtest/upload.php","lat":"-3.1000","lon":"-60.0167","distance":3115,"name":"Manaus","country":"Brazil","cc":"BR","sponsor":"Claro Net Vírtua","id":"22139","preferred":0,"https_functional":1,"host":"velocimetro-mns.virtua.com.br.prod.hosts.ooklaserver.net:8080"},
{"url":"https://velocimetro-spt.akto.com.br:8080/speedtest/upload.php","lat":"-3.1000","lon":"-60.0167","distance":3115,"name":"Manaus","country":"Brazil","cc":"BR","sponsor":"Akto Tecnologia","id":"63417","preferred":0,"https_functional":1,"host":"velocimetro-spt.akto.com.br:8080"},
{"url":"http://velocimetro.fibernetwork.com.br:8080/speedtest/upload.php","lat":"-3.1000","lon":"-60.0167","distance":3115,"name":"Manaus","country":"Brazil","cc":"BR","sponsor":"Fiber Network","id":"62778","preferred":0,"https_functional":1,"host":"velocimetro.fibernetwork.com.br.prod.hosts.ooklaserver.net:8080"},
{"url":"https://velocimetro.proveinter.com.br:8080/speedtest/upload.php","lat":"-3.1000","lon":"-60.0167","distance":3115,"name":"Manaus","country":"Brazil","cc":"BR","sponsor":"Proveinter","id":"33584","preferred":0,"https_functional":1,"host":"velocimetro.proveinter.com.br:8080"},
{"url":"http://velocimetro.speednetworks.com.br:8080/speedtest/upload.php","lat":"-3.1000","lon":"-60.0167","distance":3115,"name":"Manaus","country":"Brazil","cc":"BR","sponsor":"SpeedNetworks","id":"43375","preferred":0,"https_functional":1,"host":"velocimetro.speednetworks.com.br:8080"},
{"url":"http://velocimetro.wiretelecom.com.br:8080/speedtest/upload.php","lat":"-3.1000","lon":"-60.0167","distance":3115,"name":"Manaus","country":"Brazil","cc":"BR","sponsor":"Wire Telecom","id":"26279","preferred":0,"https_functional":1,"host":"velocimetro.wiretelecom.com.br.prod.hosts.ooklaserver.net:8080"},
{"url":"http://speedtest.redevisualnet.com.br:8080/speedtest/upload.php","lat":"-2.0014","lon":"-54.0741","distance":3207,"name":"Monte Alegre","country":"Brazil","cc":"BR","sponsor":"Visual Telecom","id":"40357","preferred":0,"https_functional":1,"host":"speedtest.redevisualnet.com.br.prod.hosts.ooklaserver.net:8080"},
{"url":"http://speedtest.topnettelecomservicos.com.br:8080/speedtest/upload.php","lat":"-2.0014","lon":"-54.0741","distance":3207,"name":"Monte Alegre","country":"Brazil","cc":"BR","sponsor":"TOPNET TELECOM","id":"41579","preferred":0,"https_functional":1,"host":"speedtest.topnettelecomservicos.com.br:8080"},
{"url":"http://speedtestalmtelecom.com.br:8080/speedtest/upload.php","lat":"-2.0014","lon":"-54.0741","distance":3207,"name":"Monte Alegre","country":"Brazil","cc":"BR","sponsor":"SpeedNet_Ultra","id":"36879","preferred":0,"https_functional":1,"host":"speedtestalmtelecom.com.br.prod.hosts.ooklaserver.net:8080"},
{"url":"http://test.infoconnecttelecom.com.br:8080/speedtest/upload.php","lat":"-2.1923","lon":"-56.7115","distance":3142,"name":"Nhamundá","country":"Brazil","cc":"BR","sponsor":"INFO CONNECT TELECOM LTDA","id":"47393","preferred":0,"https_functional":1,"host":"test.infoconnecttelecom.com.br:8080"},
{"url":"https://speedtest-obd.redeconecta.com:8080/speedtest/upload.php","lat":"-1.8964","lon":"-55.5176","distance":3157,"name":"Óbidos","country":"Brazil","cc":"BR","sponsor":"CONECTA AMAZÔNIA TELECOM LTDA","id":"47080","preferred":0,"https_functional":1,"host":"speedtest-obd.redeconecta.com:8080"},
{"url":"http://medidor.nortelecom.com.br:8080/speedtest/upload.php","lat":"3.8442","lon":"-51.8323","distance":2925,"name":"Oiapoque","country":"Brazil","cc":"BR","sponsor":"Norte Telecom","id":"45584","preferred":0,"https_functional":1,"host":"medidor.nortelecom.com.br.prod.hosts.ooklaserver.net:8080"},
{"url":"https://speedtest.orixinet.com.br:8080/speedtest/upload.php","lat":"-1.7607","lon":"-55.8629","distance":3139,"name":"Oriximiná","country":"Brazil","cc":"BR","sponsor":"Orixinet Telecom Ltda - Epp","id":"44831","preferred":0,"https_functional":1,"host":"speedtest.orixinet.com.br:8080"},
{"url":"http://velocidade.softtelecom.net.br:8080/speedtest/upload.php","lat":"-1.7607","lon":"-55.8629","distance":3139,"name":"Oriximiná","country":"Brazil","cc":"BR","sponsor":"Soft Telecom","id":"54909","preferred":0,"https_functional":1,"host":"velocidade.softtelecom.net.br:8080"},
{"url":"https://speedtest.connectbv8.com.br:8080/speedtest/upload.php","lat":"4.4784","lon":"-61.1483","distance":2598,"name":"Pacaraima","country":"Brazil","cc":"BR","sponsor":"Connect","id":"50736","preferred":0,"https_functional":1,"host":"speedtest.connectbv8.com.br:8080"},
{"url":"https://velocidade.conectato.com.br:8080/speedtest/upload.php","lat":"2.6320","lon":"-56.7331","distance":2838,"name":"Palmeirópolis","country":"Brazil","cc":"BR","sponsor":"Conecta TO","id":"67893","preferred":0,"https_functional":1,"host":"velocidade.conectato.com.br:8080"},
{"url":"http://ooklatins.redeconexaonet.com:8080/speedtest/upload.php","lat":"-2.6320","lon":"-56.7331","distance":3169,"name":"Parintins","country":"Brazil","cc":"BR","sponsor":"Rede ConexãoNet","id":"52848","preferred":0,"https_functional":1,"host":"ooklatins.redeconexaonet.com:8080"},
{"url":"https://veloteste.mrjomar.com.br:8080/speedtest/upload.php","lat":"-2.6320","lon":"-56.7331","distance":3169,"name":"Parintins","country":"Brazil","cc":"BR","sponsor":"MR Jomar","id":"58669","preferred":0,"https_functional":1,"host":"veloteste.mrjomar.com.br:8080"},
{"url":"http://speed.rnipnet.com.br:8080/speedtest/upload.php","lat":"0.9439","lon":"-60.4296","distance":2843,"name":"Rorainópolis","country":"Brazil","cc":"BR","sponsor":"RNiP Net","id":"68885","preferred":0,"https_functional":1,"host":"speed.rnipnet.com.br:8080"},
{"url":"https://speedtest-stm.redeconecta.com:8080/speedtest/upload.php","lat":"-2.4506","lon":"-54.7009","distance":3216,"name":"Santarém","country":"Brazil","cc":"BR","sponsor":"CONECTA AMAZÔNIA TELECOM","id":"26492","preferred":0,"https_functional":1,"host":"speedtest-stm.redeconecta.com:8080"},
{"url":"http://speedtestsantarem.zumtelecom.com.br:8080/speedtest/upload.php","lat":"-2.4506","lon":"-54.7009","distance":3216,"name":"Santarém","country":"Brazil","cc":"BR","sponsor":"ZUM Telecom","id":"53658","preferred":0,"https_functional":1,"host":"speedtestsantarem.zumtelecom.com.br.prod.hosts.ooklaserver.net:8080"},
{"url":"https://speedtest.cyberlinkinternet.com.br:8080/speedtest/upload.php","lat":"-23.4709","lon":"-47.4851","distance":4738,"name":"Sorocaba","country":"Brazil","cc":"BR","sponsor":"Cyberlink Fibra Óptica","id":"67609","preferred":0,"host":"speedtest.cyberlinkinternet.com.br:8080"},
{"url":"http://speedtest-tesa.coelhotecnologia.com.br:8080/speedtest/upload.php","lat":"-2.1046","lon":"-56.4882","distance":3143,"name":"Terra Santa","country":"Brazil","cc":"BR","sponsor":"Coelho Fibra","id":"65416","preferred":0,"https_functional":1,"host":"speedtest-tesa.coelhotecnologia.com.br.prod.hosts.ooklaserver.net:8080"},
{"url":"http://teste.speednetpa.net.br:8080/speedtest/upload.php","lat":"-2.4203","lon":"-61.8566","distance":3029,"name":"Tomé-Açú","country":"Brazil","cc":"BR","sponsor":"Speednet","id":"59834","preferred":0,"host":"teste.speednetpa.net.br:8080"},
{"url":"http://ookla.asanet.tec.br:8080/speedtest/upload.php","lat":"-3.1291","lon":"-58.1537","distance":3163,"name":"Urucurituba","country":"Brazil","cc":"BR","sponsor":"Asanet","id":"64831","preferred":0,"https_functional":1,"host":"ookla.asanet.tec.br.prod.hosts.ooklaserver.net:8080"},
{"url":"https://speedtest.systemlifeline.com:8080/speedtest/upload.php","lat":"43.7315","lon":"-79.7624","distance":357,"name":"Brampton, ON","country":"Canada","cc":"CA","sponsor":"System Lifeline Inc.","id":"23625","preferred":0,"https_functional":1,"host":"speedtest.systemlifeline.com.prod.hosts.ooklaserver.net:8080"},
{"url":"http://stbrampton.netcrawler.ca:8080/speedtest/upload.php","lat":"43.7315","lon":"-79.7624","distance":357,"name":"Brampton, ON","country":"Canada","cc":"CA","sponsor":"Netcrawler.ca Internet","id":"51020","preferred":0,"https_functional":1,"host":"stbrampton.netcrawler.ca.prod.hosts.ooklaserver.net:8080"},
{"url":"https://stbrampton.rogers.com:8080/speedtest/upload.php","lat":"43.7315","lon":"-79.7624","distance":357,"name":"Brampton, ON","country":"Canada","cc":"CA","sponsor":"Rogers","id":"46148","preferred":0,"https_functional":1,"host":"stbrampton.rogers.com:8080"},
{"url":"http://wirelinespeedtestbrampton.srvr.bell.ca:8080/speedtest/upload.php","lat":"43.7315","lon":"-79.7624","distance":357,"name":"Brampton, ON","country":"Canada","cc":"CA","sponsor":"Bell Canada","id":"53395","preferred":0,"https_functional":1,"host":"wirelinespeedtestbrampton.srvr.bell.ca.prod.hosts.ooklaserver.net:8080"},
{"url":"https://stbrantford.rogers.com:8080/speedtest/upload.php","lat":"43.1394","lon":"-80.2644","distance":326,"name":"Brantford, ON","country":"Canada","cc":"CA","sponsor":"Rogers","id":"47541","preferred":0,"https_functional":1,"host":"stbrantford.rogers.com:8080"},
{"url":"https://stbrantfordwireless.rogers.com:8080/speedtest/upload.php","lat":"43.1394","lon":"-80.2644","distance":326,"name":"Brantford, ON","country":"Canada","cc":"CA","sponsor":"Rogers Wireless","id":"46139","preferred":0,"https_functional":1,"host":"stbrantfordwireless.rogers.com:8080"},
{"url":"http://speedtest.cogeco.ca:8080/speedtest/upload.php","lat":"43.3255","lon":"-79.7990","distance":331,"name":"Burlington, ON","country":"Canada","cc":"CA","sponsor":"Cogeco Connexion Inc.","id":"17341","preferred":0,"https_functional":1,"host":"speedtest.cogeco.ca:8080"},
{"url":"http://wirelinespeedtestburlington.srvr.bell.ca:8080/speedtest/upload.php","lat":"43.3255","lon":"-79.7990","distance":331,"name":"Burlington, ON","country":"Canada","cc":"CA","sponsor":"Bell Canada","id":"46797","preferred":0,"https_functional":1,"host":"wirelinespeedtestburlington.srvr.bell.ca.prod.hosts.ooklaserver.net:8080"},
{"url":"http://speed.mpvnetworks.com:8080/speedtest/upload.php","lat":"42.4048","lon":"-82.1910","distance":332,"name":"Chatham, ON","country":"Canada","cc":"CA","sponsor":"MPVWIFI","id":"47304","preferred":0,"https_functional":1,"host":"speed.mpvnetworks.com.prod.hosts.ooklaserver.net:8080"},
{"url":"http://speedtest-tek.teksavvy.com:8080/speedtest/upload.php","lat":"42.4048","lon":"-82.1910","distance":332,"name":"Chatham, ON","country":"Canada","cc":"CA","sponsor":"Teksavvy Solutions Inc.","id":"47750","preferred":0,"https_functional":1,"host":"speedtest-tek.teksavvy.com.prod.hosts.ooklaserver.net:8080"},
{"url":"https://stchathamwireless.rogers.com:8080/speedtest/upload.php","lat":"42.4048","lon":"-82.1910","distance":332,"name":"Chatham, ON","country":"Canada","cc":"CA","sponsor":"Rogers Wireless","id":"47344","preferred":0,"https_functional":1,"host":"stchathamwireless.rogers.com:8080"},
{"url":"http://speedtest.gosfieldtel.ca:8080/speedtest/upload.php","lat":"42.1330","lon":"-82.7500","distance":339,"name":"Cottam, ON","country":"Canada","cc":"CA","sponsor":"Gosfield North Communications","id":"11505","preferred":0,"https_functional":1,"host":"speedtest.gosfieldtel.ca.prod.hosts.ooklaserver.net:8080"},
{"url":"http://stetobicoke.netcrawler.ca:8080/speedtest/upload.php","lat":"43.6205","lon":"-79.5132","distance":347,"name":"Etobicoke, ON","country":"Canada","cc":"CA","sponsor":"Netcrawler.ca Internet","id":"51046","preferred":0,"https_functional":1,"host":"stetobicoke.netcrawler.ca.prod.hosts.ooklaserver.net:8080"},
{"url":"https://stetobicoke.rogers.com:8080/speedtest/upload.php","lat":"43.6205","lon":"-79.5132","distance":347,"name":"Etobicoke, ON","country":"Canada","cc":"CA","sponsor":"Rogers","id":"46144","preferred":0,"https_functional":1,"host":"stetobicoke.rogers.com:8080"},
{"url":"https://stgeorgetownwireless.rogers.com:8080/speedtest/upload.php","lat":"43.6502","lon":"-79.9036","distance":354,"name":"Georgetown, ON","country":"Canada","cc":"CA","sponsor":"Rogers Wireless","id":"47345","preferred":0,"https_functional":1,"host":"stgeorgetownwireless.rogers.com:8080"},
{"url":"http://stguelph.netcrawler.ca:8080/speedtest/upload.php","lat":"43.5448","lon":"-80.2482","distance":352,"name":"Guelph, ON","country":"Canada","cc":"CA","sponsor":"Netcrawler.ca Internet","id":"54122","preferred":0,"https_functional":1,"host":"stguelph.netcrawler.ca.prod.hosts.ooklaserver.net:8080"},
{"url":"https://stguelph.rogers.com:8080/speedtest/upload.php","lat":"43.5448","lon":"-80.2482","distance":352,"name":"Guelph, ON","country":"Canada","cc":"CA","sponsor":"Rogers","id":"46435","preferred":0,"https_functional":1,"host":"stguelph.rogers.com:8080"},
{"url":"https://stguelphwireless.rogers.com:8080/speedtest/upload.php","lat":"43.5448","lon":"-80.2482","distance":352,"name":"Guelph, ON","country":"Canada","cc":"CA","sponsor":"Rogers Wireless","id":"47328","preferred":0,"https_functional":1,"host":"stguelphwireless.rogers.com:8080"},
{"url":"http://wirelinespeedtestcambridge.srvr.bell.ca:8080/speedtest/upload.php","lat":"43.5448","lon":"-80.2482","distance":352,"name":"Guelph, ON","country":"Canada","cc":"CA","sponsor":"Bell Canada","id":"46805","preferred":0,"https_functional":1,"host":"wirelinespeedtestcambridge.srvr.bell.ca.prod.hosts.ooklaserver.net:8080"},
{"url":"http://mobilityooklahamilton.srvr.bell.ca:8080/speedtest/upload.php","lat":"43.2565","lon":"-79.8675","distance":327,"name":"Hamilton, ON","country":"Canada","cc":"CA","sponsor":"Bell Mobility","id":"52347","preferred":0,"https_functional":1,"host":"mobilityooklahamilton.srvr.bell.ca.prod.hosts.ooklaserver.net:8080"},
{"url":"https://sp1.hcetelecom.com:8080/speedtest/upload.php","lat":"43.2565","lon":"-79.8675","distance":327,"name":"Hamilton, ON","country":"Canada","cc":"CA","sponsor":"Hamilton Community Enterprises","id":"21275","preferred":0,"https_functional":1,"host":"sp1.hcetelecom.com:8080"},
{"url":"http://sthamilton.netcrawler.ca:8080/speedtest/upload.php","lat":"43.2565","lon":"-79.8675","distance":327,"name":"Hamilton, ON","country":"Canada","cc":"CA","sponsor":"Netcrawler.ca Internet","id":"54123","preferred":0,"https_functional":1,"host":"sthamilton.netcrawler.ca.prod.hosts.ooklaserver.net:8080"},
{"url":"https://sthamilton.rogers.com:8080/speedtest/upload.php","lat":"43.2565","lon":"-79.8675","distance":327,"name":"Hamilton, ON","country":"Canada","cc":"CA","sponsor":"Rogers","id":"46432","preferred":0,"https_functional":1,"host":"sthamilton.rogers.com:8080"},
{"url":"https://sthamiltonwireless.rogers.com:8080/speedtest/upload.php","lat":"43.2565","lon":"-79.8675","distance":327,"name":"Hamilton, ON","country":"Canada","cc":"CA","sponsor":"Rogers Wireless","id":"47326","preferred":0,"https_functional":1,"host":"sthamiltonwireless.rogers.com:8080"},
{"url":"http://wirelinespeedtesthamilton.srvr.bell.ca:8080/speedtest/upload.php","lat":"43.2565","lon":"-79.8675","distance":327,"name":"Hamilton, ON","country":"Canada","cc":"CA","sponsor":"Bell Canada","id":"46796","preferred":0,"https_functional":1,"host":"wirelinespeedtesthamilton.srvr.bell.ca.prod.hosts.ooklaserver.net:8080"},
{"url":"http://speedtest.brooketel.coop:8080/speedtest/upload.php","lat":"42.8180","lon":"-81.9825","distance":348,"name":"Inwood, ON","country":"Canada","cc":"CA","sponsor":"Brooke Telecom Co-Operative Inc.","id":"55213","preferred":0,"https_functional":1,"host":"speedtest.brooketel.coop.prod.hosts.ooklaserver.net:8080"},
{"url":"http://speedtest.netflash.net:8080/speedtest/upload.php","lat":"43.4500","lon":"-80.4833","distance":350,"name":"Kitchener, ON","country":"Canada","cc":"CA","sponsor":"Netflash Internet","id":"1061","preferred":0,"https_functional":1,"host":"speedtest.netflash.net:8080"},
{"url":"http://stkitchener.rogers.com:8080/speedtest/upload.php","lat":"43.4500","lon":"-80.4833","distance":350,"name":"Kitchener, ON","country":"Canada","cc":"CA","sponsor":"Rogers","id":"46809","preferred":0,"https_functional":1,"host":"stkitchener.rogers.com:8080"},
{"url":"https://stkitchenerwireless.rogers.com:8080/speedtest/upload.php","lat":"43.4500","lon":"-80.4833","distance":350,"name":"Kitchener, ON","country":"Canada","cc":"CA","sponsor":"Rogers Wireless","id":"46125","preferred":0,"https_functional":1,"host":"stkitchenerwireless.rogers.com:8080"},
{"url":"http://wirelinespeedtestkitchener.srvr.bell.ca:8080/speedtest/upload.php","lat":"43.4500","lon":"-80.4833","distance":350,"name":"Kitchener, ON","country":"Canada","cc":"CA","sponsor":"Bell Canada","id":"46804","preferred":0,"https_functional":1,"host":"wirelinespeedtestkitchener.srvr.bell.ca.prod.hosts.ooklaserver.net:8080"},
{"url":"https://stleamingtonwireless.rogers.com:8080/speedtest/upload.php","lat":"42.0532","lon":"-82.5999","distance":329,"name":"Leamington, ON","country":"Canada","cc":"CA","sponsor":"Rogers Wireless","id":"47350","preferred":0,"https_functional":1,"host":"stleamingtonwireless.rogers.com:8080"},
{"url":"http://speedtest-london.start.ca:8080/speedtest/upload.php","lat":"42.9837","lon":"-81.2497","distance":337,"name":"London, ON","country":"Canada","cc":"CA","sponsor":"Start.ca","id":"24930","preferred":0,"https_functional":1,"host":"speedtest-london.start.ca.prod.hosts.ooklaserver.net:8080"},
{"url":"http://speedtest.nftctelecom.net:8080/speedtest/upload.php","lat":"42.9849","lon":"-81.2453","distance":337,"name":"London, ON","country":"Canada","cc":"CA","sponsor":"NFTC Telecom","id":"14068","preferred":0,"https_functional":1,"host":"speedtest.nftctelecom.net.prod.hosts.ooklaserver.net:8080"},
{"url":"http://stlondon.netcrawler.ca:8080/speedtest/upload.php","lat":"42.9849","lon":"-81.2453","distance":337,"name":"London, ON","country":"Canada","cc":"CA","sponsor":"Netcrawler.ca Internet","id":"54253","preferred":0,"https_functional":1,"host":"stlondon.netcrawler.ca.prod.hosts.ooklaserver.net:8080"},
{"url":"http://stlondon.rogers.com:8080/speedtest/upload.php","lat":"42.9849","lon":"-81.2453","distance":337,"name":"London, ON","country":"Canada","cc":"CA","sponsor":"Rogers","id":"46149","preferred":0,"https_functional":1,"host":"stlondon.rogers.com:8080"},
{"url":"https://stlondonwireless.rogers.com:8080/speedtest/upload.php","lat":"42.9849","lon":"-81.2453","distance":337,"name":"London, ON","country":"Canada","cc":"CA","sponsor":"Rogers Wireless","id":"46137","preferred":0,"https_functional":1,"host":"stlondonwireless.rogers.com:8080"},
{"url":"http://wirelinespeedtestlondon.srvr.bell.ca:8080/speedtest/upload.php","lat":"42.9849","lon":"-81.2453","distance":337,"name":"London, ON","country":"Canada","cc":"CA","sponsor":"Bell Canada","id":"57695","preferred":0,"https_functional":1,"host":"wirelinespeedtestlondon.srvr.bell.ca.prod.hosts.ooklaserver.net:8080"},
{"url":"http://clg-105-sptest.ncri.com:8080/speedtest/upload.php","lat":"43.6481","lon":"-79.4042","distance":348,"name":"Markham, ON","country":"Canada","cc":"CA","sponsor":"NCRi","id":"59812","preferred":0,"https_functional":1,"host":"clg-105-sptest.ncri.com.prod.hosts.ooklaserver.net:8080"},
{"url":"http://wirelinespeedtestmarkham.srvr.bell.ca:8080/speedtest/upload.php","lat":"43.6481","lon":"-79.4042","distance":348,"name":"Markham, ON","country":"Canada","cc":"CA","sponsor":"Bell Canada","id":"17394","preferred":0,"https_functional":1,"host":"wirelinespeedtestmarkham.srvr.bell.ca.prod.hosts.ooklaserver.net:8080"},
{"url":"http://stmilton.rogers.com:8080/speedtest/upload.php","lat":"43.5183","lon":"-79.8774","distance":345,"name":"Milton, ON","country":"Canada","cc":"CA","sponsor":"Rogers","id":"47540","preferred":0,"https_functional":1,"host":"stmilton.rogers.com:8080"},
{"url":"https://stmiltonwireless.rogers.com:8080/speedtest/upload.php","lat":"43.5183","lon":"-79.8774","distance":345,"name":"Milton, ON","country":"Canada","cc":"CA","sponsor":"Rogers Wireless","id":"47330","preferred":0,"https_functional":1,"host":"stmiltonwireless.rogers.com:8080"},
{"url":"http://stmississauga.netcrawler.ca:8080/speedtest/upload.php","lat":"43.6000","lon":"-79.6500","distance":347,"name":"Mississauga, ON","country":"Canada","cc":"CA","sponsor":"Netcrawler.ca Internet","id":"48976","preferred":0,"https_functional":1,"host":"stmississauga.netcrawler.ca.prod.hosts.ooklaserver.net:8080"},
{"url":"https://stmississauga.rogers.com:8080/speedtest/upload.php","lat":"43.6000","lon":"-79.6500","distance":347,"name":"Mississauga, ON","country":"Canada","cc":"CA","sponsor":"Rogers","id":"46147","preferred":0,"https_functional":1,"host":"stmississauga.rogers.com:8080"},
{"url":"https://stmississaugawireless.rogers.com:8080/speedtest/upload.php","lat":"43.6000","lon":"-79.6500","distance":347,"name":"Mississauga, ON","country":"Canada","cc":"CA","sponsor":"Rogers Wireless","id":"46123","preferred":0,"https_functional":1,"host":"stmississaugawireless.rogers.com:8080"},
{"url":"http://wirelinespeedtestmississauga.srvr.bell.ca:8080/speedtest/upload.php","lat":"43.6000","lon":"-79.6500","distance":347,"name":"Mississauga, ON","country":"Canada","cc":"CA","sponsor":"Bell Canada","id":"56780","preferred":0,"https_functional":1,"host":"wirelinespeedtestmississauga.srvr.bell.ca.prod.hosts.ooklaserver.net:8080"},
{"url":"http://speedtest-mtl.beanfield.com:8080/speedtest/upload.php","lat":"45.5017","lon":"-73.5673","distance":525,"name":"Montreal, QC","country":"Canada","cc":"CA","sponsor":"Beanfield","id":"16045","preferred":0,"https_functional":1,"host":"speedtest-mtl.beanfield.com.prod.hosts.ooklaserver.net:8080"},
{"url":"http://speedtest.cdmsfirst.com:8080/speedtest/upload.php","lat":"45.5017","lon":"-73.5673","distance":525,"name":"Montreal, QC","country":"Canada","cc":"CA","sponsor":"CDMS","id":"63155","preferred":0,"https_functional":1,"host":"speedtest.cdmsfirst.com:8080"},
{"url":"http://speedtest.xcdtelecom.com:8080/speedtest/upload.php","lat":"45.5017","lon":"-73.5673","distance":525,"name":"Montreal, QC","country":"Canada","cc":"CA","sponsor":"XCD Télécom","id":"59219","preferred":0,"https_functional":1,"host":"speedtest.xcdtelecom.com.prod.hosts.ooklaserver.net:8080"},
{"url":"http://stmontreal.netcrawler.ca:8080/speedtest/upload.php","lat":"45.5019","lon":"-73.5674","distance":525,"name":"Montreal, QC","country":"Canada","cc":"CA","sponsor":"Netcrawler.ca Internet","id":"64420","preferred":0,"https_functional":1,"host":"stmontreal.netcrawler.ca.prod.hosts.ooklaserver.net:8080"},
{"url":"http://wirelinespeedtestmontreal.srvr.bell.ca:8080/speedtest/upload.php","lat":"45.5017","lon":"-73.5673","distance":525,"name":"Montreal, QC","country":"Canada","cc":"CA","sponsor":"Bell Canada","id":"58956","preferred":0,"https_functional":1,"host":"wirelinespeedtestmontreal.srvr.bell.ca.prod.hosts.ooklaserver.net:8080"},
{"url":"http://speedtest.hep.gg:8080/speedtest/upload.php","lat":"43.0962","lon":"-79.0377","distance":307,"name":"Niagara Falls, ON","country":"Canada","cc":"CA","sponsor":"Team Hydra","id":"38299","preferred":0,"https_functional":1,"host":"speedtest.hep.gg.prod.hosts.ooklaserver.net:8080"},
{"url":"http://speedtest.nrbn.ca:8080/speedtest/upload.php","lat":"43.0896","lon":"-79.0849","distance":307,"name":"Niagara Falls, ON","country":"Canada","cc":"CA","sponsor":"NRBN","id":"26573","preferred":0,"https_functional":1,"host":"speedtest.nrbn.ca.prod.hosts.ooklaserver.net:8080"},
{"url":"http://stnorthyork.netcrawler.ca:8080/speedtest/upload.php","lat":"43.7615","lon":"-79.4111","distance":356,"name":"North York, ON","country":"Canada","cc":"CA","sponsor":"Netcrawler.ca Internet","id":"54220","preferred":0,"https_functional":1,"host":"stnorthyork.netcrawler.ca.prod.hosts.ooklaserver.net:8080"},
{"url":"https://stnorthyork.rogers.com:8080/speedtest/upload.php","lat":"43.7615","lon":"-79.4111","distance":356,"name":"North York, ON","country":"Canada","cc":"CA","sponsor":"Rogers","id":"46811","preferred":0,"https_functional":1,"host":"stnorthyork.rogers.com:8080"},
{"url":"https://stnorthyorkwireless.rogers.com:8080/speedtest/upload.php","lat":"43.7615","lon":"-79.4111","distance":356,"name":"North York, ON","country":"Canada","cc":"CA","sponsor":"Rogers Wireless","id":"46761","preferred":0,"https_functional":1,"host":"stnorthyorkwireless.rogers.com:8080"},
{"url":"http://tor21spd01.srvr.bell.ca:8080/speedtest/upload.php","lat":"43.7615","lon":"-79.4111","distance":356,"name":"North York, ON","country":"Canada","cc":"CA","sponsor":"Bell Canada","id":"17568","preferred":0,"https_functional":1,"host":"tor21spd01.srvr.bell.ca.prod.hosts.ooklaserver.net:8080"},
{"url":"https://stoakville.rogers.com:8080/speedtest/upload.php","lat":"43.4675","lon":"-79.6877","distance":339,"name":"Oakville, ON","country":"Canada","cc":"CA","sponsor":"Rogers","id":"46763","preferred":0,"https_functional":1,"host":"stoakville.rogers.com:8080"},
{"url":"http://stscarborough.netcrawler.ca:8080/speedtest/upload.php","lat":"43.7764","lon":"-79.2318","distance":355,"name":"Scarborough, ON","country":"Canada","cc":"CA","sponsor":"Netcrawler.ca Internet","id":"46837","preferred":0,"https_functional":1,"host":"stscarborough.netcrawler.ca.prod.hosts.ooklaserver.net:8080"},
{"url":"https://stscarborough.rogers.com:8080/speedtest/upload.php","lat":"43.7764","lon":"-79.2318","distance":355,"name":"Scarborough, ON","country":"Canada","cc":"CA","sponsor":"Rogers","id":"46431","preferred":0,"https_functional":1,"host":"stscarborough.rogers.com:8080"},
{"url":"http://wirelinespeedtestscarborough.srvr.bell.ca:8080/speedtest/upload.php","lat":"43.7764","lon":"-79.2318","distance":355,"name":"Scarborough, ON","country":"Canada","cc":"CA","sponsor":"Bell Canada","id":"53394","preferred":0,"https_functional":1,"host":"wirelinespeedtestscarborough.srvr.bell.ca.prod.hosts.ooklaserver.net:8080"},
{"url":"http://speedtest.beyondair.ca:8080/speedtest/upload.php","lat":"42.7137","lon":"-82.4784","distance":358,"name":"Sombra, ON","country":"Canada","cc":"CA","sponsor":"Beyond Air Networks Ltd","id":"64012","preferred":0,"https_functional":1,"host":"speedtest.beyondair.ca.prod.hosts.ooklaserver.net:8080"},
{"url":"https://ststcatharineswireless.rogers.com:8080/speedtest/upload.php","lat":"43.1594","lon":"-79.2469","distance":313,"name":"St. Catharines, ON","country":"Canada","cc":"CA","sponsor":"Rogers Wireless","id":"46138","preferred":0,"https_functional":1,"host":"ststcatharineswireless.rogers.com:8080"},
{"url":"http://wirelinespeedteststcatharines.srvr.bell.ca:8080/speedtest/upload.php","lat":"43.1594","lon":"-79.2469","distance":313,"name":"St. Catharines, ON","country":"Canada","cc":"CA","sponsor":"Bell Canada","id":"46794","preferred":0,"https_functional":1,"host":"wirelinespeedteststcatharines.srvr.bell.ca.prod.hosts.ooklaserver.net:8080"},
{"url":"https://ststthomas.rogers.com:8080/speedtest/upload.php","lat":"42.7777","lon":"-81.1827","distance":323,"name":"St. Thomas, ON","country":"Canada","cc":"CA","sponsor":"Rogers","id":"47542","preferred":0,"https_functional":1,"host":"ststthomas.rogers.com:8080"},
{"url":"https://ststthomaswireless.rogers.com:8080/speedtest/upload.php","lat":"42.7777","lon":"-81.1827","distance":323,"name":"St. Thomas, ON","country":"Canada","cc":"CA","sponsor":"Rogers Wireless","id":"47346","preferred":0,"https_functional":1,"host":"ststthomaswireless.rogers.com:8080"},
{"url":"http://wirelinespeedteststthomas.srvr.bell.ca:8080/speedtest/upload.php","lat":"42.7777","lon":"-81.1827","distance":323,"name":"St. Thomas, ON","country":"Canada","cc":"CA","sponsor":"Bell Canada","id":"43553","preferred":0,"https_functional":1,"host":"wirelinespeedteststthomas.srvr.bell.ca.prod.hosts.ooklaserver.net:8080"},
{"url":"https://ststratford.rogers.com:8080/speedtest/upload.php","lat":"43.3700","lon":"-80.9822","distance":354,"name":"Stratford, ON","country":"Canada","cc":"CA","sponsor":"Rogers","id":"47547","preferred":0,"https_functional":1,"host":"ststratford.rogers.com:8080"},
{"url":"https://ststratfordwireless.rogers.com:8080/speedtest/upload.php","lat":"43.3700","lon":"-80.9822","distance":354,"name":"Stratford, ON","country":"Canada","cc":"CA","sponsor":"Rogers Wireless","id":"47353","preferred":0,"https_functional":1,"host":"ststratfordwireless.rogers.com:8080"},
{"url":"http://speedtest.seaside.ns.ca:8080/speedtest/upload.php","lat":"46.1378","lon":"-60.1829","distance":1048,"name":"Sydney, NS","country":"Canada","cc":"CA","sponsor":"Seaside Communications","id":"1245","preferred":0,"https_functional":1,"host":"speedtest.seaside.ns.ca.prod.hosts.ooklaserver.net:8080"},
{"url":"http://wirelinespeedtestsydney.srvr.bell.ca:8080/speedtest/upload.php","lat":"46.1378","lon":"-60.1829","distance":1048,"name":"Sydney, NS","country":"Canada","cc":"CA","sponsor":"Bell Aliant","id":"55031","preferred":0,"https_functional":1,"host":"wirelinespeedtestsydney.srvr.bell.ca.prod.hosts.ooklaserver.net:8080"},
{"url":"http://wirelinespeedtesttecumseh.srvr.bell.ca:8080/speedtest/upload.php","lat":"42.3118","lon":"-82.8858","distance":352,"name":"Tecumseh, ON","country":"Canada","cc":"CA","sponsor":"Bell Canada","id":"46799","preferred":0,"https_functional":1,"host":"wirelinespeedtesttecumseh.srvr.bell.ca.prod.hosts.ooklaserver.net:8080"},
{"url":"http://wirelinespeedtestthorold.srvr.bell.ca:8080/speedtest/upload.php","lat":"43.1236","lon":"-79.1989","distance":310,"name":"Thorold, ON","country":"Canada","cc":"CA","sponsor":"Bell Canada","id":"46795","preferred":0,"https_functional":1,"host":"wirelinespeedtestthorold.srvr.bell.ca.prod.hosts.ooklaserver.net:8080"},
{"url":"http://east-speedtest.frontiernetworks.ca:8080/speedtest/upload.php","lat":"43.6481","lon":"-79.4042","distance":348,"name":"Toronto, ON","country":"Canada","cc":"CA","sponsor":"Frontier Networks Inc","id":"13238","preferred":0,"https_functional":1,"host":"east-speedtest.frontiernetworks.ca.prod.hosts.ooklaserver.net:8080"},
{"url":"http://falcon.its.utoronto.ca:8080/speedtest/upload.php","lat":"43.6481","lon":"-79.4042","distance":348,"name":"Toronto, ON","country":"Canada","cc":"CA","sponsor":"University of Toronto","id":"22138","preferred":0,"https_functional":1,"host":"falcon.its.utoronto.ca:8080"},
{"url":"http://spdtst.xenyth.net:8080/speedtest/upload.php","lat":"43.6481","lon":"-79.4042","distance":348,"name":"Toronto, ON","country":"Canada","cc":"CA","sponsor":"GoCodeIT Inc","id":"38242","preferred":0,"https_functional":1,"host":"spdtst.xenyth.net.prod.hosts.ooklaserver.net:8080"},
{"url":"http://speedtest-ca.pq.hosting:8080/speedtest/upload.php","lat":"43.6532","lon":"-79.3832","distance":348,"name":"Toronto, ON","country":"Canada","cc":"CA","sponsor":"PQ.Hosting","id":"64811","preferred":0,"https_functional":1,"host":"speedtest-ca.pq.hosting:8080"},
{"url":"http://speedtest-engine.primus.ca/speedtest/upload.php","lat":"43.6487","lon":"-79.3854","distance":348,"name":"Toronto, ON","country":"Canada","cc":"CA","sponsor":"Primus","id":"15038","preferred":0,"https_functional":1,"host":"speedtest-engine.primus.ca.prod.hosts.ooklaserver.net:8080"},
{"url":"http://speedtest-tor.beanfield.com:8080/speedtest/upload.php","lat":"43.6481","lon":"-79.4042","distance":348,"name":"Toronto, ON","country":"Canada","cc":"CA","sponsor":"Beanfield","id":"64882","preferred":0,"https_functional":1,"host":"speedtest-tor.beanfield.com.prod.hosts.ooklaserver.net:8080"},
{"url":"http://speedtest.netcrawler.ca:8080/speedtest/upload.php","lat":"43.6481","lon":"-79.4042","distance":348,"name":"Toronto, ON","country":"Canada","cc":"CA","sponsor":"Netcrawler.ca Internet","id":"46580","preferred":0,"https_functional":1,"host":"speedtest.netcrawler.ca.prod.hosts.ooklaserver.net:8080"},
{"url":"http://speedtest.nexicom.net:8080/speedtest/upload.php","lat":"43.6481","lon":"-79.4042","distance":348,"name":"Toronto, ON","country":"Canada","cc":"CA","sponsor":"Nexicom Inc.","id":"826","preferred":0,"https_functional":1,"host":"speedtest.nexicom.net.prod.hosts.ooklaserver.net:8080"},
{"url":"http://speedtest1.innsys.ca:8080/speedtest/upload.php","lat":"43.6481","lon":"-79.4042","distance":348,"name":"Toronto, ON","country":"Canada","cc":"CA","sponsor":"InnSys Inc","id":"50317","preferred":0,"https_functional":1,"host":"speedtest1.innsys.ca.prod.hosts.ooklaserver.net:8080"},
{"url":"http://speedtest1.xbase.com:8080/speedtest/upload.php","lat":"43.6481","lon":"-79.4042","distance":348,"name":"Toronto, ON","country":"Canada","cc":"CA","sponsor":"XBASE Technologies","id":"59322","preferred":0,"https_functional":1,"host":"speedtest1.xbase.com.prod.hosts.ooklaserver.net:8080"},
{"url":"http://speedtest2-tor.teksavvy.com:8080/speedtest/upload.php","lat":"43.6532","lon":"-79.3832","distance":348,"name":"Toronto, ON","country":"Canada","cc":"CA","sponsor":"Teksavvy Solutions Inc","id":"32632","preferred":0,"https_functional":1,"host":"speedtest2-tor.teksavvy.com.prod.hosts.ooklaserver.net:8080"},
{"url":"http://speedtester.comwave.net:8080/speedtest/upload.php","lat":"43.6481","lon":"-79.4042","distance":348,"name":"Toronto, ON","country":"Canada","cc":"CA","sponsor":"Comwave Networks Inc","id":"31127","preferred":0,"https_functional":1,"host":"speedtester.comwave.net.prod.hosts.ooklaserver.net:8080"},
{"url":"https://sttoronto.rogers.com:8080/speedtest/upload.php","lat":"43.6481","lon":"-79.4042","distance":348,"name":"Toronto, ON","country":"Canada","cc":"CA","sponsor":"Rogers","id":"46143","preferred":0,"https_functional":1,"host":"sttoronto.rogers.com:8080"},
{"url":"https://sttorontowireless.rogers.com:8080/speedtest/upload.php","lat":"43.6481","lon":"-79.4042","distance":348,"name":"Toronto, ON","country":"Canada","cc":"CA","sponsor":"Rogers Wireless","id":"46759","preferred":0,"https_functional":1,"host":"sttorontowireless.rogers.com:8080"},
{"url":"http://T4Y-Tor-STS1.Ser.Tek4You.ca:8080/speedtest/upload.php","lat":"43.6481","lon":"-79.4042","distance":348,"name":"Toronto, ON","country":"Canada","cc":"CA","sponsor":"Tek4You Computer Repair & IT Services","id":"54410","preferred":0,"https_functional":1,"host":"T4Y-Tor-STS1.Ser.Tek4You.ca.prod.hosts.ooklaserver.net:8080"},
{"url":"http://tor-speedtest.net.sangoma.net:8080/speedtest/upload.php","lat":"43.6481","lon":"-79.4042","distance":348,"name":"Toronto, ON","country":"Canada","cc":"CA","sponsor":"Sangoma","id":"63994","preferred":0,"https_functional":1,"host":"tor-speedtest.net.sangoma.net.prod.hosts.ooklaserver.net:8080"},
{"url":"http://tor11speedtest01.srvr.bell.ca:8080/speedtest/upload.php","lat":"43.6481","lon":"-79.4042","distance":348,"name":"Toronto, ON","country":"Canada","cc":"CA","sponsor":"Bell Mobility","id":"16753","preferred":0,"https_functional":1,"host":"tor11speedtest01.srvr.bell.ca.prod.hosts.ooklaserver.net:8080"},
{"url":"http://toronto.speedtest.telus.com:8080/speedtest/upload.php","lat":"43.6481","lon":"-79.4042","distance":348,"name":"Toronto, ON","country":"Canada","cc":"CA","sponsor":"TELUS","id":"3575","preferred":0,"https_functional":1,"host":"toronto.speedtest.telus.com.prod.hosts.ooklaserver.net:8080"},
{"url":"http://toronto2.speedtest.telus.com:8080/speedtest/upload.php","lat":"43.6481","lon":"-79.4042","distance":348,"name":"Toronto, ON","country":"Canada","cc":"CA","sponsor":"TELUS Mobility","id":"24698","preferred":0,"https_functional":1,"host":"toronto2.speedtest.telus.com.prod.hosts.ooklaserver.net:8080"},
{"url":"http://trtspeedtest.altimatel.com:8080/speedtest/upload.php","lat":"43.6481","lon":"-79.4042","distance":348,"name":"Toronto, ON","country":"Canada","cc":"CA","sponsor":"Altima Telecom","id":"63649","preferred":0,"https_functional":1,"host":"trtspeedtest.altimatel.com.prod.hosts.ooklaserver.net:8080"},
{"url":"http://tsdvuspeedtest01p.allstream.com:8080/speedtest/upload.php","lat":"43.6481","lon":"-79.4042","distance":348,"name":"Toronto, ON","country":"Canada","cc":"CA","sponsor":"allstream","id":"56781","preferred":0,"https_functional":1,"host":"tsdvuspeedtest01p.allstream.com.prod.hosts.ooklaserver.net:8080"},
{"url":"http://wirelinespeedtesttoronto.srvr.bell.ca:8080/speedtest/upload.php","lat":"43.6481","lon":"-79.4042","distance":348,"name":"Toronto, ON","country":"Canada","cc":"CA","sponsor":"Bell Canada","id":"53393","preferred":0,"https_functional":1,"host":"wirelinespeedtesttoronto.srvr.bell.ca.prod.hosts.ooklaserver.net:8080"},
{"url":"http://yyz-speedtest.xplore.ca:8080/speedtest/upload.php","lat":"43.6481","lon":"-79.4042","distance":348,"name":"Toronto, ON","country":"Canada","cc":"CA","sponsor":"Xplore Inc.","id":"53159","preferred":0,"https_functional":1,"host":"yyz-speedtest.xplore.ca.prod.hosts.ooklaserver.net:8080"},
{"url":"https://speedtest.packetworks.net:8080/speedtest/upload.php","lat":"43.4667","lon":"-80.5167","distance":351,"name":"Waterloo, ON","country":"Canada","cc":"CA","sponsor":"Packetworks","id":"22208","preferred":0,"https_functional":1,"host":"speedtest.packetworks.net:8080"},
{"url":"http://stwaterloo.netcrawler.ca:8080/speedtest/upload.php","lat":"43.4667","lon":"-80.5167","distance":351,"name":"Waterloo, ON","country":"Canada","cc":"CA","sponsor":"Netcrawler.ca Internet","id":"54207","preferred":0,"https_functional":1,"host":"stwaterloo.netcrawler.ca.prod.hosts.ooklaserver.net:8080"},
{"url":"https://stwaterloo.rogers.com:8080/speedtest/upload.php","lat":"43.4667","lon":"-80.5167","distance":351,"name":"Waterloo, ON","country":"Canada","cc":"CA","sponsor":"Rogers","id":"46765","preferred":0,"https_functional":1,"host":"stwaterloo.rogers.com:8080"},
{"url":"https://stwellandpelhamwireless.rogers.com:8080/speedtest/upload.php","lat":"42.9922","lon":"-79.2483","distance":302,"name":"Welland–Pelham, ON","country":"Canada","cc":"CA","sponsor":"Rogers Wireless","id":"47341","preferred":0,"https_functional":1,"host":"stwellandpelhamwireless.rogers.com:8080"},
{"url":"http://speedtest.fibernetics.ca:8080/speedtest/upload.php","lat":"43.4500","lon":"-80.4833","distance":350,"name":"Whitby, ON","country":"Canada","cc":"CA","sponsor":"Fibernetics Corporation","id":"68661","preferred":0,"https_functional":1,"host":"speedtest.fibernetics.ca:8080"},
{"url":"https://40gspeedtest.mnsi.net:8080/speedtest/upload.php","lat":"42.2833","lon":"-83.0000","distance":355,"name":"Windsor, ON","country":"Canada","cc":"CA","sponsor":"MNSi Telecom","id":"55994","preferred":0,"https_functional":1,"host":"40gspeedtest.mnsi.net:8080"},
{"url":"https://stwindsorwireless.rogers.com:8080/speedtest/upload.php","lat":"42.2833","lon":"-83.0000","distance":355,"name":"Windsor, ON","country":"Canada","cc":"CA","sponsor":"Rogers Wireless","id":"46126","preferred":0,"https_functional":1,"host":"stwindsorwireless.rogers.com:8080"},
{"url":"http://wirelinespeedtestwindsor.srvr.bell.ca:8080/speedtest/upload.php","lat":"42.2833","lon":"-83.0000","distance":355,"name":"Windsor, ON","country":"Canada","cc":"CA","sponsor":"Bell Canada","id":"46798","preferred":0,"https_functional":1,"host":"wirelinespeedtestwindsor.srvr.bell.ca.prod.hosts.ooklaserver.net:8080"},
{"url":"https://speedtest.execulink.ca:8080/speedtest/upload.php","lat":"43.1315","lon":"-80.7472","distance":335,"name":"Woodstock, ON","country":"Canada","cc":"CA","sponsor":"Execulink Telecom Inc","id":"16447","preferred":0,"host":"speedtest.execulink.ca:8080"},
{"url":"https://stwoodstock.rogers.com:8080/speedtest/upload.php","lat":"43.1315","lon":"-80.7472","distance":335,"name":"Woodstock, ON","country":"Canada","cc":"CA","sponsor":"Rogers","id":"47543","preferred":0,"https_functional":1,"host":"stwoodstock.rogers.com:8080"},
{"url":"https://stwoodstockwireless.rogers.com:8080/speedtest/upload.php","lat":"43.1315","lon":"-80.7472","distance":335,"name":"Woodstock, ON","country":"Canada","cc":"CA","sponsor":"Rogers Wireless","id":"47348","preferred":0,"https_functional":1,"host":"stwoodstockwireless.rogers.com:8080"},
{"url":"http://mobilityooklanorthyork.srvr.bell.ca:8080/speedtest/upload.php","lat":"43.6957","lon":"-79.4504","distance":351,"name":"York, ON","country":"Canada","cc":"CA","sponsor":"Bell Mobility","id":"52346","preferred":0,"https_functional":1,"host":"mobilityooklanorthyork.srvr.bell.ca.prod.hosts.ooklaserver.net:8080"},
{"url":"http://speedtest1.sc.chinamobile.com:8080/speedtest/upload.php","lat":"30.6586","lon":"104.0647","distance":7650,"name":"Chengdu","country":"China","cc":"CN","sponsor":"China Mobile Group Sichuan","id":"4575","preferred":0,"https_functional":1,"host":"speedtest1.sc.chinamobile.com:8080"},
{"url":"http://speedtest2.dpdfsd.com:8080/speedtest/upload.php","lat":"23.1291","lon":"113.2644","distance":8110,"name":"Guangzhou","country":"China","cc":"CN","sponsor":"GuangZhou-5G","id":"60794","preferred":0,"https_functional":1,"host":"speedtest2.dpdfsd.com.prod.hosts.ooklaserver.net:8080"},
{"url":"http://speedtest.139play.com:8080/speedtest/upload.php","lat":"30.2741","lon":"120.1552","distance":7535,"name":"Hangzhou","country":"China","cc":"CN","sponsor":"China Mobile Zhejiang 5G","id":"54312","preferred":0,"https_functional":1,"host":"speedtest.139play.com.prod.hosts.ooklaserver.net:8080"},
{"url":"http://cesu-hz.zjtelecom.com.cn:8080/speedtest/upload.php","lat":"30.2741","lon":"120.1552","distance":7535,"name":"HangZhou","country":"China","cc":"CN","sponsor":"浙江电信","id":"59386","preferred":0,"https_functional":1,"host":"cesu-hz.zjtelecom.com.cn.prod.hosts.ooklaserver.net:8080"},
{"url":"http://speedtest.dukekunshan.edu.cn:8080/speedtest/upload.php","lat":"31.3856","lon":"120.9807","distance":7448,"name":"Kunshan","country":"China","cc":"CN","sponsor":"Duke Kunshan University","id":"30852","preferred":0,"https_functional":1,"host":"speedtest.dukekunshan.edu.cn:8080"},
{"url":"http://cesu-nb.zjtelecom.com.cn:8080/speedtest/upload.php","lat":"29.8683","lon":"121.5440","distance":7540,"name":"NingBo","country":"China","cc":"CN","sponsor":"浙江电信","id":"59387","preferred":0,"https_functional":1,"host":"cesu-nb.zjtelecom.com.cn.prod.hosts.ooklaserver.net:8080"},
{"url":"http://speedtest1.dpdfsd.com:8080/speedtest/upload.php","lat":"22.5429","lon":"114.0596","distance":8140,"name":"ShenZhen","country":"China","cc":"CN","sponsor":"ShenZhen-5G","id":"60584","preferred":0,"https_functional":1,"host":"speedtest1.dpdfsd.com.prod.hosts.ooklaserver.net:8080"},
{"url":"http://4gsuzhou1.speedtest.jsinfo.net:8080/speedtest/upload.php","lat":"31.2990","lon":"120.5853","distance":7460,"name":"Suzhou","country":"China","cc":"CN","sponsor":"China Telecom JiangSu 5G","id":"5396","preferred":0,"https_functional":1,"host":"4gsuzhou1.speedtest.jsinfo.net.prod.hosts.ooklaserver.net:8080"},
{"url":"https://speedtest.jsqiuying.com:8080/speedtest/upload.php","lat":"31.2990","lon":"120.5853","distance":7460,"name":"Suzhou","country":"China","cc":"CN","sponsor":"JSQY - Suzhou","id":"16204","preferred":0,"https_functional":1,"host":"speedtest.jsqiuying.com:8080"},
{"url":"http://5gzhenjiang.speedtest.jsinfo.net:8080/speedtest/upload.php","lat":"32.2069","lon":"119.4490","distance":7416,"name":"Zhenjiang","country":"China","cc":"CN","sponsor":"China Telecom JiangSu 5G","id":"36663","preferred":0,"https_functional":1,"host":"5gzhenjiang.speedtest.jsinfo.net.prod.hosts.ooklaserver.net:8080"},
{"url":"http://speedtest.tigo.cr:8080/speedtest/upload.php","lat":"9.9247","lon":"-84.0781","distance":2025,"name":"San Jose","country":"Costa Rica","cc":"CR","sponsor":"Tigo Costa Rica","id":"31905","preferred":0,"host":"speedtest.tigo.cr:8080"},
{"url":"http://st.fratec.net:8080/speedtest/upload.php","lat":"9.9408","lon":"-84.0247","distance":2023,"name":"San Jose","country":"Costa Rica","cc":"CR","sponsor":"Sistemas Fratec S.A.","id":"60075","preferred":0,"https_functional":1,"host":"st.fratec.net.prod.hosts.ooklaserver.net:8080"},
{"url":"http://speed.data.cr:8080/speedtest/upload.php","lat":"9.9247","lon":"-84.0781","distance":2025,"name":"San José","country":"Costa Rica","cc":"CR","sponsor":"American Data Networks","id":"41628","preferred":0,"https_functional":1,"host":"speed.data.cr.prod.hosts.ooklaserver.net:8080"},
{"url":"http://speedtest.coopesantos.com:8080/speedtest/upload.php","lat":"9.9408","lon":"-84.0247","distance":2023,"name":"San José","country":"Costa Rica","cc":"CR","sponsor":"Cablesantos","id":"14630","preferred":0,"https_functional":1,"host":"speedtest.coopesantos.com.prod.hosts.ooklaserver.net:8080"},
{"url":"http://speedtest.ct.co.cr:8080/speedtest/upload.php","lat":"9.9408","lon":"-84.0247","distance":2023,"name":"San José","country":"Costa Rica","cc":"CR","sponsor":"Liberty Costa Rica","id":"14859","preferred":0,"https_functional":1,"host":"speedtest.ct.co.cr.prod.hosts.ooklaserver.net:8080"},
{"url":"http://speedtest.lla-cr.com:8080/speedtest/upload.php","lat":"9.9408","lon":"-84.0247","distance":2023,"name":"San José","country":"Costa Rica","cc":"CR","sponsor":"Liberty Empresas","id":"58890","preferred":0,"https_functional":1,"host":"speedtest.lla-cr.com.prod.hosts.ooklaserver.net:8080"},
{"url":"http://speedtest.luminet.cr:8080/speedtest/upload.php","lat":"9.9247","lon":"-84.0781","distance":2025,"name":"San José","country":"Costa Rica","cc":"CR","sponsor":"Luminet","id":"39448","preferred":0,"https_functional":1,"host":"speedtest.luminet.cr.prod.hosts.ooklaserver.net:8080"},
{"url":"http://speedtest.solutechzk.com:8080/speedtest/upload.php","lat":"9.9247","lon":"-84.0781","distance":2025,"name":"San José","country":"Costa Rica","cc":"CR","sponsor":"Fibernet","id":"43632","preferred":0,"https_functional":1,"host":"speedtest.solutechzk.com.prod.hosts.ooklaserver.net:8080"},
{"url":"http://speedtest.telecablecr.com:8080/speedtest/upload.php","lat":"9.9247","lon":"-84.0781","distance":2025,"name":"San José","country":"Costa Rica","cc":"CR","sponsor":"Telecable S.A.","id":"18204","preferred":0,"https_functional":1,"host":"speedtest.telecablecr.com.prod.hosts.ooklaserver.net:8080"},
{"url":"http://speedtest.wilcasji.com:8080/speedtest/upload.php","lat":"9.9247","lon":"-84.0781","distance":2025,"name":"San José","country":"Costa Rica","cc":"CR","sponsor":"WILCASJI","id":"34553","preferred":0,"https_functional":1,"host":"speedtest.wilcasji.com.prod.hosts.ooklaserver.net:8080"},
{"url":"http://speedtest1.claro.cr:8080/speedtest/upload.php","lat":"9.9247","lon":"-84.0781","distance":2025,"name":"San José","country":"Costa Rica","cc":"CR","sponsor":"Claro Costa Rica","id":"29740","preferred":0,"https_functional":1,"host":"speedtest1.claro.cr.prod.hosts.ooklaserver.net:8080"},
{"url":"http://speedtest2.rhitcr.com:8080/speedtest/upload.php","lat":"9.9281","lon":"-84.0907","distance":2024,"name":"San José","country":"Costa Rica","cc":"CR","sponsor":"VoCex","id":"23685","preferred":0,"https_functional":1,"host":"speedtest2.rhitcr.com.prod.hosts.ooklaserver.net:8080"},
{"url":"http://spt-sjo1.edgeuno.com:8080/speedtest/upload.php","lat":"9.9247","lon":"-84.0781","distance":2025,"name":"San José","country":"Costa Rica","cc":"CR","sponsor":"EdgeUno","id":"45868","preferred":0,"host":"spt-sjo1.edgeuno.com:8080"},