[
{"url":"http://spd01-adl.au.superloop.com:8080/speedtest/upload.php","lat":"-34.9290","lon":"138.6010","distance":0,"name":"Adelaide","country":"Australia","cc":"AU","sponsor":"Superloop Australia Pty Ltd","id":"55298","preferred":0,"isp_id":"150616","https_functional":1,"host":"spd01-adl.au.superloop.com.prod.hosts.ooklaserver.net:8080"},
{"url":"http://speedtest-blacktown.optusnet.com.au:8080/speedtest/upload.php","lat":"-33.7447","lon":"150.8842","distance":0,"name":"Blacktown","country":"Australia","cc":"AU","sponsor":"Optus","id":"8777","preferred":0,"isp_id":"71769","https_functional":1,"host":"speedtest-blacktown.optusnet.com.au:8080"},
{"url":"http://b2.speedtest.gslnetworks.com:8080/speedtest/upload.php","lat":"-27.4728","lon":"153.0278","distance":0,"name":"Brisbane","country":"Australia","cc":"AU","sponsor":"GSL Networks","id":"48346","preferred":0,"isp_id":"274339","https_functional":1,"host":"b2.speedtest.gslnetworks.com.prod.hosts.ooklaserver.net:8080"},
{"url":"http://brindb2speed1.wireline.com.au:8080/speedtest/upload.php","lat":"-27.4728","lon":"153.0278","distance":0,"name":"Brisbane","country":"Australia","cc":"AU","sponsor":"Wireline Group","id":"16514","preferred":0,"isp_id":"99929","https_functional":1,"host":"brindb2speed1.wireline.com.au.prod.hosts.ooklaserver.net:8080"},
{"url":"http://brs1.speedtest.telstra.net:8080/speedtest/upload.php","lat":"-27.4728","lon":"153.0278","distance":0,"name":"Brisbane","country":"Australia","cc":"AU","sponsor":"Telstra","id":"12493","preferred":0,"isp_id":"39","https_functional":1,"host":"brs1.speedtest.telstra.net:8080"},
{"url":"http://ookla.b2.neptune.net.au:8080/speedtest/upload.php","lat":"-27.4728","lon":"153.0278","distance":0,"name":"Brisbane","country":"Australia","cc":"AU","sponsor":"Neptune Internet","id":"70823","preferred":0,"isp_id":"299995","https_functional":1,"host":"ookla.b2.neptune.net.au.prod.hosts.ooklaserver.net:8080"},
{"url":"http://qld-gdpt-st1.speedtest.aarnet.net.au:8080/speedtest/upload.php","lat":"-27.4728","lon":"153.0278","distance":0,"name":"Brisbane","country":"Australia","cc":"AU","sponsor":"AARNet","id":"6119","preferred":0,"isp_id":"10195","https_functional":1,"host":"qld-gdpt-st1.speedtest.aarnet.net.au:8080"},
{"url":"http://qld.speedtest.exetel.com.au:8080/speedtest/upload.php","lat":"-27.4698","lon":"153.0251","distance":0,"name":"Brisbane","country":"Australia","cc":"AU","sponsor":"Exetel","id":"13276","preferred":0,"isp_id":"908","https_functional":1,"host":"qld.speedtest.exetel.com.au.prod.hosts.ooklaserver.net:8080"},
{"url":"http://qld.speedtest.leaptel.com.au:8080/speedtest/upload.php","lat":"-27.4728","lon":"153.0278","distance":0,"name":"Brisbane","country":"Australia","cc":"AU","sponsor":"Leaptel","id":"32880","preferred":0,"isp_id":"152580","https_functional":1,"host":"qld.speedtest.leaptel.com.au.prod.hosts.ooklaserver.net:8080"},
{"url":"http://spd01-bne.au.superloop.com:8080/speedtest/upload.php","lat":"-27.4728","lon":"153.0278","distance":0,"name":"Brisbane","country":"Australia","cc":"AU","sponsor":"Superloop Australia Pty Ltd","id":"54994","preferred":0,"isp_id":"150616","https_functional":1,"host":"spd01-bne.au.superloop.com.prod.hosts.ooklaserver.net:8080"},
{"url":"http://speed-br2.gigacomm.net.au:8080/speedtest/upload.php","lat":"-27.4728","lon":"153.0278","distance":0,"name":"Brisbane","country":"Australia","cc":"AU","sponsor":"GigaComm Pty Ltd","id":"70701","preferred":0,"isp_id":"192184","https_functional":1,"host":"speed-br2.gigacomm.net.au.prod.hosts.ooklaserver.net:8080"},
{"url":"http://speed.bne.aussiebroadband.com.au:8080/speedtest/upload.php","lat":"-27.4698","lon":"153.0251","distance":0,"name":"Brisbane","country":"Australia","cc":"AU","sponsor":"Aussie Broadband","id":"15134","preferred":0,"isp_id":"7219","https_functional":1,"host":"speed.bne.aussiebroadband.com.au.prod.hosts.ooklaserver.net:8080"},
{"url":"http://speedtest-bne-dn1.empower.net.au:8080/speedtest/upload.php","lat":"-27.4728","lon":"153.0278","distance":0,"name":"Brisbane","country":"Australia","cc":"AU","sponsor":"blueAPACHE","id":"39589","preferred":0,"isp_id":"90205","https_functional":1,"host":"speedtest-bne-dn1.empower.net.au.prod.hosts.ooklaserver.net:8080"},
{"url":"http://speedtest-bne.vocus.net:8080/speedtest/upload.php","lat":"-27.4728","lon":"153.0278","distance":0,"name":"Brisbane","country":"Australia","cc":"AU","sponsor":"Vocus Communications","id":"18248","preferred":0,"isp_id":"27711","https_functional":1,"host":"speedtest-bne.vocus.net.prod.hosts.ooklaserver.net:8080"},
{"url":"http://speedtest-brisbane.macquarietelecom.com:8080/speedtest/upload.php","lat":"-27.4728","lon":"153.0278","distance":0,"name":"Brisbane","country":"Australia","cc":"AU","sponsor":"Macquarie Telecom","id":"45056","preferred":0,"isp_id":"292368","https_functional":1,"host":"speedtest-brisbane.macquarietelecom.com.prod.hosts.ooklaserver.net:8080"},
{"url":"http://speedtest-brisbane.optusnet.com.au:8080/speedtest/upload.php","lat":"-27.4728","lon":"153.0278","distance":0,"name":"Brisbane","country":"Australia","cc":"AU","sponsor":"Optus","id":"1594","preferred":0,"isp_id":"71769","https_functional":1,"host":"speedtest-brisbane.optusnet.com.au:8080"},
{"url":"http://speedtest.b2.mhn.cloud:8080/speedtest/upload.php","lat":"-27.4728","lon":"153.0278","distance":0,"name":"Brisbane","country":"Australia","cc":"AU","sponsor":"Hosted Network","id":"60952","preferred":0,"isp_id":"94872","https_functional":1,"host":"speedtest.b2.mhn.cloud.prod.hosts.ooklaserver.net:8080"},
{"url":"http://speedtest.bri01.launtel.net.au:8080/speedtest/upload.php","lat":"-27.4728","lon":"153.0278","distance":0,"name":"Brisbane","country":"Australia","cc":"AU","sponsor":"Launtel","id":"64079","preferred":0,"isp_id":"137873","https_functional":1,"host":"speedtest.bri01.launtel.net.au.prod.hosts.ooklaserver.net:8080"},
{"url":"http://speedtest.capti.com.au:8080/speedtest/upload.php","lat":"-27.4698","lon":"153.0251","distance":0,"name":"Brisbane","country":"Australia","cc":"AU","sponsor":"Capti","id":"46575","preferred":0,"isp_id":"224931","https_functional":1,"host":"speedtest.capti.com.au.prod.hosts.ooklaserver.net:8080"},
{"url":"http://speedtest.qld.checknetworks.au:8080/speedtest/upload.php","lat":"-27.4728","lon":"153.0278","distance":0,"name":"Brisbane","country":"Australia","cc":"AU","sponsor":"Check Networks","id":"71453","preferred":0,"isp_id":"243885","https_functional":1,"host":"speedtest.qld.checknetworks.au.prod.hosts.ooklaserver.net:8080"},
{"url":"http://speedtest.qld.edgeix.net.au:8080/speedtest/upload.php","lat":"-27.4728","lon":"153.0278","distance":0,"name":"Brisbane","country":"Australia","cc":"AU","sponsor":"EdgeIX","id":"60977","preferred":0,"isp_id":"275202","https_functional":1,"host":"speedtest.qld.edgeix.net.au.prod.hosts.ooklaserver.net:8080"},
{"url":"http://speedtest1.gigafy.com.au:8080/speedtest/upload.php","lat":"-27.4728","lon":"153.0278","distance":0,"name":"Brisbane","country":"Australia","cc":"AU","sponsor":"Gigafy","id":"35757","preferred":0,"isp_id":"171701","host":"speedtest1.gigafy.com.au:8080"},
{"url":"http://act-dksn-st1.speedtest.aarnet.net.au:8080/speedtest/upload.php","lat":"-35.3075","lon":"149.1244","distance":0,"name":"Canberra","country":"Australia","cc":"AU","sponsor":"AARNet","id":"52906","preferred":0,"isp_id":"10195","https_functional":1,"host":"act-dksn-st1.speedtest.aarnet.net.au:8080"},
{"url":"http://cbr1.speedtest.telstra.net:8080/speedtest/upload.php","lat":"-35.2809","lon":"149.1300","distance":0,"name":"Canberra","country":"Australia","cc":"AU","sponsor":"Telstra","id":"18711","preferred":0,"isp_id":"39","https_functional":1,"host":"cbr1.speedtest.telstra.net:8080"},
{"url":"http://speedtest-cbr.cdn.on.net:8080/speedtest/upload.php","lat":"-35.3075","lon":"149.1244","distance":0,"name":"Canberra","country":"Australia","cc":"AU","sponsor":"Internode","id":"2166","preferred":0,"isp_id":"32","https_functional":1,"host":"speedtest-cbr.cdn.on.net.prod.hosts.ooklaserver.net:8080"},
{"url":"http://cha1.speedtest.telstra.net:8080/speedtest/upload.php","lat":"-33.8008","lon":"151.1796","distance":0,"name":"Chatswood","country":"Australia","cc":"AU","sponsor":"Telstra","id":"18713","preferred":0,"isp_id":"39","https_functional":1,"host":"cha1.speedtest.telstra.net:8080"},
{"url":"http://drw1.speedtest.telstra.net:8080/speedtest/upload.php","lat":"-12.4634","lon":"130.8456","distance":0,"name":"Darwin","country":"Australia","cc":"AU","sponsor":"Telstra","id":"22036","preferred":0,"isp_id":"39","https_functional":1,"host":"drw1.speedtest.telstra.net:8080"},
{"url":"http://nt-drwn-st1.speedtest.aarnet.net.au:8080/speedtest/upload.php","lat":"-12.4500","lon":"130.8333","distance":0,"name":"Darwin","country":"Australia","cc":"AU","sponsor":"AARNet","id":"6757","preferred":0,"isp_id":"10195","https_functional":1,"host":"nt-drwn-st1.speedtest.aarnet.net.au:8080"},
{"url":"http://speedtest-darwin.optusnet.com.au:8080/speedtest/upload.php","lat":"-12.4500","lon":"130.8333","distance":0,"name":"Darwin","country":"Australia","cc":"AU","sponsor":"Optus","id":"10438","preferred":0,"isp_id":"71769","https_functional":1,"host":"speedtest-darwin.optusnet.com.au:8080"},
{"url":"https://speedtest-eastburwood.optusnet.com.au:8080/speedtest/upload.php","lat":"-37.8136","lon":"144.9631","distance":0,"name":"East Burwood","country":"Australia","cc":"AU","sponsor":"Optus","id":"9108","preferred":0,"isp_id":"71769","https_functional":1,"host":"speedtest-eastburwood.optusnet.com.au:8080"},
{"url":"http://speedtest.thryve.com.au:8080/speedtest/upload.php","lat":"-33.7960","lon":"151.2770","distance":0,"name":"Fairlight","country":"Australia","cc":"AU","sponsor":"Thryve Group - Thryve Broadband","id":"37994","preferred":0,"isp_id":"201122","https_functional":1,"host":"speedtest.thryve.com.au.prod.hosts.ooklaserver.net:8080"},
{"url":"http://speedtest.yless4u.com.au:8080/speedtest/upload.php","lat":"-35.3290","lon":"149.1740","distance":0,"name":"Fyshwick","country":"Australia","cc":"AU","sponsor":"YLess4U","id":"37133","preferred":0,"isp_id":"79311","https_functional":1,"host":"speedtest.yless4u.com.au.prod.hosts.ooklaserver.net:8080"},
{"url":"https://speedtest-geelong.optusnet.com.au:8080/speedtest/upload.php","lat":"-38.1499","lon":"144.3617","distance":0,"name":"Geelong","country":"Australia","cc":"AU","sponsor":"Optus","id":"10612","preferred":0,"isp_id":"71769","https_functional":1,"host":"speedtest-geelong.optusnet.com.au:8080"},
{"url":"http://ool1.speedtest.telstra.net:8080/speedtest/upload.php","lat":"-28.0160","lon":"153.0167","distance":0,"name":"Gold Coast","country":"Australia","cc":"AU","sponsor":"Telstra","id":"16329","preferred":0,"isp_id":"39","https_functional":1,"host":"ool1.speedtest.telstra.net:8080"},
{"url":"http://speedtest-goldcoast.optusnet.com.au:8080/speedtest/upload.php","lat":"-28.0160","lon":"153.0167","distance":0,"name":"Gold Coast","country":"Australia","cc":"AU","sponsor":"Optus","id":"10441","preferred":0,"isp_id":"71769","https_functional":1,"host":"speedtest-goldcoast.optusnet.com.au:8080"},
{"url":"http://hob1.speedtest.telstra.net:8080/speedtest/upload.php","lat":"-42.8821","lon":"147.3272","distance":0,"name":"Hobart","country":"Australia","cc":"AU","sponsor":"Telstra","id":"18712","preferred":0,"isp_id":"39","https_functional":1,"host":"hob1.speedtest.telstra.net:8080"},
{"url":"http://speedtest-hob.launtel.net.au:8080/speedtest/upload.php","lat":"-42.8806","lon":"147.3250","distance":0,"name":"Hobart","country":"Australia","cc":"AU","sponsor":"Launtel","id":"48679","preferred":0,"isp_id":"137873","https_functional":1,"host":"speedtest-hob.launtel.net.au.prod.hosts.ooklaserver.net:8080"},
{"url":"http://speedtest-hobart.optusnet.com.au:8080/speedtest/upload.php","lat":"-42.8806","lon":"147.3250","distance":0,"name":"Hobart","country":"Australia","cc":"AU","sponsor":"Optus","id":"8976","preferred":0,"isp_id":"71769","https_functional":1,"host":"speedtest-hobart.optusnet.com.au:8080"},
{"url":"http://tas-dwpk-st1.speedtest.aarnet.net.au:8080/speedtest/upload.php","lat":"-42.8806","lon":"147.3250","distance":0,"name":"Hobart","country":"Australia","cc":"AU","sponsor":"AARNet","id":"6369","preferred":0,"isp_id":"10195","https_functional":1,"host":"tas-dwpk-st1.speedtest.aarnet.net.au:8080"},
{"url":"http://speedtest.micron21.com:8080/speedtest/upload.php","lat":"-37.8020","lon":"145.3160","distance":0,"name":"Kilsyth","country":"Australia","cc":"AU","sponsor":"Micron21 Datacentre Pty Ltd","id":"25708","preferred":0,"isp_id":"274791","https_functional":1,"host":"speedtest.micron21.com.prod.hosts.ooklaserver.net:8080"},
{"url":"http://knx.speedtest.optitel.com.au:8080/speedtest/upload.php","lat":"-15.7783","lon":"128.7439","distance":0,"name":"Kununurra","country":"Australia","cc":"AU","sponsor":"OptiTel","id":"48114","preferred":0,"isp_id":"204344","https_functional":1,"host":"knx.speedtest.optitel.com.au.prod.hosts.ooklaserver.net:8080"},
{"url":"http://speedtest-lton.launtel.net.au:8080/speedtest/upload.php","lat":"-41.4391","lon":"147.1358","distance":0,"name":"Launceston","country":"Australia","cc":"AU","sponsor":"Launtel","id":"48503","preferred":0,"isp_id":"137873","https_functional":1,"host":"speedtest-lton.launtel.net.au.prod.hosts.ooklaserver.net:8080"},
{"url":"https://speedtest-limestonecoast.optusnet.com.au:8080/speedtest/upload.php","lat":"-37.8284","lon":"140.7804","distance":0,"name":"Limestone Coast","country":"Australia","cc":"AU","sponsor":"Optus","id":"10439","preferred":0,"isp_id":"71769","https_functional":1,"host":"speedtest-limestonecoast.optusnet.com.au:8080"},
{"url":"http://me1.speedtest.gslnetworks.com.au:8080/speedtest/upload.php","lat":"-37.8136","lon":"144.9631","distance":0,"name":"Melbourne","country":"Australia","cc":"AU","sponsor":"GSL Networks","id":"46114","preferred":0,"isp_id":"274339","https_functional":1,"host":"me1.speedtest.gslnetworks.com.au.prod.hosts.ooklaserver.net:8080"},
{"url":"http://mel1.speedtest.telstra.net:8080/speedtest/upload.php","lat":"-37.8136","lon":"144.9631","distance":0,"name":"Melbourne","country":"Australia","cc":"AU","sponsor":"Telstra","id":"12491","preferred":0,"isp_id":"39","https_functional":1,"host":"mel1.speedtest.telstra.net:8080"},
{"url":"http://melndm1speed1.wireline.com.au:8080/speedtest/upload.php","lat":"-37.8136","lon":"144.9631","distance":0,"name":"Melbourne","country":"Australia","cc":"AU","sponsor":"Wireline Group","id":"29826","preferred":0,"isp_id":"99929","https_functional":1,"host":"melndm1speed1.wireline.com.au.prod.hosts.ooklaserver.net:8080"},
{"url":"http://ookla.me1.neptune.net.au:8080/speedtest/upload.php","lat":"-37.8136","lon":"144.9631","distance":0,"name":"Melbourne","country":"Australia","cc":"AU","sponsor":"Neptune Internet","id":"68925","preferred":0,"isp_id":"299995","https_functional":1,"host":"ookla.me1.neptune.net.au.prod.hosts.ooklaserver.net:8080"},
{"url":"http://spd01-mel.au.superloop.com:8080/speedtest/upload.php","lat":"-37.8136","lon":"144.9631","distance":0,"name":"Melbourne","country":"Australia","cc":"AU","sponsor":"Superloop Australia Pty Ltd","id":"55297","preferred":0,"isp_id":"150616","https_functional":1,"host":"spd01-mel.au.superloop.com.prod.hosts.ooklaserver.net:8080"},
{"url":"http://speed-mel.gigacomm.net.au:8080/speedtest/upload.php","lat":"-37.8136","lon":"144.9631","distance":0,"name":"Melbourne","country":"Australia","cc":"AU","sponsor":"GigaComm Pty Ltd","id":"36100","preferred":0,"isp_id":"192184","https_functional":1,"host":"speed-mel.gigacomm.net.au.prod.hosts.ooklaserver.net:8080"},
{"url":"http://speed.mel.aussiebroadband.com.au:8080/speedtest/upload.php","lat":"-37.8136","lon":"144.9631","distance":0,"name":"Melbourne","country":"Australia","cc":"AU","sponsor":"Aussie Broadband","id":"14670","preferred":0,"isp_id":"7219","https_functional":1,"host":"speed.mel.aussiebroadband.com.au.prod.hosts.ooklaserver.net:8080"},
{"url":"http://speedtest-aus.chainlinkhosting.com:8080/speedtest/upload.php","lat":"-37.8136","lon":"144.9631","distance":0,"name":"Melbourne","country":"Australia","cc":"AU","sponsor":"ChainLinkHosting | ChainLinkNetworks","id":"65167","preferred":0,"isp_id":"174612","https_functional":1,"host":"speedtest-aus.chainlinkhosting.com.prod.hosts.ooklaserver.net:8080"},
{"url":"http://speedtest-mel-dn1.empower.net.au:8080/speedtest/upload.php","lat":"-37.8136","lon":"144.9631","distance":0,"name":"Melbourne","country":"Australia","cc":"AU","sponsor":"blueAPACHE","id":"39561","preferred":0,"isp_id":"90205","https_functional":1,"host":"speedtest-mel-dn1.empower.net.au.prod.hosts.ooklaserver.net:8080"},
{"url":"http://speedtest-mel.vic.au.hostuniversal.com.au:8080/speedtest/upload.php","lat":"-37.8136","lon":"144.9631","distance":0,"name":"Melbourne","country":"Australia","cc":"AU","sponsor":"Host Universal","id":"69525","preferred":0,"isp_id":"136098","https_functional":1,"host":"speedtest-mel.vic.au.hostuniversal.com.au.prod.hosts.ooklaserver.net:8080"},
{"url":"http://speedtest-mel.vocus.net:8080/speedtest/upload.php","lat":"-37.8136","lon":"144.9631","distance":0,"name":"Melbourne","country":"Australia","cc":"AU","sponsor":"Vocus Communications","id":"16207","preferred":0,"isp_id":"27711","https_functional":1,"host":"speedtest-mel.vocus.net.prod.hosts.ooklaserver.net:8080"},
{"url":"http://speedtest-mel0.encoo.com.au:8080/speedtest/upload.php","lat":"-37.8136","lon":"144.9631","distance":0,"name":"Melbourne","country":"Australia","cc":"AU","sponsor":"Encoo","id":"51801","preferred":0,"isp_id":"112532","https_functional":1,"host":"speedtest-mel0.encoo.com.au.prod.hosts.ooklaserver.net:8080"},
{"url":"http://speedtest-melbourne.macquarietelecom.com:8080/speedtest/upload.php","lat":"-37.8136","lon":"144.9631","distance":0,"name":"Melbourne","country":"Australia","cc":"AU","sponsor":"Macquarie Telecom","id":"45057","preferred":0,"isp_id":"292368","https_functional":1,"host":"speedtest-melbourne.macquarietelecom.com.prod.hosts.ooklaserver.net:8080"},
{"url":"http://speedtest-melbourne.optusnet.com.au:8080/speedtest/upload.php","lat":"-37.8136","lon":"144.9631","distance":0,"name":"Melbourne","country":"Australia","cc":"AU","sponsor":"Optus","id":"30932","preferred":0,"isp_id":"71769","https_functional":1,"host":"speedtest-melbourne.optusnet.com.au:8080"},
{"url":"http://speedtest.mel.mhn.cloud:8080/speedtest/upload.php","lat":"-37.8136","lon":"144.9631","distance":0,"name":"Melbourne","country":"Australia","cc":"AU","sponsor":"Hosted Network","id":"60949","preferred":0,"isp_id":"94872","https_functional":1,"host":"speedtest.mel.mhn.cloud.prod.hosts.ooklaserver.net:8080"},
{"url":"http://speedtest.mel01.launtel.net.au:8080/speedtest/upload.php","lat":"-37.8136","lon":"144.9631","distance":0,"name":"Melbourne","country":"Australia","cc":"AU","sponsor":"Launtel","id":"61764","preferred":0,"isp_id":"137873","https_functional":1,"host":"speedtest.mel01.launtel.net.au.prod.hosts.ooklaserver.net:8080"},
{"url":"http://speedtest.net360.cloud:8080/speedtest/upload.php","lat":"-37.8136","lon":"144.9631","distance":0,"name":"Melbourne","country":"Australia","cc":"AU","sponsor":"NET360","id":"55588","preferred":0,"isp_id":"123385","https_functional":1,"host":"speedtest.net360.cloud.prod.hosts.ooklaserver.net:8080"},
{"url":"http://speedtest01.mel1.spintel.net.au:8080/speedtest/upload.php","lat":"-37.8136","lon":"144.9631","distance":0,"name":"Melbourne","country":"Australia","cc":"AU","sponsor":"Spintel","id":"72276","preferred":0,"isp_id":"71839","https_functional":1,"host":"speedtest01.mel1.spintel.net.au.prod.hosts.ooklaserver.net:8080"},
{"url":"http://speedtest2.comvergence.com.au:8080/speedtest/upload.php","lat":"-37.8136","lon":"144.9631","distance":0,"name":"Melbourne","country":"Australia","cc":"AU","sponsor":"Comvergence","id":"37688","preferred":0,"isp_id":"30067","https_functional":1,"host":"speedtest2.comvergence.com.au.prod.hosts.ooklaserver.net:8080"},
{"url":"http://vic-pmla-st1.speedtest.aarnet.net.au:8080/speedtest/upload.php","lat":"-37.8136","lon":"144.9631","distance":0,"name":"Melbourne","country":"Australia","cc":"AU","sponsor":"AARNet","id":"60412","preferred":0,"isp_id":"10195","https_functional":1,"host":"vic-pmla-st1.speedtest.aarnet.net.au:8080"},
{"url":"http://vic.speedtest.exetel.com.au:8080/speedtest/upload.php","lat":"-37.8136","lon":"144.9631","distance":0,"name":"Melbourne","country":"Australia","cc":"AU","sponsor":"Exetel","id":"13275","preferred":0,"isp_id":"908","https_functional":1,"host":"vic.speedtest.exetel.com.au.prod.hosts.ooklaserver.net:8080"},
{"url":"http://vic.speedtest.leaptel.com.au:8080/speedtest/upload.php","lat":"-37.8136","lon":"144.9631","distance":0,"name":"Melbourne","country":"Australia","cc":"AU","sponsor":"Leaptel","id":"25134","preferred":0,"isp_id":"170214","https_functional":1,"host":"vic.speedtest.leaptel.com.au.prod.hosts.ooklaserver.net:8080"},
{"url":"http://speedtest-moorooka.optusnet.com.au:8080/speedtest/upload.php","lat":"-27.5350","lon":"153.0260","distance":0,"name":"Moorooka","country":"Australia","cc":"AU","sponsor":"Optus","id":"31137","preferred":0,"isp_id":"71769","https_functional":1,"host":"speedtest-moorooka.optusnet.com.au:8080"},
{"url":"http://speedtest-newcastle.optusnet.com.au:8080/speedtest/upload.php","lat":"-32.9283","lon":"151.7817","distance":0,"name":"Newcastle","country":"Australia","cc":"AU","sponsor":"Optus","id":"10440","preferred":0,"isp_id":"71769","https_functional":1,"host":"speedtest-newcastle.optusnet.com.au:8080"},
{"url":"http://mcy1.speedtest.telstra.net:8080/speedtest/upload.php","lat":"-25.8833","lon":"152.5500","distance":0,"name":"Sunshine Coast","country":"Australia","cc":"AU","sponsor":"Telstra","id":"17702","preferred":0,"isp_id":"39","https_functional":1,"host":"mcy1.speedtest.telstra.net:8080"},
{"url":"http://au.st.spacecore.pro:8080/speedtest/upload.php","lat":"-33.8600","lon":"151.2111","distance":0,"name":"Sydney","country":"Australia","cc":"AU","sponsor":"SpaceCore.pro | Premium VPS Hosting","id":"69765","preferred":0,"isp_id":"200476","https_functional":1,"host":"au.st.spacecore.pro.prod.hosts.ooklaserver.net:8080"},
{"url":"http://aus-nperf.verizon.net:8080/speedtest/upload.php","lat":"-33.8600","lon":"151.2111","distance":0,"name":"Sydney","country":"Australia","cc":"AU","sponsor":"Verizon","id":"50441","preferred":0,"isp_id":"8041","https_functional":1,"host":"aus-nperf.verizon.net.prod.hosts.ooklaserver.net:8080"},
{"url":"http://nsw-brwy-st1.speedtest.aarnet.net.au:8080/speedtest/upload.php","lat":"-33.8600","lon":"151.2111","distance":0,"name":"Sydney","country":"Australia","cc":"AU","sponsor":"AARNet","id":"6355","preferred":0,"isp_id":"10195","https_functional":1,"host":"nsw-brwy-st1.speedtest.aarnet.net.au:8080"},
{"url":"http://nsw.speedtest.exetel.com.au:8080/speedtest/upload.php","lat":"-33.8600","lon":"151.2111","distance":0,"name":"Sydney","country":"Australia","cc":"AU","sponsor":"Exetel","id":"13279","preferred":0,"isp_id":"908","https_functional":1,"host":"nsw.speedtest.exetel.com.au.prod.hosts.ooklaserver.net:8080"},
{"url":"http://nsw.speedtest.leaptel.com.au:8080/speedtest/upload.php","lat":"-33.8600","lon":"151.2111","distance":0,"name":"Sydney","country":"Australia","cc":"AU","sponsor":"Leaptel","id":"34967","preferred":0,"isp_id":"170214","https_functional":1,"host":"nsw.speedtest.leaptel.com.au.prod.hosts.ooklaserver.net:8080"},
{"url":"http://ookla.sy1.neptune.net.au:8080/speedtest/upload.php","lat":"-33.8600","lon":"151.2111","distance":0,"name":"Sydney","country":"Australia","cc":"AU","sponsor":"Neptune Internet","id":"68924","preferred":0,"isp_id":"299995","https_functional":1,"host":"ookla.sy1.neptune.net.au.prod.hosts.ooklaserver.net:8080"},
{"url":"http://pauseq4vost1.datamossa.cloud:8080/speedtest/upload.php","lat":"-33.8600","lon":"151.2111","distance":0,"name":"Sydney","country":"Australia","cc":"AU","sponsor":"DataMossa","id":"27582","preferred":0,"isp_id":"182824","https_functional":1,"host":"pauseq4vost1.datamossa.cloud.prod.hosts.ooklaserver.net:8080"},
{"url":"http://spd03-syd.au.superloop.com:8080/speedtest/upload.php","lat":"-33.8600","lon":"151.2111","distance":0,"name":"Sydney","country":"Australia","cc":"AU","sponsor":"Superloop Australia Pty Ltd","id":"65184","preferred":0,"isp_id":"150616","https_functional":1,"host":"spd03-syd.au.superloop.com.prod.hosts.ooklaserver.net:8080"},
{"url":"http://speed-syd.gigacomm.net.au:8080/speedtest/upload.php","lat":"-33.8600","lon":"151.2111","distance":0,"name":"Sydney","country":"Australia","cc":"AU","sponsor":"GigaComm Pty Ltd","id":"36157","preferred":0,"isp_id":"192184","https_functional":1,"host":"speed-syd.gigacomm.net.au.prod.hosts.ooklaserver.net:8080"},
{"url":"http://speed.syd.aussiebroadband.com.au:8080/speedtest/upload.php","lat":"-33.8688","lon":"151.2093","distance":0,"name":"Sydney","country":"Australia","cc":"AU","sponsor":"Aussie Broadband","id":"15132","preferred":0,"isp_id":"7219","https_functional":1,"host":"speed.syd.aussiebroadband.com.au.prod.hosts.ooklaserver.net:8080"},
{"url":"http://speed4.snap.net.nz:8080/speedtest/upload.php","lat":"-33.8600","lon":"151.2111","distance":0,"name":"Sydney","country":"Australia","cc":"AU","sponsor":"2degrees","id":"18392","preferred":0,"isp_id":"114594","https_functional":1,"host":"speed4.snap.net.nz.prod.hosts.ooklaserver.net:8080"},
{"url":"http://speedtest-syd-dn1.empower.net.au:8080/speedtest/upload.php","lat":"-33.8600","lon":"151.2111","distance":0,"name":"Sydney","country":"Australia","cc":"AU","sponsor":"blueAPACHE","id":"39585","preferred":0,"isp_id":"90205","https_functional":1,"host":"speedtest-syd-dn1.empower.net.au.prod.hosts.ooklaserver.net:8080"},
{"url":"http://speedtest-syd.nsw.au.hostuniversal.com.au:8080/speedtest/upload.php","lat":"-33.8600","lon":"151.2111","distance":0,"name":"Sydney","country":"Australia","cc":"AU","sponsor":"Host Universal","id":"68241","preferred":0,"isp_id":"136098","https_functional":1,"host":"speedtest-syd.nsw.au.hostuniversal.com.au.prod.hosts.ooklaserver.net:8080"},
{"url":"http://speedtest-syd.thecore.net.au:8080/speedtest/upload.php","lat":"-33.8600","lon":"151.2111","distance":0,"name":"Sydney","country":"Australia","cc":"AU","sponsor":"Real World","id":"63404","preferred":0,"isp_id":"73511","https_functional":1,"host":"speedtest-syd.thecore.net.au.prod.hosts.ooklaserver.net:8080"},
{"url":"http://speedtest-syd.vocus.net:8080/speedtest/upload.php","lat":"-33.8600","lon":"151.2111","distance":0,"name":"Sydney","country":"Australia","cc":"AU","sponsor":"Vocus Communications","id":"17618","preferred":0,"isp_id":"27711","https_functional":1,"host":"speedtest-syd.vocus.net.prod.hosts.ooklaserver.net:8080"},
{"url":"http://speedtest-syd0.encoo.com.au:8080/speedtest/upload.php","lat":"-33.8600","lon":"151.2111","distance":0,"name":"Sydney","country":"Australia","cc":"AU","sponsor":"Encoo","id":"54213","preferred":0,"isp_id":"112532","https_functional":1,"host":"speedtest-syd0.encoo.com.au.prod.hosts.ooklaserver.net:8080"},
{"url":"http://speedtest-sydney.macquarietelecom.com:8080/speedtest/upload.php","lat":"-33.8600","lon":"151.2111","distance":0,"name":"Sydney","country":"Australia","cc":"AU","sponsor":"Macquarie Telecom","id":"45033","preferred":0,"isp_id":"292368","https_functional":1,"host":"speedtest-sydney.macquarietelecom.com.prod.hosts.ooklaserver.net:8080"},
{"url":"http://speedtest-sydney.optusnet.com.au:8080/speedtest/upload.php","lat":"-33.8600","lon":"151.2111","distance":0,"name":"Sydney","country":"Australia","cc":"AU","sponsor":"Optus","id":"1267","preferred":0,"isp_id":"71769","https_functional":1,"host":"speedtest-sydney.optusnet.com.au:8080"},
{"url":"http://speedtest.mirror.digitalpacific.com.au:8080/speedtest/upload.php","lat":"-33.8600","lon":"151.2111","distance":0,"name":"Sydney","country":"Australia","cc":"AU","sponsor":"Digital Pacific","id":"5744","preferred":0,"isp_id":"275078","https_functional":1,"host":"speedtest.mirror.digitalpacific.com.au.prod.hosts.ooklaserver.net:8080"},
{"url":"http://speedtest.mirror.serversaustralia.com.au:8080/speedtest/upload.php","lat":"-33.8600","lon":"151.2111","distance":0,"name":"Sydney","country":"Australia","cc":"AU","sponsor":"Servers Australia","id":"39108","preferred":0,"isp_id":"45372","https_functional":1,"host":"speedtest.mirror.serversaustralia.com.au.prod.hosts.ooklaserver.net:8080"},
{"url":"http://speedtest.syd.hawknetlabs.au:8080/speedtest/upload.php","lat":"-33.8600","lon":"151.2111","distance":0,"name":"Sydney","country":"Australia","cc":"AU","sponsor":"HawkNet Labs","id":"71971","preferred":0,"isp_id":"303303","https_functional":1,"host":"speedtest.syd.hawknetlabs.au:8080"},
{"url":"http://speedtest.syd.mhn.cloud:8080/speedtest/upload.php","lat":"-33.8600","lon":"151.2111","distance":0,"name":"Sydney","country":"Australia","cc":"AU","sponsor":"Hosted Network","id":"44473","preferred":0,"isp_id":"94872","https_functional":1,"host":"speedtest.syd.mhn.cloud.prod.hosts.ooklaserver.net:8080"},
{"url":"http://speedtest.syd.netsg.net.au:8080/speedtest/upload.php","lat":"-33.8600","lon":"151.2111","distance":0,"name":"Sydney","country":"Australia","cc":"AU","sponsor":"Network Solutions Group","id":"30430","preferred":0,"isp_id":"140498","https_functional":1,"host":"speedtest.syd.netsg.net.au.prod.hosts.ooklaserver.net:8080"},
{"url":"http://speedtest.syd01.launtel.net.au:8080/speedtest/upload.php","lat":"-33.8600","lon":"151.2111","distance":0,"name":"Sydney","country":"Australia","cc":"AU","sponsor":"Launtel","id":"61743","preferred":0,"isp_id":"137873","https_functional":1,"host":"speedtest.syd01.launtel.net.au.prod.hosts.ooklaserver.net:8080"},
{"url":"http://speedtest01.syd1.spintel.net.au:8080/speedtest/upload.php","lat":"-33.8600","lon":"151.2111","distance":0,"name":"Sydney","country":"Australia","cc":"AU","sponsor":"Spintel","id":"58437","preferred":0,"isp_id":"71839","https_functional":1,"host":"speedtest01.syd1.spintel.net.au.prod.hosts.ooklaserver.net:8080"},
{"url":"http://sy5.test.gslnetworks.com.au:8080/speedtest/upload.php","lat":"-33.8600","lon":"151.2111","distance":0,"name":"Sydney","country":"Australia","cc":"AU","sponsor":"GSL Networks","id":"44735","preferred":0,"isp_id":"274339","https_functional":1,"host":"sy5.test.gslnetworks.com.au.prod.hosts.ooklaserver.net:8080"},
{"url":"http://syd.speedtest.contabo.net:8080/speedtest/upload.php","lat":"-33.8600","lon":"151.2111","distance":0,"name":"Sydney","country":"Australia","cc":"AU","sponsor":"Contabo","id":"54360","preferred":0,"isp_id":"247516","https_functional":1,"host":"syd.speedtest.contabo.net:8080"},
{"url":"http://syd1.speedtest.telstra.net:8080/speedtest/upload.php","lat":"-33.8600","lon":"151.2111","distance":0,"name":"Sydney","country":"Australia","cc":"AU","sponsor":"Telstra","id":"12492","preferred":0,"isp_id":"39","https_functional":1,"host":"syd1.speedtest.telstra.net:8080"},
{"url":"http://sydgs2speed4.wireline.com.au:8080/speedtest/upload.php","lat":"-33.8600","lon":"151.2111","distance":0,"name":"Sydney","country":"Australia","cc":"AU","sponsor":"Wireline Group","id":"54817","preferred":0,"isp_id":"99929","https_functional":1,"host":"sydgs2speed4.wireline.com.au.prod.hosts.ooklaserver.net:8080"},
{"url":"http://sydspeedtest.rackdog.com:8080/speedtest/upload.php","lat":"-33.8600","lon":"151.2111","distance":0,"name":"Sydney","country":"Australia","cc":"AU","sponsor":"Rackdog","id":"46372","preferred":0,"isp_id":"275281","https_functional":1,"host":"sydspeedtest.rackdog.com.prod.hosts.ooklaserver.net:8080"},
{"url":"http://speedtest-townsville.optusnet.com.au:8080/speedtest/upload.php","lat":"-19.2590","lon":"146.8169","distance":0,"name":"Townsville","country":"Australia","cc":"AU","sponsor":"Optus","id":"10442","preferred":0,"isp_id":"71769","https_functional":1,"host":"speedtest-townsville.optusnet.com.au:8080"},
{"url":"http://win1.speedtest.telstra.net:8080/speedtest/upload.php","lat":"-37.8540","lon":"144.9880","distance":0,"name":"Windsor","country":"Australia","cc":"AU","sponsor":"Telstra","id":"18714","preferred":0,"isp_id":"39","https_functional":1,"host":"win1.speedtest.telstra.net:8080"},
{"url":"http://speedtest.link.bm:8080/speedtest/upload.php","lat":"32.3134","lon":"-64.7311","distance":0,"name":"Smith's Parish","country":"Bermuda","cc":"BM","sponsor":"LinkBermuda Ltd.","id":"9337","preferred":0,"isp_id":"94761","https_functional":1,"host":"speedtest.link.bm.prod.hosts.ooklaserver.net:8080"},
{"url":"http://aragonnetspeedtest.com.br:8080/speedtest/upload.php","lat":"-1.9466","lon":"-54.7388","distance":0,"name":"Alenquer","country":"Brazil","cc":"BR","sponsor":"ARAGON-NET PROVEDOR DE INTERNET","id":"30342","preferred":0,"isp_id":"198975","https_functional":1,"host":"aragonnetspeedtest.com.br.prod.hosts.ooklaserver.net:8080"},
{"url":"http://teste.routinger.com.br:8080/speedtest/upload.php","lat":"-3.5789","lon":"-59.1345","distance":0,"name":"Autazes","country":"Brazil","cc":"BR","sponsor":"Routinger","id":"64181","preferred":0,"isp_id":"228442","https_functional":1,"host":"teste.routinger.com.br:8080"},
{"url":"http://spd76.claro.com.br:8080/speedtest/upload.php","lat":"2.8235","lon":"-60.6759","distance":0,"name":"Boa Vista","country":"Brazil","cc":"BR","sponsor":"Claro Móvel - BVA1","id":"70589","preferred":0,"isp_id":"14791","https_functional":1,"host":"spd76.claro.com.br:8080"},
{"url":"http://speed.ultranetrr.com.br:8080/speedtest/upload.php","lat":"2.8235","lon":"-60.6759","distance":0,"name":"Boa Vista","country":"Brazil","cc":"BR","sponsor":"Ultra Net","id":"50878","preferred":0,"isp_id":"243067","https_functional":1,"host":"speed.ultranetrr.com.br:8080"},
{"url":"http://speedtest.inforr.com.br:8080/speedtest/upload.php","lat":"2.8235","lon":"-60.6759","distance":0,"name":"Boa Vista","country":"Brazil","cc":"BR","sponsor":"INFORR TELECOM","id":"10931","preferred":0,"isp_id":"233646","https_functional":1,"host":"speedtest.inforr.com.br:8080"},
{"url":"http://speedtest.linknetbv.com:8080/speedtest/upload.php","lat":"2.8235","lon":"-60.6759","distance":0,"name":"Boa Vista","country":"Brazil","cc":"BR","sponsor":"LINK-NETBV","id":"49031","preferred":0,"isp_id":"285918","https_functional":1,"host":"speedtest.linknetbv.com:8080"},
{"url":"http://speedtest.roraimanet.com.br:8080/speedtest/upload.php","lat":"2.8206","lon":"-60.6738","distance":0,"name":"Boa Vista","country":"Brazil","cc":"BR","sponsor":"RoraimaNET Telecomunicações","id":"25279","preferred":0,"isp_id":"149462","https_functional":1,"host":"speedtest.roraimanet.com.br.prod.hosts.ooklaserver.net:8080"},
{"url":"http://speedtest.saidnettelecom.com.br:8080/speedtest/upload.php","lat":"2.8236","lon":"-60.6745","distance":0,"name":"Boa Vista","country":"Brazil","cc":"BR","sponsor":"SAIDNET TELECOM","id":"69557","preferred":0,"isp_id":"14791","https_functional":1,"host":"speedtest.saidnettelecom.com.br.prod.hosts.ooklaserver.net:8080"},
{"url":"http://speedtest.uplinkrr.com.br:8080/speedtest/upload.php","lat":"2.8235","lon":"-60.6759","distance":0,"name":"Boa Vista","country":"Brazil","cc":"BR","sponsor":"UpLink","id":"50249","preferred":0,"isp_id":"0","https_functional":1,"host":"speedtest.uplinkrr.com.br:8080"},
{"url":"http://speedtest.webfibertelecom.com.br:8080/speedtest/upload.php","lat":"2.8235","lon":"-60.6758","distance":0,"name":"Boa Vista","country":"Brazil","cc":"BR","sponsor":"Webfiber Telecom","id":"21777","preferred":0,"isp_id":"178316","https_functional":1,"host":"speedtest.webfibertelecom.com.br.prod.hosts.ooklaserver.net:8080"},
{"url":"http://speedtestrr.vtal.net.br:8080/speedtest/upload.php","lat":"2.8235","lon":"-60.6759","distance":0,"name":"Boa Vista","country":"Brazil","cc":"BR","sponsor":"Vtal","id":"40396","preferred":0,"isp_id":"243067","https_functional":1,"host":"speedtestrr.vtal.net.br.prod.hosts.ooklaserver.net:8080"},
{"url":"http://teste.suprainternet.com.br:8080/speedtest/upload.php","lat":"2.7885","lon":"-60.7259","distance":0,"name":"Boa Vista","country":"Brazil","cc":"BR","sponsor":"Supra internet","id":"46999","preferred":0,"isp_id":"318468","host":"teste.suprainternet.com.br:8080"},
{"url":"http://velocidade.4wnet.com.br:8080/speedtest/upload.php","lat":"2.8235","lon":"-60.6759","distance":0,"name":"Boa Vista","country":"Brazil","cc":"BR","sponsor":"4WNET TELECOMUNICAÇÕES","id":"25749","preferred":0,"isp_id":"192914","https_functional":1,"host":"velocidade.4wnet.com.br:8080"},
{"url":"http://velocidade.amazoniatelecom.com.br:8080/speedtest/upload.php","lat":"2.8235","lon":"-60.6759","distance":0,"name":"Boa Vista","country":"Brazil","cc":"BR","sponsor":"Amazônia Telecom","id":"22091","preferred":0,"isp_id":"164194","https_functional":1,"host":"velocidade.amazoniatelecom.com.br:8080"},
{"url":"http://speedtest-cam1.cyberlink.net.br:8080/speedtest/upload.php","lat":"-12.7002","lon":"-38.3253","distance":0,"name":"Camaçari","country":"Brazil","cc":"BR","sponsor":"Cyberlink","id":"71810","preferred":0,"isp_id":"185806","https_functional":1,"host":"speedtest-cam1.cyberlink.net.br:8080"},
{"url":"http://speedtest.routinger.com.br:8080/speedtest/upload.php","lat":"-3.8194","lon":"-60.3612","distance":0,"name":"Careiro","country":"Brazil","cc":"BR","sponsor":"Routinger","id":"45199","preferred":0,"isp_id":"228442","https_functional":1,"host":"speedtest.routinger.com.br:8080"},
{"url":"http://ookla.pgservicos.com.br:8080/speedtest/upload.php","lat":"-3.8194","lon":"-60.3612","distance":0,"name":"Careiro Castanho","country":"Brazil","cc":"BR","sponsor":"Pg Serviço","id":"71710","preferred":0,"isp_id":"189983","https_functional":1,"host":"ookla.pgservicos.com.br:8080"},
{"url":"http://ookla.paulonet.srv.br:8080/speedtest/upload.php","lat":"-3.0363","lon":"-59.9855","distance":0,"name":"Cidade Nova","country":"Brazil","cc":"BR","sponsor":"PauloNet - PRM","id":"26057","preferred":0,"isp_id":"192438","https_functional":1,"host":"ookla.paulonet.srv.br.prod.hosts.ooklaserver.net:8080"},
{"url":"http://ookla.speedtestunonet.com.br:8080/speedtest/upload.php","lat":"-7.6280","lon":"-72.6762","distance":0,"name":"Cruzeiro do Sul","country":"Brazil","cc":"BR","sponsor":"UNONET","id":"54070","preferred":0,"isp_id":"193205","https_functional":1,"host":"ookla.speedtestunonet.com.br.prod.hosts.ooklaserver.net:8080"},
{"url":"http://speedtest.omegasul.com.br:8080/speedtest/upload.php","lat":"-7.6280","lon":"-72.6762","distance":0,"name":"Cruzeiro do Sul","country":"Brazil","cc":"BR","sponsor":"Omegasul Telecom","id":"29667","preferred":0,"isp_id":"118283","https_functional":1,"host":"speedtest.omegasul.com.br.prod.hosts.ooklaserver.net:8080"},
{"url":"http://stczs.norteultrafibra.com.br:8080/speedtest/upload.php","lat":"-7.6280","lon":"-72.6762","distance":0,"name":"Cruzeiro do Sul","country":"Brazil","cc":"BR","sponsor":"Norte Fibra","id":"69916","preferred":0,"isp_id":"14791","https_functional":1,"host":"stczs.norteultrafibra.com.br:8080"},
{"url":"http://speedtest.cyberline.com.br:8080/speedtest/upload.php","lat":"-16.6667","lon":"-49.2667","distance":0,"name":"Goiânia","country":"Brazil","cc":"BR","sponsor":"CYBERLINE FIBRA","id":"27442","preferred":0,"isp_id":"201855","https_functional":1,"host":"speedtest.cyberline.com.br:8080"},
{"url":"http://ookla-ita.asanet.tec.br:8080/speedtest/upload.php","lat":"-3.1350","lon":"-58.4385","distance":0,"name":"Itacoatiara","country":"Brazil","cc":"BR","sponsor":"Asanet","id":"58243","preferred":0,"isp_id":"212264","https_functional":1,"host":"ookla-ita.asanet.tec.br.prod.hosts.ooklaserver.net:8080"},
{"url":"http://speedtest.mixam.com.br:8080/speedtest/upload.php","lat":"-3.1350","lon":"-58.4385","distance":0,"name":"Itacoatiara","country":"Brazil","cc":"BR","sponsor":"Mix Internet","id":"65492","preferred":0,"isp_id":"129144","https_functional":1,"host":"speedtest.mixam.com.br.prod.hosts.ooklaserver.net:8080"},
{"url":"http://asanet.brsserver.com.br:8080/speedtest/upload.php","lat":"-2.7466","lon":"-58.0279","distance":0,"name":"Itapiranga","country":"Brazil","cc":"BR","sponsor":"Asanet","id":"69252","preferred":0,"isp_id":"212264","https_functional":1,"host":"asanet.brsserver.com.br:8080"},
{"url":"http://speedtest.japanettelecom.com.br:8080/speedtest/upload.php","lat":"-23.4849","lon":"-46.3495","distance":0,"name":"Itaquaquecetuba","country":"Brazil","cc":"BR","sponsor":"JAPANET TELECOM","id":"56562","preferred":0,"isp_id":"223300","https_functional":1,"host":"speedtest.japanettelecom.com.br:8080"},
{"url":"http://speedtest.conectaamazonia.com.br:8080/speedtest/upload.php","lat":"-2.5131","lon":"-56.1749","distance":0,"name":"Juruti","country":"Brazil","cc":"BR","sponsor":"CONECTA TELECOM","id":"57324","preferred":0,"isp_id":"128233","https_functional":1,"host":"speedtest.conectaamazonia.com.br:8080"},
{"url":"http://btestmcp.vocetelecom.vc:8080/speedtest/upload.php","lat":"0.0339","lon":"-51.3500","distance":0,"name":"Macapá","country":"Brazil","cc":"BR","sponsor":"Você Telecom","id":"55562","preferred":0,"isp_id":"105810","https_functional":1,"host":"btestmcp.vocetelecom.vc.prod.hosts.ooklaserver.net:8080"},
{"url":"http://spd79.claro.com.br:8080/speedtest/upload.php","lat":"0.0339","lon":"-51.3500","distance":0,"name":"Macapá","country":"Brazil","cc":"BR","sponsor":"Claro Móvel - MPA1","id":"70704","preferred":0,"isp_id":"14791","https_functional":1,"host":"spd79.claro.com.br:8080"},
{"url":"http://speedtest.americatelecom.net.br:8080/speedtest/upload.php","lat":"0.0339","lon":"-51.3500","distance":0,"name":"Macapá","country":"Brazil","cc":"BR","sponsor":"AMÉRICA TELECOM","id":"59625","preferred":0,"isp_id":"105531","https_functional":1,"host":"speedtest.americatelecom.net.br:8080"},
{"url":"http://speedtest.macapatelecom.net.br:8080/speedtest/upload.php","lat":"0.0339","lon":"-51.3500","distance":0,"name":"Macapá","country":"Brazil","cc":"BR","sponsor":"Macapá Telecom Ltda","id":"67763","preferred":0,"isp_id":"310984","host":"speedtest.macapatelecom.net.br:8080"},
{"url":"http://speedtest.pinguimtelecom.net.br:8080/speedtest/upload.php","lat":"0.0405","lon":"-51.0561","distance":0,"name":"Macapá","country":"Brazil","cc":"BR","sponsor":"PINGUIM TELECOM","id":"54670","preferred":0,"isp_id":"227551","https_functional":1,"host":"speedtest.pinguimtelecom.net.br:8080"},
{"url":"http://speedtest.webturbo.net.br:8080/speedtest/upload.php","lat":"0.0339","lon":"-51.3500","distance":0,"name":"Macapá","country":"Brazil","cc":"BR","sponsor":"Web Turbo","id":"24443","preferred":0,"isp_id":"196480","host":"speedtest.webturbo.net.br:8080"},
{"url":"http://speedtestap.vtal.net.br:8080/speedtest/upload.php","lat":"0.0405","lon":"-51.0561","distance":0,"name":"Macapá","country":"Brazil","cc":"BR","sponsor":"Vtal","id":"40399","preferred":0,"isp_id":"243067","https_functional":1,"host":"speedtestap.vtal.net.br.prod.hosts.ooklaserver.net:8080"},
{"url":"http://speedtestmacapa.webflash.net.br:8080/speedtest/upload.php","lat":"0.0405","lon":"-51.0561","distance":0,"name":"Macapá","country":"Brazil","cc":"BR","sponsor":"WebFlash","id":"55293","preferred":0,"isp_id":"77081","https_functional":1,"host":"speedtestmacapa.webflash.net.br:8080"},
{"url":"http://test.accesso.net.br:8080/speedtest/upload.php","lat":"0.0405","lon":"-51.0561","distance":0,"name":"Macapá","country":"Brazil","cc":"BR","sponsor":"Acesso Net - SS Moraes","id":"58184","preferred":0,"isp_id":"197979","host":"test.accesso.net.br:8080"},
{"url":"http://fwnetwork.brsserver.com.br:8080/speedtest/upload.php","lat":"-3.1000","lon":"-60.0167","distance":0,"name":"Manaus","country":"Brazil","cc":"BR","sponsor":"Fw Network","id":"70801","preferred":0,"isp_id":"315096","https_functional":1,"host":"fwnetwork.brsserver.com.br:8080"},
{"url":"http://lifitelecom.brsserver.com.br:8080/speedtest/upload.php","lat":"-3.1000","lon":"-60.0167","distance":0,"name":"Manaus","country":"Brazil","cc":"BR","sponsor":"LIFI TELECOM","id":"67434","preferred":0,"isp_id":"304105","https_functional":1,"host":"lifitelecom.brsserver.com.br:8080"},
{"url":"http://mns.i-systems.com:8080/speedtest/upload.php","lat":"-3.1000","lon":"-60.0167","distance":0,"name":"Manaus","country":"Brazil","cc":"BR","sponsor":"I-Systems","id":"64565","preferred":0,"isp_id":"299307","https_functional":1,"host":"mns.i-systems.com:8080"},
{"url":"https://ok.conectmastelecom.com.br:8080/speedtest/upload.php","lat":"-3.1000","lon":"-60.0167","distance":0,"name":"Manaus","country":"Brazil","cc":"BR","sponsor":"CONECTMAS Telecom","id":"37188","preferred":0,"isp_id":"219759","https_functional":1,"host":"ok.conectmastelecom.com.br:8080"},
{"url":"http://ookla.amazoniasat-isp.com.br:8080/speedtest/upload.php","lat":"-3.1000","lon":"-60.0167","distance":0,"name":"Manaus","country":"Brazil","cc":"BR","sponsor":"Amazônia Sat","id":"47135","preferred":0,"isp_id":"151261","https_functional":1,"host":"ookla.amazoniasat-isp.com.br.prod.hosts.ooklaserver.net:8080"},
{"url":"http://ookla.araujotelecom.com.br:8080/speedtest/upload.php","lat":"-3.1000","lon":"-60.0167","distance":0,"name":"Manaus","country":"Brazil","cc":"BR","sponsor":"Araujo Telecom","id":"57219","preferred":0,"isp_id":"219759","https_functional":1,"host":"ookla.araujotelecom.com.br.prod.hosts.ooklaserver.net:8080"},
{"url":"http://ookla.fullisp.com.br:8080/speedtest/upload.php","lat":"-3.1000","lon":"-60.0167","distance":0,"name":"Manaus","country":"Brazil","cc":"BR","sponsor":"Full Telecom","id":"62310","preferred":0,"isp_id":"19182","https_functional":1,"host":"ookla.fullisp.com.br.prod.hosts.ooklaserver.net:8080"},
{"url":"http://ookla.jgainterlinktelecom.com.br:8080/speedtest/upload.php","lat":"-3.1000","lon":"-60.0167","distance":0,"name":"Manaus","country":"Brazil","cc":"BR","sponsor":"JGA INTER LINK TELECOM LTDA","id":"64271","preferred":0,"isp_id":"206074","https_functional":1,"host":"ookla.jgainterlinktelecom.com.br.prod.hosts.ooklaserver.net:8080"},
{"url":"http://ookla.playmaisreverso.net.br:8080/speedtest/upload.php","lat":"-3.1000","lon":"-60.0167","distance":0,"name":"Manaus","country":"Brazil","cc":"BR","sponsor":"PlayMais Fibra","id":"63156","preferred":0,"isp_id":"284546","https_functional":1,"host":"ookla.playmaisreverso.net.br.prod.hosts.ooklaserver.net:8080"},
{"url":"http://ookla.siditelecom-isp.com.br:8080/speedtest/upload.php","lat":"-3.1000","lon":"-60.0167","distance":0,"name":"Manaus","country":"Brazil","cc":"BR","sponsor":"Sidi Telecom","id":"47570","preferred":0,"isp_id":"193476","https_functional":1,"host":"ookla.siditelecom-isp.com.br.prod.hosts.ooklaserver.net:8080"},
{"url":"http://spd33.claro.com.br:8080/speedtest/upload.php","lat":"-3.1000","lon":"-60.0167","distance":0,"name":"Manaus","country":"Brazil","cc":"BR","sponsor":"Claro Móvel - MNS1","id":"37453","preferred":0,"isp_id":"14791","https_functional":1,"host":"spd33.claro.com.br:8080"},
{"url":"http://speed.amazonett.com.br:8080/speedtest/upload.php","lat":"-3.1000","lon":"-60.0167","distance":0,"name":"Manaus","country":"Brazil","cc":"BR","sponsor":"Amazonet Telecom Ltda","id":"26522","preferred":0,"isp_id":"128217","https_functional":1,"host":"speed.amazonett.com.br:8080"},
{"url":"http://speedam.wsp.net.br:8080/speedtest/upload.php","lat":"-3.1000","lon":"-60.0167","distance":0,"name":"Manaus","country":"Brazil","cc":"BR","sponsor":"WSP FIBRA","id":"59830","preferred":0,"isp_id":"89080","https_functional":1,"host":"speedam.wsp.net.br:8080"},
{"url":"http://speedtest.albatroznetwork.com.br:8080/speedtest/upload.php","lat":"-3.1190","lon":"-60.0217","distance":0,"name":"Manaus","country":"Brazil","cc":"BR","sponsor":"Albatroz Network","id":"56117","preferred":0,"isp_id":"259266","https_functional":1,"host":"speedtest.albatroznetwork.com.br:8080"},
{"url":"http://speedtest.amnet.net.br:8080/speedtest/upload.php","lat":"-3.1000","lon":"-60.0167","distance":0,"name":"Manaus","country":"Brazil","cc":"BR","sponsor":"AMNET TELECOM","id":"24681","preferred":0,"isp_id":"163305","https_functional":1,"host":"speedtest.amnet.net.br.prod.hosts.ooklaserver.net:8080"},
{"url":"http://speedtest.coliseunet.com.br:8080/speedtest/upload.php","lat":"-3.1000","lon":"-60.0167","distance":0,"name":"Manaus","country":"Brazil","cc":"BR","sponsor":"COLISEUNET","id":"71756","preferred":0,"isp_id":"228359","https_functional":1,"host":"speedtest.coliseunet.com.br:8080"},
{"url":"http://speedtest.fibernetwork.com.br:8080/speedtest/upload.php","lat":"-3.1000","lon":"-60.0167","distance":0,"name":"Manaus","country":"Brazil","cc":"BR","sponsor":"Fiber Network","id":"71451","preferred":0,"isp_id":"202053","https_functional":1,"host":"speedtest.fibernetwork.com.br.prod.hosts.ooklaserver.net:8080"},
{"url":"http://speedtest.intlink.com.br:8080/speedtest/upload.php","lat":"-3.1000","lon":"-60.0167","distance":0,"name":"Manaus","country":"Brazil","cc":"BR","sponsor":"Intlink","id":"54574","preferred":0,"isp_id":"192461","https_functional":1,"host":"speedtest.intlink.com.br.prod.hosts.ooklaserver.net:8080"},
{"url":"http://speedtest.jetspeed.com.br:8080/speedtest/upload.php","lat":"-3.1000","lon":"-60.0167","distance":0,"name":"Manaus","country":"Brazil","cc":"BR","sponsor":"JETSPEED FIBRA","id":"62857","preferred":0,"isp_id":"305349","https_functional":1,"host":"speedtest.jetspeed.com.br.prod.hosts.ooklaserver.net:8080"},
{"url":"http://speedtest.jvswifi.com.br:8080/speedtest/upload.php","lat":"-3.1000","lon":"-60.0167","distance":0,"name":"Manaus","country":"Brazil","cc":"BR","sponsor":"JVS WIFI","id":"53474","preferred":0,"isp_id":"224189","host":"speedtest.jvswifi.com.br:8080"},
{"url":"http://speedtest.linkamos.com.br:8080/speedtest/upload.php","lat":"-3.1000","lon":"-60.0167","distance":0,"name":"Manaus","country":"Brazil","cc":"BR","sponsor":"LINKAMOS PROVEDOR DE INTERNET","id":"57675","preferred":0,"isp_id":"219759","https_functional":1,"host":"speedtest.linkamos.com.br:8080"},
{"url":"http://speedtest.syscom.manaus.br:8080/speedtest/upload.php","lat":"-3.1000","lon":"-60.0167","distance":0,"name":"Manaus","country":"Brazil","cc":"BR","sponsor":"Syscom Telecom","id":"35189","preferred":0,"isp_id":"228359","https_functional":1,"host":"speedtest.syscom.manaus.br:8080"},
{"url":"http://speedtest.unitelecom.net.br:8080/speedtest/upload.php","lat":"-3.1000","lon":"-60.0167","distance":0,"name":"Manaus","country":"Brazil","cc":"BR","sponsor":"UNITELECOM","id":"43704","preferred":0,"isp_id":"232469","https_functional":1,"host":"speedtest.unitelecom.net.br.prod.hosts.ooklaserver.net:8080"},
{"url":"http://speedtest.visiontelecom.com.br:8080/speedtest/upload.php","lat":"-3.1000","lon":"-60.0167","distance":0,"name":"Manaus","country":"Brazil","cc":"BR","sponsor":"Vision Telecom","id":"32848","preferred":0,"isp_id":"193419","https_functional":1,"host":"speedtest.visiontelecom.com.br:8080"},
{"url":"http://speedtest.wiretelecom.com.br:8080/speedtest/upload.php","lat":"-3.1000","lon":"-60.0167","distance":0,"name":"Manaus","country":"Brazil","cc":"BR","sponsor":"Wire Telecom","id":"71486","preferred":0,"isp_id":"202053","https_functional":1,"host":"speedtest.wiretelecom.com.br.prod.hosts.ooklaserver.net:8080"},
{"url":"http://spetstmns01.timbrasil.com.br:8080/speedtest/upload.php","lat":"-3.1000","lon":"-60.0167","distance":0,"name":"Manaus","country":"Brazil","cc":"BR","sponsor":"TIM Brasil","id":"12562","preferred":0,"isp_id":"105781","https_functional":1,"host":"spetstmns01.timbrasil.com.br:8080"},
{"url":"http://srvteste.edntelecom.net.br:8080/speedtest/upload.php","lat":"-3.1000","lon":"-60.0167","distance":0,"name":"Manaus","country":"Brazil","cc":"BR","sponsor":"EDN TELECOM","id":"63592","preferred":0,"isp_id":"219759","host":"srvteste.edntelecom.net.br:8080"},
{"url":"http://stest.ultraconnect.com.br:8080/speedtest/upload.php","lat":"-3.1000","lon":"-60.0167","distance":0,"name":"Manaus","country":"Brazil","cc":"BR","sponsor":"ULTRACONNECT","id":"62816","preferred":0,"isp_id":"189997","https_functional":1,"host":"stest.ultraconnect.com.br:8080"},
{"url":"http://teste.diotelecom.com.br:8080/speedtest/upload.php","lat":"-3.1000","lon":"-60.0167","distance":0,"name":"Manaus","country":"Brazil","cc":"BR","sponsor":"Dio Telecom","id":"18981","preferred":0,"isp_id":"193507","https_functional":1,"host":"teste.diotelecom.com.br:8080"},
{"url":"http://teste.firenetwork.com.br:8080/speedtest/upload.php","lat":"-2.9857","lon":"-60.0031","distance":0,"name":"Manaus","country":"Brazil","cc":"BR","sponsor":"FIRENETWORK LTDA","id":"40051","preferred":0,"isp_id":"307803","https_functional":1,"host":"teste.firenetwork.com.br:8080"},
{"url":"http://teste.linkonfibra.com.br:8080/speedtest/upload.php","lat":"-3.1000","lon":"-60.0167","distance":0,"name":"Manaus","country":"Brazil","cc":"BR","sponsor":"Link ON FIBRA","id":"63090","preferred":0,"isp_id":"0","https_functional":1,"host":"teste.linkonfibra.com.br:8080"},
{"url":"http://teste.mwhtelecom.com.br:8080/speedtest/upload.php","lat":"-3.1000","lon":"-60.0167","distance":0,"name":"Manaus","country":"Brazil","cc":"BR","sponsor":"MWH FIBRA","id":"62420","preferred":0,"isp_id":"311387","https_functional":1,"host":"teste.mwhtelecom.com.br:8080"},
{"url":"http://speedteste.newsolutionnet.com.br:8080/speedtest/upload.php","lat":"-3.1000","lon":"-60.0167","distance":0,"name":"Manaus","country":"Brazil","cc":"BR","sponsor":"New Solution Net","id":"32474","preferred":0,"isp_id":"201614","https_functional":1,"host":"teste.newsolutionnet.com.br:8080"},
{"url":"http://teste.reatelecom.com.br:8080/speedtest/upload.php","lat":"-3.1000","lon":"-60.0167","distance":0,"name":"Manaus","country":"Brazil","cc":"BR","sponsor":"R&A Telecom","id":"28117","preferred":0,"isp_id":"175871","host":"teste.reatelecom.com.br:8080"},
{"url":"http://teste.tstelecomltda.com.br:8080/speedtest/upload.php","lat":"-3.1000","lon":"-60.0167","distance":0,"name":"Manaus","country":"Brazil","cc":"BR","sponsor":"TS TELECOM Ltda","id":"51463","preferred":0,"isp_id":"162548","host":"teste.tstelecomltda.com.br:8080"},
{"url":"http://teste.wsfibra.com.br:8080/speedtest/upload.php","lat":"-3.1000","lon":"-60.0167","distance":0,"name":"Manaus","country":"Brazil","cc":"BR","sponsor":"WS-NET TELECOM","id":"36277","preferred":0,"isp_id":"128196","https_functional":1,"host":"teste.wsfibra.com.br.prod.hosts.ooklaserver.net:8080"},
{"url":"http://teste.xtremenet.com.br:8080/speedtest/upload.php","lat":"-3.1000","lon":"-60.0167","distance":0,"name":"Manaus","country":"Brazil","cc":"BR","sponsor":"Xtreme Soluções","id":"53923","preferred":0,"isp_id":"233364","https_functional":1,"host":"teste.xtremenet.com.br:8080"},
{"url":"http://velocidade.exytelecom.com.br:8080/speedtest/upload.php","lat":"-3.1000","lon":"-60.0167","distance":0,"name":"Manaus","country":"Brazil","cc":"BR","sponsor":"EXY TELECOM","id":"37986","preferred":0,"isp_id":"215942","host":"velocidade.exytelecom.com.br:8080"},
{"url":"http://velocidade.idnetttelecom.com.br:8080/speedtest/upload.php","lat":"-3.1000","lon":"-60.0167","distance":0,"name":"Manaus","country":"Brazil","cc":"BR","sponsor":"IDNETT TELECOM","id":"28448","preferred":0,"isp_id":"201171","https_functional":1,"host":"velocidade.idnetttelecom.com.br:8080"},
{"url":"https://velocidade.impertechtelecom.com.br:8080/speedtest/upload.php","lat":"-3.1000","lon":"-60.0167","distance":0,"name":"Manaus","country":"Brazil","cc":"BR","sponsor":"Impertech Telecom","id":"28429","preferred":0,"isp_id":"201877","https_functional":1,"host":"velocidade.impertechtelecom.com.br:8080"},
{"url":"http://velocidade.phinfortelecom.com.br:8080/speedtest/upload.php","lat":"-3.1000","lon":"-60.0167","distance":0,"name":"Manaus","country":"Brazil","cc":"BR","sponsor":"PH Telecom","id":"12169","preferred":0,"isp_id":"162548","https_functional":1,"host":"velocidade.phinfortelecom.com.br:8080"},
{"url":"http://velocimetro-mns.virtua.com.br:8080/speedtest/upload.php","lat":"-3.1000","lon":"-60.0167","distance":0,"name":"Manaus","country":"Brazil","cc":"BR","sponsor":"Claro Net Vírtua - MNS","id":"22139","preferred":0,"isp_id":"87729","https_functional":1,"host":"velocimetro-mns.virtua.com.br.prod.hosts.ooklaserver.net:8080"},
{"url":"http://velocimetro-spt.akto.com.br:8080/speedtest/upload.php","lat":"-3.1000","lon":"-60.0167","distance":0,"name":"Manaus","country":"Brazil","cc":"BR","sponsor":"Akto Tecnologia","id":"63417","preferred":0,"isp_id":"131677","https_functional":1,"host":"velocimetro-spt.akto.com.br:8080"},
{"url":"http://velocimetro.proveinter.com.br:8080/speedtest/upload.php","lat":"-3.1000","lon":"-60.0167","distance":0,"name":"Manaus","country":"Brazil","cc":"BR","sponsor":"Proveinter","id":"33584","preferred":0,"isp_id":"113681","https_functional":1,"host":"velocimetro.proveinter.com.br:8080"},
{"url":"http://velocimetro.speednetworks.com.br:8080/speedtest/upload.php","lat":"-3.1000","lon":"-60.0167","distance":0,"name":"Manaus","country":"Brazil","cc":"BR","sponsor":"SpeedNetworks","id":"43375","preferred":0,"isp_id":"128488","https_functional":1,"host":"velocimetro.speednetworks.com.br:8080"},
{"url":"http://speedtest.inovewifi.com:8080/speedtest/upload.php","lat":"-7.6135","lon":"-72.9060","distance":0,"name":"Mâncio Lima","country":"Brazil","cc":"BR","sponsor":"INOVE","id":"63787","preferred":0,"isp_id":"203222","https_functional":1,"host":"speedtest.inovewifi.com.prod.hosts.ooklaserver.net:8080"},
{"url":"http://redeultramf.net.br:8080/speedtest/upload.php","lat":"-2.0014","lon":"-54.0741","distance":0,"name":"Monte Alegre","country":"Brazil","cc":"BR","sponsor":"REDE ULTRA MF","id":"72175","preferred":0,"isp_id":"133533","https_functional":1,"host":"redeultramf.net.br:8080"},
{"url":"http://speedtest.redevisualnet.com.br:8080/speedtest/upload.php","lat":"-2.0014","lon":"-54.0741","distance":0,"name":"Monte Alegre","country":"Brazil","cc":"BR","sponsor":"Visual Telecom","id":"40357","preferred":0,"isp_id":"135774","https_functional":1,"host":"speedtest.redevisualnet.com.br.prod.hosts.ooklaserver.net:8080"},
{"url":"http://speedtest.topnettelecomservicos.com.br:8080/speedtest/upload.php","lat":"-2.0014","lon":"-54.0741","distance":0,"name":"Monte Alegre","country":"Brazil","cc":"BR","sponsor":"TOPNET TELECOM","id":"41579","preferred":0,"isp_id":"131723","https_functional":1,"host":"speedtest.topnettelecomservicos.com.br:8080"},
{"url":"http://test.infoconnecttelecom.com.br:8080/speedtest/upload.php","lat":"-2.1923","lon":"-56.7115","distance":0,"name":"Nhamundá","country":"Brazil","cc":"BR","sponsor":"INFO CONNECT TELECOM LTDA","id":"47393","preferred":0,"isp_id":"193863","host":"test.infoconnecttelecom.com.br:8080"},
{"url":"http://speedtest-obd.redeconecta.com:8080/speedtest/upload.php","lat":"-1.8964","lon":"-55.5176","distance":0,"name":"Óbidos","country":"Brazil","cc":"BR","sponsor":"CONECTA AMAZÔNIA TELECOM LTDA","id":"47080","preferred":0,"isp_id":"128233","https_functional":1,"host":"speedtest-obd.redeconecta.com:8080"},
{"url":"http://medidor.nortelecom.com.br:8080/speedtest/upload.php","lat":"3.8442","lon":"-51.8323","distance":0,"name":"Oiapoque","country":"Brazil","cc":"BR","sponsor":"Norte Telecom","id":"45584","preferred":0,"isp_id":"204184","https_functional":1,"host":"medidor.nortelecom.com.br.prod.hosts.ooklaserver.net:8080"},
{"url":"http://speedtest.orixinet.com.br:8080/speedtest/upload.php","lat":"-1.7607","lon":"-55.8629","distance":0,"name":"Oriximiná","country":"Brazil","cc":"BR","sponsor":"Orixinet Telecom Ltda - Epp","id":"44831","preferred":0,"isp_id":"114608","https_functional":1,"host":"speedtest.orixinet.com.br:8080"},
{"url":"http://velocity.softtelecom.net.br:8080/speedtest/upload.php","lat":"-1.7607","lon":"-55.8629","distance":0,"name":"Oriximiná","country":"Brazil","cc":"BR","sponsor":"Soft Telecom","id":"54909","preferred":0,"isp_id":"235618","https_functional":1,"host":"velocity.softtelecom.net.br:8080"},
{"url":"http://speedtest.connectbv8.com.br:8080/speedtest/upload.php","lat":"4.4784","lon":"-61.1483","distance":0,"name":"Pacaraima","country":"Brazil","cc":"BR","sponsor":"Connect","id":"50736","preferred":0,"isp_id":"27467","https_functional":1,"host":"speedtest.connectbv8.com.br:8080"},
{"url":"http://ooklatins.redeconexaonet.com:8080/speedtest/upload.php","lat":"-2.6320","lon":"-56.7331","distance":0,"name":"Parintins","country":"Brazil","cc":"BR","sponsor":"Rede ConexãoNet","id":"52848","preferred":0,"isp_id":"163306","https_functional":1,"host":"ooklatins.redeconexaonet.com:8080"},
{"url":"http://veloteste.mrjomar.com.br:8080/speedtest/upload.php","lat":"-2.6320","lon":"-56.7331","distance":0,"name":"Parintins","country":"Brazil","cc":"BR","sponsor":"MR Jomar","id":"58669","preferred":0,"isp_id":"128078","https_functional":1,"host":"veloteste.mrjomar.com.br:8080"},
{"url":"http://servidor.speedplay.com.br:8080/speedtest/upload.php","lat":"-2.0533","lon":"-60.0236","distance":0,"name":"Presidente Figueiredo","country":"Brazil","cc":"BR","sponsor":"SPEED INTERNET","id":"59870","preferred":0,"isp_id":"243067","https_functional":1,"host":"servidor.speedplay.com.br:8080"},
{"url":"http://speed.fyberlink.com.br:8080/speedtest/upload.php","lat":"-1.2270","lon":"-48.2960","distance":0,"name":"Santa Barbara do Pará","country":"Brazil","cc":"BR","sponsor":"Fyberlink","id":"71241","preferred":0,"isp_id":"290410","https_functional":1,"host":"speed.fyberlink.com.br.prod.hosts.ooklaserver.net:8080"},
{"url":"http://ookla.slimnet.com.br:8080/speedtest/upload.php","lat":"-2.4506","lon":"-54.7009","distance":0,"name":"Santarém","country":"Brazil","cc":"BR","sponsor":"SLIM NET","id":"46116","preferred":0,"isp_id":"192888","https_functional":1,"host":"ookla.slimnet.com.br.prod.hosts.ooklaserver.net:8080"},
{"url":"http://speedtest.nexinternett.com.br:8080/speedtest/upload.php","lat":"-2.4506","lon":"-54.7009","distance":0,"name":"Santarém","country":"Brazil","cc":"BR","sponsor":"Nex Internet","id":"64069","preferred":0,"isp_id":"265659","https_functional":1,"host":"speedtest.nexinternett.com.br:8080"},
{"url":"http://speedtestsantarem.zumtelecom.com.br:8080/speedtest/upload.php","lat":"-2.4506","lon":"-54.7009","distance":0,"name":"Santarém","country":"Brazil","cc":"BR","sponsor":"ZUM Telecom","id":"53658","preferred":0,"isp_id":"127891","https_functional":1,"host":"speedtestsantarem.zumtelecom.com.br.prod.hosts.ooklaserver.net:8080"},
{"url":"http://speedtestsgc.csmtelecom.net.br:8080/speedtest/upload.php","lat":"-0.1308","lon":"-67.0877","distance":0,"name":"São Gabriel da Cachoeira","country":"Brazil","cc":"BR","sponsor":"CSM TELECOM","id":"72045","preferred":0,"isp_id":"0","https_functional":1,"host":"speedtestsgc.csmtelecom.net.br:8080"},
{"url":"http://sp.provedordantasnet.com.br:8080/speedtest/upload.php","lat":"1.0124","lon":"-60.0376","distance":0,"name":"São Luiz do Anauá","country":"Brazil","cc":"BR","sponsor":"DANTASNET","id":"69980","preferred":0,"isp_id":"314126","https_functional":1,"host":"sp.provedordantasnet.com.br:8080"},
{"url":"http://speed.sdmnet.com.br:8080/speedtest/upload.php","lat":"-8.1609","lon":"-70.7652","distance":0,"name":"Tarauacá","country":"Brazil","cc":"BR","sponsor":"Sdmnet","id":"52011","preferred":0,"isp_id":"227901","host":"speed.sdmnet.com.br:8080"},
{"url":"http://speedtest.idnet.net.br:8080/speedtest/upload.php","lat":"-8.1609","lon":"-70.7652","distance":0,"name":"Tarauacá","country":"Brazil","cc":"BR","sponsor":"IDNet Fibra Óptica","id":"52371","preferred":0,"isp_id":"217224","https_functional":1,"host":"speedtest.idnet.net.br.prod.hosts.ooklaserver.net:8080"},
{"url":"http://speedtest-tesa.coelhotecnologia.com.br:8080/speedtest/upload.php","lat":"-2.1046","lon":"-56.4882","distance":0,"name":"Terra Santa","country":"Brazil","cc":"BR","sponsor":"Coelho Fibra","id":"65416","preferred":0,"isp_id":"104069","https_functional":1,"host":"speedtest-tesa.coelhotecnologia.com.br.prod.hosts.ooklaserver.net:8080"},
{"url":"http://asanet1.brsserver.com.br:8080/speedtest/upload.php","lat":"-3.1291","lon":"-58.1537","distance":0,"name":"Urucurituba","country":"Brazil","cc":"BR","sponsor":"Asanet","id":"71817","preferred":0,"isp_id":"318188","https_functional":1,"host":"asanet1.brsserver.com.br:8080"},
{"url":"http://speedtest.systemlifeline.com:8080/speedtest/upload.php","lat":"43.7315","lon":"-79.7624","distance":0,"name":"Brampton, ON","country":"Canada","cc":"CA","sponsor":"System Lifeline Inc.","id":"23625","preferred":0,"isp_id":"212871","https_functional":1,"host":"speedtest.systemlifeline.com.prod.hosts.ooklaserver.net:8080"},
{"url":"http://stbrampton.netcrawler.ca:8080/speedtest/upload.php","lat":"43.7315","lon":"-79.7624","distance":0,"name":"Brampton, ON","country":"Canada","cc":"CA","sponsor":"Netcrawler.ca Internet","id":"51020","preferred":0,"isp_id":"226932","https_functional":1,"host":"stbrampton.netcrawler.ca.prod.hosts.ooklaserver.net:8080"},
{"url":"http://stbrampton.rogers.com:8080/speedtest/upload.php","lat":"43.7315","lon":"-79.7624","distance":0,"name":"Brampton, ON","country":"Canada","cc":"CA","sponsor":"Rogers","id":"46148","preferred":0,"isp_id":"164","https_functional":1,"host":"stbrampton.rogers.com:8080"},
{"url":"http://wirelinespeedtestbrampton.srvr.bell.ca:8080/speedtest/upload.php","lat":"43.7315","lon":"-79.7624","distance":0,"name":"Brampton, ON","country":"Canada","cc":"CA","sponsor":"Bell Canada","id":"53395","preferred":0,"isp_id":"0","https_functional":1,"host":"wirelinespeedtestbrampton.srvr.bell.ca.prod.hosts.ooklaserver.net:8080"},
{"url":"http://stbrantford.rogers.com:8080/speedtest/upload.php","lat":"43.1394","lon":"-80.2644","distance":0,"name":"Brantford, ON","country":"Canada","cc":"CA","sponsor":"Rogers","id":"47541","preferred":0,"isp_id":"164","https_functional":1,"host":"stbrantford.rogers.com:8080"},
{"url":"http://stbrantfordwireless.rogers.com:8080/speedtest/upload.php","lat":"43.1394","lon":"-80.2644","distance":0,"name":"Brantford, ON","country":"Canada","cc":"CA","sponsor":"Rogers Wireless","id":"46139","preferred":0,"isp_id":"164","https_functional":1,"host":"stbrantfordwireless.rogers.com:8080"},
{"url":"http://speedtest.cogeco.ca:8080/speedtest/upload.php","lat":"43.3255","lon":"-79.7990","distance":0,"name":"Burlington, ON","country":"Canada","cc":"CA","sponsor":"Cogeco Connexion Inc.","id":"17341","preferred":0,"isp_id":"282","https_functional":1,"host":"speedtest.cogeco.ca:8080"},
{"url":"http://wirelinespeedtestburlington.srvr.bell.ca:8080/speedtest/upload.php","lat":"43.3255","lon":"-79.7990","distance":0,"name":"Burlington, ON","country":"Canada","cc":"CA","sponsor":"Bell Canada","id":"46797","preferred":0,"isp_id":"0","https_functional":1,"host":"wirelinespeedtestburlington.srvr.bell.ca.prod.hosts.ooklaserver.net:8080"},
{"url":"http://speed.mpvnetworks.com:8080/speedtest/upload.php","lat":"42.4048","lon":"-82.1910","distance":0,"name":"Chatham, ON","country":"Canada","cc":"CA","sponsor":"MPVWIFI","id":"47304","preferred":0,"isp_id":"208551","https_functional":1,"host":"speed.mpvnetworks.com.prod.hosts.ooklaserver.net:8080"},
{"url":"http://speedtest-tek.teksavvy.com:8080/speedtest/upload.php","lat":"42.4048","lon":"-82.1910","distance":0,"name":"Chatham, ON","country":"Canada","cc":"CA","sponsor":"Teksavvy Solutions Inc.","id":"47750","preferred":0,"isp_id":"2324","https_functional":1,"host":"speedtest-tek.teksavvy.com.prod.hosts.ooklaserver.net:8080"},
{"url":"http://stchathamwireless.rogers.com:8080/speedtest/upload.php","lat":"42.4048","lon":"-82.1910","distance":0,"name":"Chatham, ON","country":"Canada","cc":"CA","sponsor":"Rogers Wireless","id":"47344","preferred":0,"isp_id":"164","https_functional":1,"host":"stchathamwireless.rogers.com:8080"},
{"url":"http://speedtest.gosfieldtel.ca:8080/speedtest/upload.php","lat":"42.1330","lon":"-82.7500","distance":0,"name":"Cottam, ON","country":"Canada","cc":"CA","sponsor":"Gosfield North Communications","id":"11505","preferred":0,"isp_id":"62744","https_functional":1,"host":"speedtest.gosfieldtel.ca.prod.hosts.ooklaserver.net:8080"},
{"url":"http://stetobicoke.netcrawler.ca:8080/speedtest/upload.php","lat":"43.6205","lon":"-79.5132","distance":0,"name":"Etobicoke, ON","country":"Canada","cc":"CA","sponsor":"Netcrawler.ca Internet","id":"51046","preferred":0,"isp_id":"226932","https_functional":1,"host":"stetobicoke.netcrawler.ca.prod.hosts.ooklaserver.net:8080"},
{"url":"http://stetobicoke.rogers.com:8080/speedtest/upload.php","lat":"43.6205","lon":"-79.5132","distance":0,"name":"Etobicoke, ON","country":"Canada","cc":"CA","sponsor":"Rogers","id":"46144","preferred":0,"isp_id":"164","https_functional":1,"host":"stetobicoke.rogers.com:8080"},
{"url":"http://383-2speedtest.wightman.ca:8080/speedtest/upload.php","lat":"43.7060","lon":"-80.3778","distance":0,"name":"Fergus, ON","country":"Canada","cc":"CA","sponsor":"Wightman","id":"54168","preferred":0,"isp_id":"7261","https_functional":1,"host":"383-2speedtest.wightman.ca.prod.hosts.ooklaserver.net:8080"},
{"url":"http://stgeorgetownwireless.rogers.com:8080/speedtest/upload.php","lat":"43.6502","lon":"-79.9036","distance":0,"name":"Georgetown, ON","country":"Canada","cc":"CA","sponsor":"Rogers Wireless","id":"47345","preferred":0,"isp_id":"164","https_functional":1,"host":"stgeorgetownwireless.rogers.com:8080"},
{"url":"http://stguelph.netcrawler.ca:8080/speedtest/upload.php","lat":"43.5448","lon":"-80.2482","distance":0,"name":"Guelph, ON","country":"Canada","cc":"CA","sponsor":"Netcrawler.ca Internet","id":"54122","preferred":0,"isp_id":"226932","https_functional":1,"host":"stguelph.netcrawler.ca.prod.hosts.ooklaserver.net:8080"},
{"url":"http://stguelph.rogers.com:8080/speedtest/upload.php","lat":"43.5448","lon":"-80.2482","distance":0,"name":"Guelph, ON","country":"Canada","cc":"CA","sponsor":"Rogers","id":"46435","preferred":0,"isp_id":"164","https_functional":1,"host":"stguelph.rogers.com:8080"},
{"url":"http://stguelphwireless.rogers.com:8080/speedtest/upload.php","lat":"43.5448","lon":"-80.2482","distance":0,"name":"Guelph, ON","country":"Canada","cc":"CA","sponsor":"Rogers Wireless","id":"47328","preferred":0,"isp_id":"164","https_functional":1,"host":"stguelphwireless.rogers.com:8080"},
{"url":"http://wirelinespeedtestcambridge.srvr.bell.ca:8080/speedtest/upload.php","lat":"43.5448","lon":"-80.2482","distance":0,"name":"Guelph, ON","country":"Canada","cc":"CA","sponsor":"Bell Canada","id":"46805","preferred":0,"isp_id":"0","https_functional":1,"host":"wirelinespeedtestcambridge.srvr.bell.ca.prod.hosts.ooklaserver.net:8080"},
{"url":"http://mobilityooklahamilton.srvr.bell.ca:8080/speedtest/upload.php","lat":"43.2565","lon":"-79.8675","distance":0,"name":"Hamilton, ON","country":"Canada","cc":"CA","sponsor":"Bell Mobility","id":"52347","preferred":0,"isp_id":"0","https_functional":1,"host":"mobilityooklahamilton.srvr.bell.ca.prod.hosts.ooklaserver.net:8080"},
{"url":"http://sp1.hcetelecom.com:8080/speedtest/upload.php","lat":"43.2565","lon":"-79.8675","distance":0,"name":"Hamilton, ON","country":"Canada","cc":"CA","sponsor":"Hamilton Community Enterprises","id":"21275","preferred":0,"isp_id":"245329","https_functional":1,"host":"sp1.hcetelecom.com:8080"},
{"url":"http://sthamilton.netcrawler.ca:8080/speedtest/upload.php","lat":"43.2565","lon":"-79.8675","distance":0,"name":"Hamilton, ON","country":"Canada","cc":"CA","sponsor":"Netcrawler.ca Internet","id":"54123","preferred":0,"isp_id":"226932","https_functional":1,"host":"sthamilton.netcrawler.ca.prod.hosts.ooklaserver.net:8080"},
{"url":"http://sthamilton.rogers.com:8080/speedtest/upload.php","lat":"43.2565","lon":"-79.8675","distance":0,"name":"Hamilton, ON","country":"Canada","cc":"CA","sponsor":"Rogers","id":"46432","preferred":0,"isp_id":"164","https_functional":1,"host":"sthamilton.rogers.com:8080"},
{"url":"http://sthamiltonwireless.rogers.com:8080/speedtest/upload.php","lat":"43.2565","lon":"-79.8675","distance":0,"name":"Hamilton, ON","country":"Canada","cc":"CA","sponsor":"Rogers Wireless","id":"47326","preferred":0,"isp_id":"164","https_functional":1,"host":"sthamiltonwireless.rogers.com:8080"},
{"url":"http://wirelinespeedtesthamilton.srvr.bell.ca:8080/speedtest/upload.php","lat":"43.2565","lon":"-79.8675","distance":0,"name":"Hamilton, ON","country":"Canada","cc":"CA","sponsor":"Bell Canada","id":"46796","preferred":0,"isp_id":"0","https_functional":1,"host":"wirelinespeedtesthamilton.srvr.bell.ca.prod.hosts.ooklaserver.net:8080"},
{"url":"http://speedtest.brooketel.coop:8080/speedtest/upload.php","lat":"42.8180","lon":"-81.9825","distance":0,"name":"Inwood, ON","country":"Canada","cc":"CA","sponsor":"Brooke Telecom Co-Operative Inc.","id":"55213","preferred":0,"isp_id":"228980","https_functional":1,"host":"speedtest.brooketel.coop.prod.hosts.ooklaserver.net:8080"},
{"url":"http://stkingcity.netcrawler.ca:8080/speedtest/upload.php","lat":"43.9287","lon":"-79.5281","distance":0,"name":"King City, ON","country":"Canada","cc":"CA","sponsor":"Netcrawler.ca Internet","id":"49004","preferred":0,"isp_id":"226932","https_functional":1,"host":"stkingcity.netcrawler.ca.prod.hosts.ooklaserver.net:8080"},
{"url":"http://stkingcity.rogers.com:8080/speedtest/upload.php","lat":"43.9287","lon":"-79.5281","distance":0,"name":"King City, ON","country":"Canada","cc":"CA","sponsor":"Rogers","id":"46434","preferred":0,"isp_id":"164","https_functional":1,"host":"stkingcity.rogers.com:8080"},
{"url":"http://speedtest.quadro.net:8080/speedtest/upload.php","lat":"43.3236","lon":"-81.3133","distance":0,"name":"Kirkton, ON","country":"Canada","cc":"CA","sponsor":"Quadro Communications","id":"54243","preferred":0,"isp_id":"66304","https_functional":1,"host":"speedtest.quadro.net:8080"},
{"url":"http://speedtest.cloudwifi.ca:8080/speedtest/upload.php","lat":"43.4500","lon":"-80.4833","distance":0,"name":"Kitchener, ON","country":"Canada","cc":"CA","sponsor":"Cloudwifi","id":"16046","preferred":0,"isp_id":"122678","https_functional":1,"host":"speedtest.cloudwifi.ca.prod.hosts.ooklaserver.net:8080"},
{"url":"http://speedtest.netflash.net:8080/speedtest/upload.php","lat":"43.4500","lon":"-80.4833","distance":0,"name":"Kitchener, ON","country":"Canada","cc":"CA","sponsor":"Netflash Internet","id":"1061","preferred":0,"isp_id":"29017","https_functional":1,"host":"speedtest.netflash.net:8080"},
{"url":"http://stkitchener.rogers.com:8080/speedtest/upload.php","lat":"43.4500","lon":"-80.4833","distance":0,"name":"Kitchener, ON","country":"Canada","cc":"CA","sponsor":"Rogers","id":"46809","preferred":0,"isp_id":"164","https_functional":1,"host":"stkitchener.rogers.com:8080"},
{"url":"http://stkitchenerwireless.rogers.com:8080/speedtest/upload.php","lat":"43.4500","lon":"-80.4833","distance":0,"name":"Kitchener, ON","country":"Canada","cc":"CA","sponsor":"Rogers Wireless","id":"46125","preferred":0,"isp_id":"164","https_functional":1,"host":"stkitchenerwireless.rogers.com:8080"},
{"url":"http://wirelinespeedtestkitchener.srvr.bell.ca:8080/speedtest/upload.php","lat":"43.4500","lon":"-80.4833","distance":0,"name":"Kitchener, ON","country":"Canada","cc":"CA","sponsor":"Bell Canada","id":"46804","preferred":0,"isp_id":"0","https_functional":1,"host":"wirelinespeedtestkitchener.srvr.bell.ca.prod.hosts.ooklaserver.net:8080"},
{"url":"http://stleamingtonwireless.rogers.com:8080/speedtest/upload.php","lat":"42.0532","lon":"-82.5999","distance":0,"name":"Leamington, ON","country":"Canada","cc":"CA","sponsor":"Rogers Wireless","id":"47350","preferred":0,"isp_id":"164","https_functional":1,"host":"stleamingtonwireless.rogers.com:8080"},
{"url":"http://speedtest-london.start.ca:8080/speedtest/upload.php","lat":"42.9837","lon":"-81.2497","distance":0,"name":"London, ON","country":"Canada","cc":"CA","sponsor":"Start.ca","id":"24930","preferred":0,"isp_id":"16391","https_functional":1,"host":"speedtest-london.start.ca.prod.hosts.ooklaserver.net:8080"},
{"url":"http://speedtest.nftctelecom.net:8080/speedtest/upload.php","lat":"42.9849","lon":"-81.2453","distance":0,"name":"London, ON","country":"Canada","cc":"CA","sponsor":"NFTC Telecom","id":"14068","preferred":0,"isp_id":"106124","https_functional":1,"host":"speedtest.nftctelecom.net.prod.hosts.ooklaserver.net:8080"},
{"url":"http://stlondon.netcrawler.ca:8080/speedtest/upload.php","lat":"42.9849","lon":"-81.2453","distance":0,"name":"London, ON","country":"Canada","cc":"CA","sponsor":"Netcrawler.ca Internet","id":"54253","preferred":0,"isp_id":"226932","https_functional":1,"host":"stlondon.netcrawler.ca.prod.hosts.ooklaserver.net:8080"},
{"url":"http://stlondon.rogers.com:8080/speedtest/upload.php","lat":"42.9849","lon":"-81.2453","distance":0,"name":"London, ON","country":"Canada","cc":"CA","sponsor":"Rogers","id":"46149","preferred":0,"isp_id":"164","https_functional":1,"host":"stlondon.rogers.com:8080"},
{"url":"http://stlondonwireless.rogers.com:8080/speedtest/upload.php","lat":"42.9849","lon":"-81.2453","distance":0,"name":"London, ON","country":"Canada","cc":"CA","sponsor":"Rogers Wireless","id":"46137","preferred":0,"isp_id":"164","https_functional":1,"host":"stlondonwireless.rogers.com:8080"},
{"url":"http://wirelinespeedtestlondon.srvr.bell.ca:8080/speedtest/upload.php","lat":"42.9849","lon":"-81.2453","distance":0,"name":"London, ON","country":"Canada","cc":"CA","sponsor":"Bell Canada","id":"57695","preferred":0,"isp_id":"254596","https_functional":1,"host":"wirelinespeedtestlondon.srvr.bell.ca.prod.hosts.ooklaserver.net:8080"},
{"url":"http://clg-105-sptest.ncri.com:8080/speedtest/upload.php","lat":"43.6481","lon":"-79.4042","distance":0,"name":"Markham, ON","country":"Canada","cc":"CA","sponsor":"NCRi","id":"59812","preferred":0,"isp_id":"256720","https_functional":1,"host":"clg-105-sptest.ncri.com.prod.hosts.ooklaserver.net:8080"},
{"url":"http://wirelinespeedtestmarkham.srvr.bell.ca:8080/speedtest/upload.php","lat":"43.6481","lon":"-79.4042","distance":0,"name":"Markham, ON","country":"Canada","cc":"CA","sponsor":"Bell Canada","id":"17394","preferred":0,"isp_id":"0","https_functional":1,"host":"wirelinespeedtestmarkham.srvr.bell.ca.prod.hosts.ooklaserver.net:8080"},
{"url":"http://stmilton.rogers.com:8080/speedtest/upload.php","lat":"43.5183","lon":"-79.8774","distance":0,"name":"Milton, ON","country":"Canada","cc":"CA","sponsor":"Rogers","id":"47540","preferred":0,"isp_id":"164","https_functional":1,"host":"stmilton.rogers.com:8080"},
{"url":"http://stmiltonwireless.rogers.com:8080/speedtest/upload.php","lat":"43.5183","lon":"-79.8774","distance":0,"name":"Milton, ON","country":"Canada","cc":"CA","sponsor":"Rogers Wireless","id":"47330","preferred":0,"isp_id":"164","https_functional":1,"host":"stmiltonwireless.rogers.com:8080"},
{"url":"http://speedtest.mornington.ca:8080/speedtest/upload.php","lat":"43.5658","lon":"-80.9222","distance":0,"name":"Milverton, ON","country":"Canada","cc":"CA","sponsor":"Mornington Communications Ltd","id":"10727","preferred":0,"isp_id":"232489","https_functional":1,"host":"speedtest.mornington.ca.prod.hosts.ooklaserver.net:8080"},
{"url":"http://stmississauga.netcrawler.ca:8080/speedtest/upload.php","lat":"43.6000","lon":"-79.6500","distance":0,"name":"Mississauga, ON","country":"Canada","cc":"CA","sponsor":"Netcrawler.ca Internet","id":"48976","preferred":0,"isp_id":"226932","https_functional":1,"host":"stmississauga.netcrawler.ca.prod.hosts.ooklaserver.net:8080"},
{"url":"http://stmississauga.rogers.com:8080/speedtest/upload.php","lat":"43.6000","lon":"-79.6500","distance":0,"name":"Mississauga, ON","country":"Canada","cc":"CA","sponsor":"Rogers","id":"46147","preferred":0,"isp_id":"164","https_functional":1,"host":"stmississauga.rogers.com:8080"},
{"url":"http://stmississaugawireless.rogers.com:8080/speedtest/upload.php","lat":"43.6000","lon":"-79.6500","distance":0,"name":"Mississauga, ON","country":"Canada","cc":"CA","sponsor":"Rogers Wireless","id":"46123","preferred":0,"isp_id":"164","https_functional":1,"host":"stmississaugawireless.rogers.com:8080"},
{"url":"http://wirelinespeedtestmississauga.srvr.bell.ca:8080/speedtest/upload.php","lat":"43.6000","lon":"-79.6500","distance":0,"name":"Mississauga, ON","country":"Canada","cc":"CA","sponsor":"Bell Canada","id":"56780","preferred":0,"isp_id":"254596","https_functional":1,"host":"wirelinespeedtestmississauga.srvr.bell.ca.prod.hosts.ooklaserver.net:8080"},
{"url":"http://speedtest-mtl.beanfield.com:8080/speedtest/upload.php","lat":"45.5017","lon":"-73.5673","distance":0,"name":"Montreal, QC","country":"Canada","cc":"CA","sponsor":"Beanfield","id":"16045","preferred":0,"isp_id":"4966","https_functional":1,"host":"speedtest-mtl.beanfield.com.prod.hosts.ooklaserver.net:8080"},
{"url":"http://speedtest.cdmsfirst.com:8080/speedtest/upload.php","lat":"45.5017","lon":"-73.5673","distance":0,"name":"Montreal, QC","country":"Canada","cc":"CA","sponsor":"CDMS","id":"63155","preferred":0,"isp_id":"159859","host":"speedtest.cdmsfirst.com:8080"},
{"url":"http://speedtest.xcdtelecom.com:8080/speedtest/upload.php","lat":"45.5017","lon":"-73.5673","distance":0,"name":"Montreal, QC","country":"Canada","cc":"CA","sponsor":"XCD Télécom","id":"59219","preferred":0,"isp_id":"204334","https_functional":1,"host":"speedtest.xcdtelecom.com.prod.hosts.ooklaserver.net:8080"},
{"url":"http://stmontreal.netcrawler.ca:8080/speedtest/upload.php","lat":"45.5019","lon":"-73.5674","distance":0,"name":"Montreal, QC","country":"Canada","cc":"CA","sponsor":"Netcrawler.ca Internet","id":"64420","preferred":0,"isp_id":"226932","https_functional":1,"host":"stmontreal.netcrawler.ca.prod.hosts.ooklaserver.net:8080"},
{"url":"http://wirelinespeedtestmontreal.srvr.bell.ca:8080/speedtest/upload.php","lat":"45.5017","lon":"-73.5673","distance":0,"name":"Montreal, QC","country":"Canada","cc":"CA","sponsor":"Bell Canada","id":"58956","preferred":0,"isp_id":"254596","https_functional":1,"host":"wirelinespeedtestmontreal.srvr.bell.ca.prod.hosts.ooklaserver.net:8080"},
{"url":"http://stoakville.rogers.com:8080/speedtest/upload.php","lat":"43.4675","lon":"-79.6877","distance":0,"name":"Oakville, ON","country":"Canada","cc":"CA","sponsor":"Rogers","id":"46763","preferred":0,"isp_id":"164","https_functional":1,"host":"stoakville.rogers.com:8080"},
{"url":"http://storangeville.rogers.com:8080/speedtest/upload.php","lat":"43.9200","lon":"-80.0943","distance":0,"name":"Orangeville, ON","country":"Canada","cc":"CA","sponsor":"Rogers","id":"47548","preferred":0,"isp_id":"164","https_functional":1,"host":"storangeville.rogers.com:8080"},
{"url":"http://storangevillewireless.rogers.com:8080/speedtest/upload.php","lat":"43.9200","lon":"-80.0943","distance":0,"name":"Orangeville, ON","country":"Canada","cc":"CA","sponsor":"Rogers Wireless","id":"47354","preferred":0,"isp_id":"164","https_functional":1,"host":"storangevillewireless.rogers.com:8080"},
{"url":"http://speedtest2.hurontel.on.ca:8080/speedtest/upload.php","lat":"44.0688","lon":"-81.5914","distance":0,"name":"Ripley, ON","country":"Canada","cc":"CA","sponsor":"Huron Telecommuncations Co-operative Ltd","id":"55524","preferred":0,"isp_id":"37709","https_functional":1,"host":"speedtest2.hurontel.on.ca.prod.hosts.ooklaserver.net:8080"},
{"url":"http://stsarniawireless.rogers.com:8080/speedtest/upload.php","lat":"42.9745","lon":"-82.4066","distance":0,"name":"Sarnia, ON","country":"Canada","cc":"CA","sponsor":"Rogers Wireless","id":"46128","preferred":0,"isp_id":"164","https_functional":1,"host":"stsarniawireless.rogers.com:8080"},
{"url":"http://stsaultstemariewireless.rogers.com:8080/speedtest/upload.php","lat":"46.5136","lon":"-84.3358","distance":0,"name":"Sault Ste. Marie, ON","country":"Canada","cc":"CA","sponsor":"Rogers Wireless","id":"47340","preferred":0,"isp_id":"164","https_functional":1,"host":"stsaultstemariewireless.rogers.com:8080"},
{"url":"http://speedtest01.ehtel.ca:8080/speedtest/upload.php","lat":"44.0791","lon":"-80.2012","distance":0,"name":"Shelburne, ON","country":"Canada","cc":"CA","sponsor":"EH!tel Networks","id":"53634","preferred":0,"isp_id":"168980","https_functional":1,"host":"speedtest01.ehtel.ca.prod.hosts.ooklaserver.net:8080"},
{"url":"http://ststthomas.rogers.com:8080/speedtest/upload.php","lat":"42.7777","lon":"-81.1827","distance":0,"name":"St. Thomas, ON","country":"Canada","cc":"CA","sponsor":"Rogers","id":"47542","preferred":0,"isp_id":"164","https_functional":1,"host":"ststthomas.rogers.com:8080"},
{"url":"http://ststthomaswireless.rogers.com:8080/speedtest/upload.php","lat":"42.7777","lon":"-81.1827","distance":0,"name":"St. Thomas, ON","country":"Canada","cc":"CA","sponsor":"Rogers Wireless","id":"47346","preferred":0,"isp_id":"164","https_functional":1,"host":"ststthomaswireless.rogers.com:8080"},
{"url":"http://wirelinespeedteststthomas.srvr.bell.ca:8080/speedtest/upload.php","lat":"42.7777","lon":"-81.1827","distance":0,"name":"St. Thomas, ON","country":"Canada","cc":"CA","sponsor":"Bell Canada","id":"43553","preferred":0,"isp_id":"0","https_functional":1,"host":"wirelinespeedteststthomas.srvr.bell.ca.prod.hosts.ooklaserver.net:8080"},
{"url":"http://ststratford.rogers.com:8080/speedtest/upload.php","lat":"43.3700","lon":"-80.9822","distance":0,"name":"Stratford, ON","country":"Canada","cc":"CA","sponsor":"Rogers","id":"47547","preferred":0,"isp_id":"164","https_functional":1,"host":"ststratford.rogers.com:8080"},
{"url":"http://ststratfordwireless.rogers.com:8080/speedtest/upload.php","lat":"43.3700","lon":"-80.9822","distance":0,"name":"Stratford, ON","country":"Canada","cc":"CA","sponsor":"Rogers Wireless","id":"47353","preferred":0,"isp_id":"164","https_functional":1,"host":"ststratfordwireless.rogers.com:8080"},
{"url":"http://speedtest.seaside.ns.ca:8080/speedtest/upload.php","lat":"46.1378","lon":"-60.1829","distance":0,"name":"Sydney, NS","country":"Canada","cc":"CA","sponsor":"Seaside Communications","id":"1245","preferred":0,"isp_id":"29067","https_functional":1,"host":"speedtest.seaside.ns.ca.prod.hosts.ooklaserver.net:8080"},
{"url":"http://wirelinespeedtestsydney.srvr.bell.ca:8080/speedtest/upload.php","lat":"46.1378","lon":"-60.1829","distance":0,"name":"Sydney, NS","country":"Canada","cc":"CA","sponsor":"Bell Aliant","id":"55031","preferred":0,"isp_id":"254596","https_functional":1,"host":"wirelinespeedtestsydney.srvr.bell.ca.prod.hosts.ooklaserver.net:8080"},
{"url":"http://wirelinespeedtesttecumseh.srvr.bell.ca:8080/speedtest/upload.php","lat":"42.3118","lon":"-82.8858","distance":0,"name":"Tecumseh, ON","country":"Canada","cc":"CA","sponsor":"Bell Canada","id":"46799","preferred":0,"isp_id":"0","https_functional":1,"host":"wirelinespeedtesttecumseh.srvr.bell.ca.prod.hosts.ooklaserver.net:8080"},
{"url":"http://east-speedtest.frontiernetworks.ca:8080/speedtest/upload.php","lat":"43.6481","lon":"-79.4042","distance":0,"name":"Toronto, ON","country":"Canada","cc":"CA","sponsor":"Frontier Networks Inc","id":"13238","preferred":0,"isp_id":"47813","https_functional":1,"host":"east-speedtest.frontiernetworks.ca.prod.hosts.ooklaserver.net:8080"},
{"url":"http://falcon.its.utoronto.ca:8080/speedtest/upload.php","lat":"43.6481","lon":"-79.4042","distance":0,"name":"Toronto, ON","country":"Canada","cc":"CA","sponsor":"University of Toronto","id":"22138","preferred":0,"isp_id":"680","https_functional":1,"host":"falcon.its.utoronto.ca:8080"},
{"url":"http://lg-tor.fdcservers.net:8080/speedtest/upload.php","lat":"43.6481","lon":"-79.4042","distance":0,"name":"Toronto, ON","country":"Canada","cc":"CA","sponsor":"fdcservers.net","id":"9911","preferred":0,"isp_id":"27716","https_functional":1,"host":"lg-tor.fdcservers.net:8080"},
{"url":"http://spdtst.xenyth.net:8080/speedtest/upload.php","lat":"43.6481","lon":"-79.4042","distance":0,"name":"Toronto, ON","country":"Canada","cc":"CA","sponsor":"GoCodeIT Inc","id":"38242","preferred":0,"isp_id":"244111","https_functional":1,"host":"spdtst.xenyth.net.prod.hosts.ooklaserver.net:8080"},
{"url":"http://speedtest-ca.pq.hosting:8080/speedtest/upload.php","lat":"43.6532","lon":"-79.3832","distance":0,"name":"Toronto, ON","country":"Canada","cc":"CA","sponsor":"PQ.Hosting","id":"64811","preferred":0,"isp_id":"44428","host":"speedtest-ca.pq.hosting:8080"},
{"url":"http://speedtest-engine.primus.ca/speedtest/upload.php","lat":"43.6487","lon":"-79.3854","distance":0,"name":"Toronto, ON","country":"Canada","cc":"CA","sponsor":"Primus","id":"15038","preferred":0,"isp_id":"861","https_functional":1,"host":"speedtest-engine.primus.ca.prod.hosts.ooklaserver.net:8080"},
{"url":"http://speedtest-tor.beanfield.com:8080/speedtest/upload.php","lat":"43.6481","lon":"-79.4042","distance":0,"name":"Toronto, ON","country":"Canada","cc":"CA","sponsor":"Beanfield","id":"64882","preferred":0,"isp_id":"4966","https_functional":1,"host":"speedtest-tor.beanfield.com.prod.hosts.ooklaserver.net:8080"},
{"url":"http://speedtest.ca-tr.kamatera.com:8080/speedtest/upload.php","lat":"43.6481","lon":"-79.4042","distance":0,"name":"Toronto, ON","country":"Canada","cc":"CA","sponsor":"KamaTera, Inc.","id":"69754","preferred":0,"isp_id":"177546","https_functional":1,"host":"speedtest.ca-tr.kamatera.com.prod.hosts.ooklaserver.net:8080"},
{"url":"http://speedtest.netcrawler.ca:8080/speedtest/upload.php","lat":"43.6481","lon":"-79.4042","distance":0,"name":"Toronto, ON","country":"Canada","cc":"CA","sponsor":"Netcrawler.ca Internet","id":"46580","preferred":0,"isp_id":"226932","https_functional":1,"host":"speedtest.netcrawler.ca.prod.hosts.ooklaserver.net:8080"},
{"url":"http://speedtest.nexicom.net:8080/speedtest/upload.php","lat":"43.6481","lon":"-79.4042","distance":0,"name":"Toronto, ON","country":"Canada","cc":"CA","sponsor":"Nexicom Inc.","id":"826","preferred":0,"isp_id":"768","https_functional":1,"host":"speedtest.nexicom.net.prod.hosts.ooklaserver.net:8080"},
{"url":"http://speedtest.techminds.ca:8080/speedtest/upload.php","lat":"43.6481","lon":"-79.4042","distance":0,"name":"Toronto, ON","country":"Canada","cc":"CA","sponsor":"TechMinds Inc.","id":"69942","preferred":0,"isp_id":"255623","host":"speedtest.techminds.ca:8080"},
{"url":"http://speedtest1.innsys.ca:8080/speedtest/upload.php","lat":"43.6481","lon":"-79.4042","distance":0,"name":"Toronto, ON","country":"Canada","cc":"CA","sponsor":"InnSys Inc","id":"50317","preferred":0,"isp_id":"65417","https_functional":1,"host":"speedtest1.innsys.ca.prod.hosts.ooklaserver.net:8080"},
{"url":"http://speedtest1.xbase.com:8080/speedtest/upload.php","lat":"43.6481","lon":"-79.4042","distance":0,"name":"Toronto, ON","country":"Canada","cc":"CA","sponsor":"XBASE Technologies","id":"59322","preferred":0,"isp_id":"478","https_functional":1,"host":"speedtest1.xbase.com.prod.hosts.ooklaserver.net:8080"},
{"url":"http://speedtest2-tor.teksavvy.com:8080/speedtest/upload.php","lat":"43.6532","lon":"-79.3832","distance":0,"name":"Toronto, ON","country":"Canada","cc":"CA","sponsor":"Teksavvy Solutions Inc","id":"32632","preferred":0,"isp_id":"2324","https_functional":1,"host":"speedtest2-tor.teksavvy.com.prod.hosts.ooklaserver.net:8080"},
{"url":"http://speedtester.comwave.net:8080/speedtest/upload.php","lat":"43.6481","lon":"-79.4042","distance":0,"name":"Toronto, ON","country":"Canada","cc":"CA","sponsor":"Comwave Networks Inc","id":"31127","preferred":0,"isp_id":"81764","https_functional":1,"host":"speedtester.comwave.net.prod.hosts.ooklaserver.net:8080"},
{"url":"http://sttoronto.rogers.com:8080/speedtest/upload.php","lat":"43.6481","lon":"-79.4042","distance":0,"name":"Toronto, ON","country":"Canada","cc":"CA","sponsor":"Rogers","id":"46143","preferred":0,"isp_id":"164","https_functional":1,"host":"sttoronto.rogers.com:8080"},
{"url":"http://sttorontowireless.rogers.com:8080/speedtest/upload.php","lat":"43.6481","lon":"-79.4042","distance":0,"name":"Toronto, ON","country":"Canada","cc":"CA","sponsor":"Rogers Wireless","id":"46759","preferred":0,"isp_id":"164","https_functional":1,"host":"sttorontowireless.rogers.com:8080"},
{"url":"http://T4Y-Tor-STS1.Ser.Tek4You.ca:8080/speedtest/upload.php","lat":"43.6481","lon":"-79.4042","distance":0,"name":"Toronto, ON","country":"Canada","cc":"CA","sponsor":"Tek4You Computer Repair & IT Services","id":"54410","preferred":0,"isp_id":"274949","https_functional":1,"host":"T4Y-Tor-STS1.Ser.Tek4You.ca.prod.hosts.ooklaserver.net:8080"},
{"url":"http://tdc01-speedtest.whipcord.com:8080/speedtest/upload.php","lat":"43.6481","lon":"-79.4042","distance":0,"name":"Toronto, ON","country":"Canada","cc":"CA","sponsor":"Whipcord Edge Data Centres","id":"69636","preferred":0,"isp_id":"112588","https_functional":1,"host":"tdc01-speedtest.whipcord.com.prod.hosts.ooklaserver.net:8080"},
{"url":"http://tor-speedtest.net.sangoma.net:8080/speedtest/upload.php","lat":"43.6481","lon":"-79.4042","distance":0,"name":"Toronto, ON","country":"Canada","cc":"CA","sponsor":"Sangoma","id":"63994","preferred":0,"isp_id":"289410","https_functional":1,"host":"tor-speedtest.net.sangoma.net.prod.hosts.ooklaserver.net:8080"},
{"url":"http://tor11speedtest01.srvr.bell.ca:8080/speedtest/upload.php","lat":"43.6481","lon":"-79.4042","distance":0,"name":"Toronto, ON","country":"Canada","cc":"CA","sponsor":"Bell Mobility","id":"16753","preferred":0,"isp_id":"0","https_functional":1,"host":"tor11speedtest01.srvr.bell.ca.prod.hosts.ooklaserver.net:8080"},
{"url":"http://toronto.speedtest.telus.com:8080/speedtest/upload.php","lat":"43.6481","lon":"-79.4042","distance":0,"name":"Toronto, ON","country":"Canada","cc":"CA","sponsor":"TELUS","id":"3575","preferred":0,"isp_id":"256720","https_functional":1,"host":"toronto.speedtest.telus.com.prod.hosts.ooklaserver.net:8080"},
{"url":"http://toronto2.speedtest.telus.com:8080/speedtest/upload.php","lat":"43.6481","lon":"-79.4042","distance":0,"name":"Toronto, ON","country":"Canada","cc":"CA","sponsor":"TELUS Mobility","id":"24698","preferred":0,"isp_id":"256720","https_functional":1,"host":"toronto2.speedtest.telus.com.prod.hosts.ooklaserver.net:8080"},
{"url":"http://trtspeedtest.altimatel.com:8080/speedtest/upload.php","lat":"43.6481","lon":"-79.4042","distance":0,"name":"Toronto, ON","country":"Canada","cc":"CA","sponsor":"Altima Telecom","id":"63649","preferred":0,"isp_id":"72038","https_functional":1,"host":"trtspeedtest.altimatel.com.prod.hosts.ooklaserver.net:8080"},
{"url":"http://tsdvuspeedtest01p.allstream.com:8080/speedtest/upload.php","lat":"43.6481","lon":"-79.4042","distance":0,"name":"Toronto, ON","country":"Canada","cc":"CA","sponsor":"allstream","id":"56781","preferred":0,"isp_id":"18366","https_functional":1,"host":"tsdvuspeedtest01p.allstream.com.prod.hosts.ooklaserver.net:8080"},
{"url":"http://wirelinespeedtesttoronto.srvr.bell.ca:8080/speedtest/upload.php","lat":"43.6481","lon":"-79.4042","distance":0,"name":"Toronto, ON","country":"Canada","cc":"CA","sponsor":"Bell Canada","id":"53393","preferred":0,"isp_id":"0","https_functional":1,"host":"wirelinespeedtesttoronto.srvr.bell.ca.prod.hosts.ooklaserver.net:8080"},
{"url":"http://yyz-speedtest.xplore.ca:8080/speedtest/upload.php","lat":"43.6481","lon":"-79.4042","distance":0,"name":"Toronto, ON","country":"Canada","cc":"CA","sponsor":"Xplore Inc","id":"53159","preferred":0,"isp_id":"70988","https_functional":1,"host":"yyz-speedtest.xplore.ca.prod.hosts.ooklaserver.net:8080"},
{"url":"http://stvaughan.netcrawler.ca:8080/speedtest/upload.php","lat":"43.8563","lon":"-79.5085","distance":0,"name":"Vaughan, ON","country":"Canada","cc":"CA","sponsor":"Netcrawler.ca Internet","id":"49003","preferred":0,"isp_id":"226932","https_functional":1,"host":"stvaughan.netcrawler.ca.prod.hosts.ooklaserver.net:8080"},
{"url":"http://stvaughan.rogers.com:8080/speedtest/upload.php","lat":"43.8563","lon":"-79.5085","distance":0,"name":"Vaughan, ON","country":"Canada","cc":"CA","sponsor":"Rogers","id":"46764","preferred":0,"isp_id":"164","https_functional":1,"host":"stvaughan.rogers.com:8080"},
{"url":"http://speedtest.packetworks.net:8080/speedtest/upload.php","lat":"43.4667","lon":"-80.5167","distance":0,"name":"Waterloo, ON","country":"Canada","cc":"CA","sponsor":"Packetworks","id":"22208","preferred":0,"isp_id":"3694","https_functional":1,"host":"speedtest.packetworks.net:8080"},
{"url":"http://stwaterloo.netcrawler.ca:8080/speedtest/upload.php","lat":"43.4667","lon":"-80.5167","distance":0,"name":"Waterloo, ON","country":"Canada","cc":"CA","sponsor":"Netcrawler.ca Internet","id":"54207","preferred":0,"isp_id":"226932","https_functional":1,"host":"stwaterloo.netcrawler.ca.prod.hosts.ooklaserver.net:8080"},
{"url":"http://stwaterloo.rogers.com:8080/speedtest/upload.php","lat":"43.4667","lon":"-80.5167","distance":0,"name":"Waterloo, ON","country":"Canada","cc":"CA","sponsor":"Rogers","id":"46765","preferred":0,"isp_id":"164","https_functional":1,"host":"stwaterloo.rogers.com:8080"},
{"url":"http://tor63spd02.srvr.bell.ca:8080/speedtest/upload.php","lat":"43.4667","lon":"-80.5167","distance":0,"name":"Waterloo, ON","country":"Canada","cc":"CA","sponsor":"Bell Mobility","id":"46914","preferred":0,"isp_id":"0","https_functional":1,"host":"tor63spd02.srvr.bell.ca.prod.hosts.ooklaserver.net:8080"},
{"url":"http://stwellandpelhamwireless.rogers.com:8080/speedtest/upload.php","lat":"42.9922","lon":"-79.2483","distance":0,"name":"Welland–Pelham, ON","country":"Canada","cc":"CA","sponsor":"Rogers Wireless","id":"47341","preferred":0,"isp_id":"164","https_functional":1,"host":"stwellandpelhamwireless.rogers.com:8080"},
{"url":"http://speedtest.fibernetics.ca:8080/speedtest/upload.php","lat":"43.4500","lon":"-80.4833","distance":0,"name":"Whitby, ON","country":"Canada","cc":"CA","sponsor":"Fibernetics Corporation","id":"68661","preferred":0,"isp_id":"76203","https_functional":1,"host":"speedtest.fibernetics.ca:8080"},
{"url":"http://40gspeedtest.mnsi.net:8080/speedtest/upload.php","lat":"42.2833","lon":"-83.0000","distance":0,"name":"Windsor, ON","country":"Canada","cc":"CA","sponsor":"MNSi Telecom","id":"55994","preferred":0,"isp_id":"2217","https_functional":1,"host":"40gspeedtest.mnsi.net:8080"},
{"url":"http://mobilityooklawindsor.srvr.bell.ca:8080/speedtest/upload.php","lat":"42.2833","lon":"-83.0000","distance":0,"name":"Windsor, ON","country":"Canada","cc":"CA","sponsor":"Bell Mobility","id":"52350","preferred":0,"isp_id":"0","https_functional":1,"host":"mobilityooklawindsor.srvr.bell.ca.prod.hosts.ooklaserver.net:8080"},
{"url":"http://stwindsorwireless.rogers.com:8080/speedtest/upload.php","lat":"42.2833","lon":"-83.0000","distance":0,"name":"Windsor, ON","country":"Canada","cc":"CA","sponsor":"Rogers Wireless","id":"46126","preferred":0,"isp_id":"164","https_functional":1,"host":"stwindsorwireless.rogers.com:8080"},
{"url":"http://wirelinespeedtestwindsor.srvr.bell.ca:8080/speedtest/upload.php","lat":"42.2833","lon":"-83.0000","distance":0,"name":"Windsor, ON","country":"Canada","cc":"CA","sponsor":"Bell Canada","id":"46798","preferred":0,"isp_id":"0","https_functional":1,"host":"wirelinespeedtestwindsor.srvr.bell.ca.prod.hosts.ooklaserver.net:8080"},
{"url":"http://speedtest.execulink.ca:8080/speedtest/upload.php","lat":"43.1315","lon":"-80.7472","distance":0,"name":"Woodstock, ON","country":"Canada","cc":"CA","sponsor":"Execulink Telecom Inc","id":"16447","preferred":0,"isp_id":"47737","host":"speedtest.execulink.ca:8080"},
{"url":"http://stwoodstock.rogers.com:8080/speedtest/upload.php","lat":"43.1315","lon":"-80.7472","distance":0,"name":"Woodstock, ON","country":"Canada","cc":"CA","sponsor":"Rogers","id":"47543","preferred":0,"isp_id":"164","https_functional":1,"host":"stwoodstock.rogers.com:8080"},
{"url":"http://stwoodstockwireless.rogers.com:8080/speedtest/upload.php","lat":"43.1315","lon":"-80.7472","distance":0,"name":"Woodstock, ON","country":"Canada","cc":"CA","sponsor":"Rogers Wireless","id":"47348","preferred":0,"isp_id":"164","https_functional":1,"host":"stwoodstockwireless.rogers.com:8080"},